run_id,scenario,label,gen,timestamp,Q_PITCH,Q_PITCH_RATE,Q_VEL,R,KP_V,KI_V,KFF_V,KP_YAW,KI_YAW,LEG_K_S,LEG_B_S,LEG_K_ROLL,LEG_D_ROLL,rms_pitch_deg,max_pitch_deg,wheel_travel_m,wheel_liftoff_s,vel_track_rms_ms,hip_track_rms_rad,hip_cmd_rate_rms,settle_time_s,survived_s,fitness_balance,fitness_disturbance,fitness_drive_slow,fitness_drive_med,fitness_obstacle,fitness,status,fail_reason
1,s01_lqr_pitch_step,evo_seed,0,,0.692383,0.001,0.00161521,43.7238,,,,,,,,,,3.7521,5.4409,2.5055,0.0,0.5746,0.123841,0.0,0.28,5.0,,,,,,4.352025,PASS,
2,s01_lqr_pitch_step,g000000_c0,0,,0.7085418621249445,2.011860628666734,4.8324813703255505e-05,12.667034594159759,,,,,,,,,,3.6069,5.1954,2.7752,0.0,0.6349,0.123905,0.0,0.288,5.0,,,,,,4.284675,PASS,
3,s01_lqr_pitch_step,g000000_c1,0,,0.19120444486526766,0.001,0.0011388587838741502,4.227804789425068,,,,,,,,,,3.9683,5.9077,2.0229,0.0,0.4724,0.12373,0.0,0.272,5.0,,,,,,4.833875,PASS,
4,s01_lqr_pitch_step,g000000_c2,0,,2.8118610040274503,0.001,0.19057821839154063,100.0,,,,,,,,,,4.0352,6.4455,1.4712,0.0,0.3325,0.123359,0.0,0.236,5.0,,,,,,6.765975,PASS,
5,s01_lqr_pitch_step,g000000_c3,0,,0.04891986391472754,0.001,9.884423902469394e-05,100.0,,,,,,,,,,3.5687,5.1377,2.8063,0.0,0.6422,0.123928,0.0,0.284,5.0,,,,,,4.05015,PASS,
6,s01_lqr_pitch_step,g000000_c4,0,,0.18451541908008143,0.011853181064744225,0.00011735222984874877,80.26079356832281,,,,,,,,,,3.5777,5.149,2.7919,0.0,0.639,0.123919,0.0,0.284,5.0,,,,,,4.082775,PASS,
7,s01_lqr_pitch_step,g000000_c5,0,,0.07356019268591511,0.001,0.0018074655081313877,20.699870235235053,,,,,,,,,,3.8405,5.6106,2.3361,0.0,0.5381,0.12387,0.0,0.278,5.0,,,,,,4.542875,PASS,
8,s01_lqr_pitch_step,g000000_c6,0,,0.45801563733074635,0.0024299287802010917,0.00011916691782889765,7.642422578584302,,,,,,,,,,3.6828,5.3166,2.6251,0.0,0.6013,0.123845,0.0,0.282,5.0,,,,,,4.257875,PASS,
9,s01_lqr_pitch_step,g000000_c7,0,,13.758225168404621,0.01695037292305893,0.0014131423688087468,100.0,,,,,,,,,,3.676,5.3058,2.6326,0.0,0.6024,0.123893,0.0,0.282,5.0,,,,,,4.214175,PASS,
10,s01_lqr_pitch_step,g000001_c0,1,,0.01,0.0035871834028602806,0.0025058670367318426,100.0,,,,,,,,,,3.7184,5.3803,2.564,0.0,0.5877,0.123844,0.0,0.282,5.0,,,,,,4.290125,PASS,
11,s01_lqr_pitch_step,g000001_c1,1,,0.011940093562281257,0.0019029958467400123,2.9540865924324317e-07,73.59215731671064,,,,,,,,,,3.5281,5.1002,2.8667,0.0,0.6562,0.123919,0.0,0.286,5.0,,,,,,4.023325,PASS,
12,s01_lqr_pitch_step,g000001_c2,1,,0.029529525248155206,0.004693248822349981,3.2350839601765296e-05,100.0,,,,,,,,,,3.5511,5.1223,2.8322,0.0,0.6482,0.123896,0.0,0.286,5.0,,,,,,4.02095,PASS,
13,s01_lqr_pitch_step,g000001_c3,1,,12.857761793397916,0.052267017710121225,0.0010838655237775613,0.2895864866094798,,,,,,,,,,8.9242,20.8417,17.0294,0.1,6.6199,0.1389,0.0,5.0,3.816,,,,,,673.948525,FAIL,wheels off ground
14,s01_lqr_pitch_step,g000001_c4,1,,0.01,0.001,2.8401888913968557e-06,15.513371819305544,,,,,,,,,,3.5443,5.1121,2.8428,0.0,0.6507,0.123934,0.0,0.286,5.0,,,,,,4.02525,PASS,
15,s01_lqr_pitch_step,g000001_c5,1,,0.01,0.001,0.0009053693105934609,78.56765226073045,,,,,,,,,,3.663,5.2828,2.657,0.0,0.6083,0.123893,0.0,0.284,5.0,,,,,,4.197825,PASS,
16,s01_lqr_pitch_step,g000001_c6,1,,0.01,0.0035346493402187385,2.182060661552604e-06,23.215413839799965,,,,,,,,,,3.5391,5.1078,2.8517,0.0,0.6526,0.123915,0.0,0.286,5.0,,,,,,3.996,PASS,
17,s01_lqr_pitch_step,g000001_c7,1,,0.01,0.001,1.331590329219227e-05,26.85875331404513,,,,,,,,,,3.556,5.1247,2.8243,0.0,0.6464,0.123895,0.0,0.286,5.0,,,,,,4.034575,PASS,
18,s01_lqr_pitch_step,g000002_c0,2,,0.06638871545158535,0.005353875441375965,1.0410600784484577e-06,24.143048826673596,,,,,,,,,,3.5357,5.102,2.8553,0.0,0.6533,0.12396,0.0,0.286,5.0,,,,,,3.991025,PASS,
19,s01_lqr_pitch_step,g000002_c1,2,,0.12361595050523361,0.004892763963133842,1.8205992717154373e-06,100.0,,,,,,,,,,3.5307,5.0956,2.8606,0.0,0.6548,0.123917,0.0,0.286,5.0,,,,,,4.008175,PASS,
20,s01_lqr_pitch_step,g000002_c2,2,,0.051598704523097116,0.0018815652041671471,5.112335305368212e-07,100.0,,,,,,,,,,3.5288,5.099,2.8634,0.0,0.6554,0.123915,0.0,0.286,5.0,,,,,,3.978025,PASS,
21,s01_lqr_pitch_step,g000002_c3,2,,0.01,0.010620111268852974,1.3415211686767267e-07,0.148173146812209,,,,,,,,,,3.567,5.1368,2.8235,0.0,0.6461,0.123926,0.0,0.286,5.0,,,,,,4.11305,PASS,
22,s01_lqr_pitch_step,g000002_c4,2,,0.03851235274185743,0.001,4.350132808153513e-06,100.0,,,,,,,,,,3.5348,5.1068,2.8575,0.0,0.6541,0.123914,0.0,0.286,5.0,,,,,,3.9976,PASS,
23,s01_lqr_pitch_step,g000002_c5,2,,0.02488661623579521,0.009203065507815631,1.6504128647596447e-07,3.05959522845182,,,,,,,,,,3.5353,5.1038,2.8591,0.0,0.655,0.123916,0.0,0.286,5.0,,,,,,4.051625,PASS,
24,s01_lqr_pitch_step,g000002_c6,2,,0.01,0.004888448927216824,1.56916418069444e-05,7.446229291417685,,,,,,,,,,3.5885,5.1646,2.7763,0.0,0.6354,0.123921,0.0,0.284,5.0,,,,,,4.08765,PASS,
25,s01_lqr_pitch_step,g000002_c7,2,,0.017352030355053314,0.001,9.62614762900105e-07,100.0,,,,,,,,,,3.5296,5.0984,2.8736,0.0,0.6591,0.123962,0.0,0.286,5.0,,,,,,3.99565,PASS,
26,s01_lqr_pitch_step,g000003_c0,3,,0.5154961103242665,0.0028788686686593836,3.846202084266931e-06,13.355228941722238,,,,,,,,,,3.5495,5.1163,2.8347,0.0,0.6489,0.123915,0.0,0.286,5.0,,,,,,4.058275,PASS,
27,s01_lqr_pitch_step,g000003_c1,3,,0.01,0.012397481053049214,2.6318363683192005e-05,0.9010352475322726,,,,,,,,,,3.7308,5.3995,2.5429,0.0,0.5828,0.123832,0.0,0.282,5.0,,,,,,4.298025,PASS,
28,s01_lqr_pitch_step,g000003_c2,3,,0.13418935798384785,1.5897162973257526,1.1451302869821451e-07,4.839993589066466,,,,,,,,,,3.5302,5.1137,2.9093,0.0,0.6647,0.12399,0.0,0.294,5.0,,,,,,4.48325,PASS,
29,s01_lqr_pitch_step,g000003_c3,3,,0.07645260271173036,0.002395421462935082,1e-07,43.67089177613225,,,,,,,,,,3.5268,5.0961,2.8672,0.0,0.6563,0.123921,0.0,0.286,5.0,,,,,,4.003675,PASS,
30,s01_lqr_pitch_step,g000003_c4,3,,0.01,0.001,1.0760196785331883e-07,100.0,,,,,,,,,,3.5262,5.0919,2.8688,0.0,0.6567,0.123929,0.0,0.286,5.0,,,,,,4.0061,PASS,
31,s01_lqr_pitch_step,g000003_c5,3,,0.01,0.17660629106159292,1.8561635365427952e-06,100.0,,,,,,,,,,3.531,5.0977,2.8653,0.0,0.6562,0.123938,0.0,0.286,5.0,,,,,,4.0099,PASS,
32,s01_lqr_pitch_step,g000003_c6,3,,0.020088794266283745,0.001,1e-07,5.858563877425825,,,,,,,,,,3.5315,5.101,2.864,0.0,0.6556,0.123927,0.0,0.286,5.0,,,,,,3.9982,PASS,
33,s01_lqr_pitch_step,g000003_c7,3,,0.5058962076119756,0.0019607565531067597,1e-07,0.6624599573841151,,,,,,,,,,3.542,5.1073,2.84,0.0,0.65,0.123919,0.0,0.284,5.0,,,,,,4.023675,PASS,
34,s01_lqr_pitch_step,g000004_c0,4,,0.08599663219141729,0.002089692291112027,6.650349191228571e-07,100.0,,,,,,,,,,3.529,5.0977,2.8652,0.0,0.6558,0.12392,0.0,0.286,5.0,,,,,,3.9946,PASS,
35,s01_lqr_pitch_step,g000004_c1,4,,0.01,0.001,1e-07,100.0,,,,,,,,,,3.5276,5.0959,2.8603,0.0,0.6541,0.123947,0.0,0.286,5.0,,,,,,4.0244,PASS,
36,s01_lqr_pitch_step,g000004_c2,4,,0.36988780612827316,0.015876593449162268,1.7159461552221143e-07,100.0,,,,,,,,,,3.5275,5.0951,2.8674,0.0,0.6563,0.123918,0.0,0.286,5.0,,,,,,3.986325,PASS,
37,s01_lqr_pitch_step,g000004_c3,4,,2.9557452072817063,0.001,1.467127813304679e-05,100.0,,,,,,,,,,3.5426,5.1111,2.8447,0.0,0.6511,0.123914,0.0,0.286,5.0,,,,,,4.038425,PASS,
38,s01_lqr_pitch_step,g000004_c4,4,,0.4002360578613506,0.004147318664218487,1.6192127981782422e-07,100.0,,,,,,,,,,3.5269,5.0951,2.8688,0.0,0.6568,0.123941,0.0,0.286,5.0,,,,,,4.026875,PASS,
39,s01_lqr_pitch_step,g000004_c5,4,,0.2181533927473187,0.006916490208141629,2.37303636133469e-05,100.0,,,,,,,,,,3.5473,5.1136,2.8369,0.0,0.6493,0.123904,0.0,0.286,5.0,,,,,,4.031475,PASS,
40,s01_lqr_pitch_step,g000004_c6,4,,0.07673297107072806,0.001,2.4213948332549015e-06,25.56935585242126,,,,,,,,,,3.5391,5.1078,2.8457,0.0,0.6509,0.123951,0.0,0.286,5.0,,,,,,4.047625,PASS,
41,s01_lqr_pitch_step,g000004_c7,4,,0.01,0.001,1.7471159237421108e-06,21.364277115290133,,,,,,,,,,3.5381,5.1073,2.8522,0.0,0.6529,0.123914,0.0,0.286,5.0,,,,,,4.00295,PASS,
42,s01_lqr_pitch_step,g000005_c0,5,,0.055803220493565765,0.00960328333253955,1e-07,7.346060490044009,,,,,,,,,,3.5301,5.1015,2.8582,0.0,0.6536,0.123961,0.0,0.286,5.0,,,,,,4.0035,PASS,
43,s01_lqr_pitch_step,g000005_c1,5,,0.053303503123347994,0.016000640351379037,1e-07,21.314907435747493,,,,,,,,,,3.5287,5.0942,2.8717,0.0,0.658,0.123917,0.0,0.286,5.0,,,,,,4.065625,PASS,
44,s01_lqr_pitch_step,g000005_c2,5,,0.04206764560170781,0.0037772653052690584,7.652355791766688e-07,100.0,,,,,,,,,,3.5281,5.0985,2.8657,0.0,0.6561,0.123917,0.0,0.286,5.0,,,,,,4.04775,PASS,
45,s01_lqr_pitch_step,g000005_c3,5,,0.25965724420998143,0.001,2.8950454628067063e-06,3.870277348979342,,,,,,,,,,3.5641,5.134,2.8139,0.0,0.6441,0.12392,0.0,0.284,5.0,,,,,,4.0447,PASS,
46,s01_lqr_pitch_step,g000005_c4,5,,0.026572049154687874,0.001,7.901255815750511e-06,100.0,,,,,,,,,,3.5372,5.1055,2.8526,0.0,0.653,0.123916,0.0,0.286,5.0,,,,,,4.0435,PASS,
47,s01_lqr_pitch_step,g000005_c5,5,,0.01,0.16391000907576075,1.4999269121423028e-07,100.0,,,,,,,,,,3.5276,5.0972,2.8692,0.0,0.6568,0.123921,0.0,0.286,5.0,,,,,,4.012425,PASS,
48,s01_lqr_pitch_step,g000005_c6,5,,0.12048631809225184,0.5044396625116225,9.806555640768159e-07,100.0,,,,,,,,,,3.5305,5.099,2.8657,0.0,0.656,0.123929,0.0,0.286,5.0,,,,,,3.993075,PASS,
49,s01_lqr_pitch_step,g000005_c7,5,,4.03638639018718,0.5093904682725134,1e-07,26.374273619799922,,,,,,,,,,3.5273,5.0984,2.8684,0.0,0.6565,0.123925,0.0,0.286,5.0,,,,,,3.98025,PASS,
50,s01_lqr_pitch_step,g000006_c0,6,,0.3498133833096964,0.003798108115027172,4.0272716821151954e-07,100.0,,,,,,,,,,3.5278,5.0982,2.8658,0.0,0.656,0.123917,0.0,0.286,5.0,,,,,,3.97165,PASS,
51,s01_lqr_pitch_step,g000006_c1,6,,0.02205077967727375,0.001,9.474202778433049e-06,66.74485756910441,,,,,,,,,,3.5414,5.1098,2.8448,0.0,0.6511,0.123902,0.0,0.286,5.0,,,,,,4.006625,PASS,
52,s01_lqr_pitch_step,g000006_c2,6,,0.01,0.001,5.2447555543749456e-06,100.0,,,,,,,,,,3.5358,5.103,2.8558,0.0,0.6537,0.123928,0.0,0.286,5.0,,,,,,4.0228,PASS,
53,s01_lqr_pitch_step,g000006_c3,6,,0.18515520175845762,0.007356508643018011,7.0803374379294196e-06,100.0,,,,,,,,,,3.5375,5.1078,2.8521,0.0,0.6528,0.123913,0.0,0.286,5.0,,,,,,4.00695,PASS,
54,s01_lqr_pitch_step,g000006_c4,6,,0.016400327562337457,0.001,3.824999560580742e-06,10.573262218508203,,,,,,,,,,3.5512,5.1251,2.8366,0.0,0.6498,0.123936,0.0,0.286,5.0,,,,,,4.03455,PASS,
55,s01_lqr_pitch_step,g000006_c5,6,,0.0127266860612032,0.001,1.1534793823680612e-06,20.104537989451593,,,,,,,,,,3.5351,5.1029,2.8555,0.0,0.6536,0.123917,0.0,0.286,5.0,,,,,,3.9953,PASS,
56,s01_lqr_pitch_step,g000006_c6,6,,0.13618057600122835,0.012378662486335684,3.8901259505708415e-06,28.808920515078515,,,,,,,,,,3.5417,5.1103,2.8497,0.0,0.6527,0.123944,0.0,0.286,5.0,,,,,,4.015,PASS,
57,s01_lqr_pitch_step,g000006_c7,6,,0.06860618726735325,0.001,1.5880779319509448e-06,100.0,,,,,,,,,,3.5308,5.1,2.865,0.0,0.6562,0.123939,0.0,0.286,5.0,,,,,,4.013675,PASS,
58,s01_lqr_pitch_step,g000007_c0,7,,0.014029704909226231,0.003834935903538434,3.1327698728834434e-06,100.0,,,,,,,,,,3.5325,5.0997,2.8591,0.0,0.6545,0.123917,0.0,0.286,5.0,,,,,,3.9969,PASS,
59,s01_lqr_pitch_step,g000007_c1,7,,0.34484128108494866,0.04921799720862268,2.2831779917177523e-06,100.0,,,,,,,,,,3.5325,5.0993,2.8595,0.0,0.6545,0.123917,0.0,0.286,5.0,,,,,,4.03135,PASS,
60,s01_lqr_pitch_step,g000007_c2,7,,0.7653620821233116,0.001,7.460561286990554e-05,1.220416356263438,,,,,,,,,,3.8006,5.5308,2.4279,0.0,0.5619,0.123862,0.0,0.278,5.0,,,,,,4.4741,PASS,
61,s01_lqr_pitch_step,g000007_c3,7,,0.28636969153713543,0.01927369706843985,8.118051787649292e-06,100.0,,,,,,,,,,3.538,5.1061,2.8506,0.0,0.6525,0.123889,0.0,0.286,5.0,,,,,,4.02085,PASS,
62,s01_lqr_pitch_step,g000007_c4,7,,0.3366077357470179,0.007339620534797511,2.16140583878384e-07,11.561136243874653,,,,,,,,,,3.5319,5.1014,2.8622,0.0,0.6551,0.123932,0.0,0.286,5.0,,,,,,4.020775,PASS,
63,s01_lqr_pitch_step,g000007_c5,7,,4.512113792036392,0.07755864192910722,1e-07,60.88506581011054,,,,,,,,,,3.5264,5.0961,2.8671,0.0,0.6563,0.123916,0.0,0.286,5.0,,,,,,4.01315,PASS,
64,s01_lqr_pitch_step,g000007_c6,7,,0.3541530796414957,0.017773536612331695,2.145784875717733e-06,29.690111320847063,,,,,,,,,,3.5373,5.1049,2.8564,0.0,0.6542,0.123938,0.0,0.286,5.0,,,,,,4.007825,PASS,
65,s01_lqr_pitch_step,g000007_c7,7,,6.949365127144715,0.004225624926723549,3.84649664087472e-07,100.0,,,,,,,,,,3.5273,5.0985,2.8631,0.0,0.6549,0.123968,0.0,0.286,5.0,,,,,,4.004125,PASS,
66,s01_lqr_pitch_step,g000008_c0,8,,4.724756939370363,0.0034272531887499843,4.605476311148554e-06,23.043112772878803,,,,,,,,,,3.5443,5.1137,2.8384,0.0,0.6496,0.123896,0.0,0.286,5.0,,,,,,4.031425,PASS,
67,s01_lqr_pitch_step,g000008_c1,8,,0.029903373043856894,0.1266598534501743,1.6117250539669904e-05,25.61456543232096,,,,,,,,,,3.5605,5.1287,2.8199,0.0,0.6453,0.1239,0.0,0.286,5.0,,,,,,4.0864,PASS,
68,s01_lqr_pitch_step,g000008_c2,8,,0.7936326028731198,0.0032696979317793262,1.513838855905186e-07,67.7324474332601,,,,,,,,,,3.5278,5.0961,2.868,0.0,0.6565,0.12392,0.0,0.286,5.0,,,,,,3.995375,PASS,
69,s01_lqr_pitch_step,g000008_c3,8,,0.0516300650941397,0.03857443477445855,9.055651869458187e-07,100.0,,,,,,,,,,3.529,5.0974,2.8637,0.0,0.6554,0.123916,0.0,0.286,5.0,,,,,,3.95035,PASS,
70,s01_lqr_pitch_step,g000008_c4,8,,49.99999999999999,0.007380607620934428,5.45313245572365e-07,100.0,,,,,,,,,,3.5285,5.1004,2.8604,0.0,0.6548,0.123893,0.0,0.286,5.0,,,,,,4.0443,PASS,
71,s01_lqr_pitch_step,g000008_c5,8,,0.7291680290059476,0.001,1.2547783696358442e-06,35.819124667456705,,,,,,,,,,3.5338,5.102,2.8573,0.0,0.654,0.123917,0.0,0.286,5.0,,,,,,4.012575,PASS,
72,s01_lqr_pitch_step,g000008_c6,8,,1.2731664462474992,0.0018763626239145228,1e-07,57.94163389111208,,,,,,,,,,3.5274,5.0938,2.8738,0.0,0.6587,0.123975,0.0,0.286,5.0,,,,,,3.98675,PASS,
73,s01_lqr_pitch_step,g000008_c7,8,,2.9921667861466763,0.010501527035145612,1.012547873392596e-06,100.0,,,,,,,,,,3.5297,5.0969,2.8667,0.0,0.6565,0.123961,0.0,0.286,5.0,,,,,,4.015625,PASS,
74,s01_lqr_pitch_step,g000009_c0,9,,0.01,0.10514673011067253,4.578431490815244e-06,100.0,,,,,,,,,,3.5345,5.1031,2.8581,0.0,0.6542,0.123918,0.0,0.286,5.0,,,,,,4.033175,PASS,
75,s01_lqr_pitch_step,g000009_c1,9,,0.028902920395979585,0.0080638436882594,8.793244246888242e-07,46.70104542256155,,,,,,,,,,3.5318,5.1006,2.8615,0.0,0.6551,0.123919,0.0,0.286,5.0,,,,,,4.037875,PASS,
76,s01_lqr_pitch_step,g000009_c2,9,,0.16071736474318188,0.0539933362295668,7.075693862470715e-06,64.38390343112658,,,,,,,,,,3.5403,5.111,2.8491,0.0,0.6521,0.123918,0.0,0.286,5.0,,,,,,4.041475,PASS,
77,s01_lqr_pitch_step,g000009_c3,9,,0.11057041553625957,0.00441173898898197,2.4076943678201234e-07,100.0,,,,,,,,,,3.5268,5.0976,2.8677,0.0,0.6564,0.123918,0.0,0.286,5.0,,,,,,3.99505,PASS,
78,s01_lqr_pitch_step,g000009_c4,9,,0.01,0.1257805901682566,8.698720779592471e-07,100.0,,,,,,,,,,3.5293,5.1,2.8658,0.0,0.6563,0.123916,0.0,0.286,5.0,,,,,,4.02995,PASS,
79,s01_lqr_pitch_step,g000009_c5,9,,0.01,0.6746617123713428,8.61767150013632e-06,100.0,,,,,,,,,,3.5376,5.1044,2.8535,0.0,0.6531,0.123917,0.0,0.286,5.0,,,,,,4.010175,PASS,
80,s01_lqr_pitch_step,g000009_c6,9,,0.1851169973784821,10.0,4.72972824314877e-06,100.0,,,,,,,,,,3.5343,5.1024,2.8767,0.0,0.6584,0.123904,0.0,0.288,5.0,,,,,,4.087525,PASS,
81,s01_lqr_pitch_step,g000009_c7,9,,0.01,0.20043632078154228,5.170586594377735e-07,37.2369696613471,,,,,,,,,,3.5302,5.0982,2.8642,0.0,0.6557,0.123916,0.0,0.286,5.0,,,,,,4.041075,PASS,
82,s01_lqr_pitch_step,g000010_c0,10,,0.21203738203713637,0.09044292083633472,3.0700806504013074e-07,100.0,,,,,,,,,,3.5278,5.096,2.8669,0.0,0.6562,0.12392,0.0,0.286,5.0,,,,,,4.029875,PASS,
83,s01_lqr_pitch_step,g000010_c1,10,,0.01,0.0323852445421851,4.6803073673648636e-05,100.0,,,,,,,,,,3.5556,5.1232,2.8198,0.0,0.6447,0.123925,0.0,0.286,5.0,,,,,,4.03465,PASS,
84,s01_lqr_pitch_step,g000010_c2,10,,0.01,0.05972057032663998,4.921020706401088e-07,100.0,,,,,,,,,,3.5283,5.0987,2.8668,0.0,0.6563,0.12393,0.0,0.286,5.0,,,,,,4.0076,PASS,
85,s01_lqr_pitch_step,g000010_c3,10,,0.01,0.0014935267520057964,1.0801756842713569e-07,22.254555786908806,,,,,,,,,,3.5287,5.098,2.8612,0.0,0.6545,0.123954,0.0,0.286,5.0,,,,,,4.01325,PASS,
86,s01_lqr_pitch_step,g000010_c4,10,,0.28615632891784776,0.009182492905611983,1.2616095225260392e-06,61.38653074734084,,,,,,,,,,3.5318,5.104,2.8607,0.0,0.6548,0.123915,0.0,0.286,5.0,,,,,,4.0016,PASS,
87,s01_lqr_pitch_step,g000010_c5,10,,0.01,0.08386305552358254,6.222259211344576e-07,16.52160484230052,,,,,,,,,,3.5345,5.1031,2.8617,0.0,0.6554,0.123969,0.0,0.286,5.0,,,,,,4.030725,PASS,
88,s01_lqr_pitch_step,g000010_c6,10,,0.05066349357335022,0.3182818286715603,9.843853297290363e-05,100.0,,,,,,,,,,3.5691,5.1397,2.8056,0.0,0.6421,0.123917,0.0,0.284,5.0,,,,,,4.042375,PASS,
89,s01_lqr_pitch_step,g000010_c7,10,,0.07349843440804779,0.1396090543395175,4.322901402892216e-07,100.0,,,,,,,,,,3.5282,5.0989,2.8667,0.0,0.6562,0.123923,0.0,0.286,5.0,,,,,,3.994075,PASS,
90,s01_lqr_pitch_step,g000011_c0,11,,0.10063707146117097,0.20749550705217276,1.1412713157499055e-07,13.621823975466949,,,,,,,,,,3.5293,5.1005,2.8657,0.0,0.6558,0.123893,0.0,0.286,5.0,,,,,,3.998725,PASS,
91,s01_lqr_pitch_step,g000011_c1,11,,0.08513785334156883,0.19629900733103295,2.7171463388769162e-06,100.0,,,,,,,,,,3.533,5.1042,2.8602,0.0,0.6547,0.123917,0.0,0.286,5.0,,,,,,4.0206,PASS,
92,s01_lqr_pitch_step,g000011_c2,11,,0.01,0.05100894817783366,8.159248047734377e-06,100.0,,,,,,,,,,3.539,5.1063,2.852,0.0,0.6529,0.123919,0.0,0.286,5.0,,,,,,4.02965,PASS,
93,s01_lqr_pitch_step,g000011_c3,11,,15.980119040251273,0.0018735253669524877,1.3081427411077389e-05,94.08438965839083,,,,,,,,,,3.5422,5.1069,2.8445,0.0,0.6511,0.123899,0.0,0.286,5.0,,,,,,4.0529,PASS,
94,s01_lqr_pitch_step,g000011_c4,11,,0.01,0.11109170604670934,5.200146850274898e-06,100.0,,,,,,,,,,3.5357,5.1041,2.8598,0.0,0.6553,0.123914,0.0,0.286,5.0,,,,,,4.052825,PASS,
95,s01_lqr_pitch_step,g000011_c5,11,,0.0662982620306586,0.11184426975877074,7.357127127268908e-05,27.26748054908388,,,,,,,,,,3.5955,5.1739,2.7672,0.0,0.6334,0.123916,0.0,0.284,5.0,,,,,,4.117,PASS,
96,s01_lqr_pitch_step,g000011_c6,11,,0.10030365965776117,0.004767281717532158,1.1234900800653735e-06,100.0,,,,,,,,,,3.53,5.1002,2.8621,0.0,0.6551,0.123916,0.0,0.286,5.0,,,,,,3.979675,PASS,
97,s01_lqr_pitch_step,g000011_c7,11,,0.612201629319948,0.0017544179017835826,9.635961990522169e-07,15.089125744960592,,,,,,,,,,3.5359,5.1058,2.8535,0.0,0.6531,0.123918,0.0,0.286,5.0,,,,,,3.99855,PASS,
98,s01_lqr_pitch_step,g000012_c0,12,,0.01,0.41222247528363426,2.5457915812478067e-07,20.1189623508757,,,,,,,,,,3.53,5.1003,2.8684,0.0,0.6566,0.123897,0.0,0.286,5.0,,,,,,4.028525,PASS,
99,s01_lqr_pitch_step,g000012_c1,12,,0.020631820052621756,0.13009695962353374,7.411856912885691e-07,34.985364976772445,,,,,,,,,,3.5328,5.1027,2.8628,0.0,0.6554,0.123928,0.0,0.286,5.0,,,,,,4.01885,PASS,
100,s01_lqr_pitch_step,g000012_c2,12,,0.07269945795887542,0.01644970649513705,1e-07,38.6547553077094,,,,,,,,,,3.5276,5.0952,2.8673,0.0,0.6563,0.123919,0.0,0.286,5.0,,,,,,3.988825,PASS,
101,s01_lqr_pitch_step,g000012_c3,12,,0.3620351983274852,0.03715048145925547,1.5483274048757822e-05,100.0,,,,,,,,,,3.5437,5.1128,2.8445,0.0,0.6511,0.123924,0.0,0.286,5.0,,,,,,4.0509,PASS,
102,s01_lqr_pitch_step,g000012_c4,12,,0.02978565713381079,0.01115915965304031,1e-07,100.0,,,,,,,,,,3.5267,5.0957,2.8684,0.0,0.6565,0.123918,0.0,0.286,5.0,,,,,,3.974825,PASS,
103,s01_lqr_pitch_step,g000012_c5,12,,0.5013730640716171,0.01714363419407368,1.8344398629468304e-07,6.468479119077839,,,,,,,,,,3.5326,5.1038,2.8623,0.0,0.6554,0.123944,0.0,0.286,5.0,,,,,,4.007975,PASS,
104,s01_lqr_pitch_step,g000012_c6,12,,0.04568590077726724,0.04469370415559919,2.8551499965093566e-06,9.116776182085555,,,,,,,,,,3.5501,5.1209,2.8358,0.0,0.649,0.123927,0.0,0.286,5.0,,,,,,4.0657,PASS,
105,s01_lqr_pitch_step,g000012_c7,12,,0.01,0.03418078750873248,5.646429953473752e-06,100.0,,,,,,,,,,3.535,5.103,2.8553,0.0,0.6536,0.123927,0.0,0.286,5.0,,,,,,4.002675,PASS,
106,s01_lqr_pitch_step,g000013_c0,13,,0.048410301427611414,0.006585938138556418,7.138030570086966e-07,100.0,,,,,,,,,,3.5288,5.0988,2.8649,0.0,0.6558,0.123918,0.0,0.286,5.0,,,,,,3.995875,PASS,
107,s01_lqr_pitch_step,g000013_c1,13,,0.01,0.0369238295367806,1.229146851257063e-06,100.0,,,,,,,,,,3.5309,5.0994,2.8644,0.0,0.6558,0.123956,0.0,0.286,5.0,,,,,,4.019025,PASS,
108,s01_lqr_pitch_step,g000013_c2,13,,0.16097048326836394,0.0035448126766742497,4.4609432327050217e-05,11.036847416531595,,,,,,,,,,3.6113,5.1991,2.7407,0.0,0.6272,0.123902,0.0,0.284,5.0,,,,,,4.08285,PASS,
109,s01_lqr_pitch_step,g000013_c3,13,,0.01,0.0014123118623320533,3.2675738616907874e-06,100.0,,,,,,,,,,3.5344,5.1049,2.8584,0.0,0.6542,0.123916,0.0,0.286,5.0,,,,,,4.01775,PASS,
110,s01_lqr_pitch_step,g000013_c4,13,,0.10875879213660285,0.36163883362053834,1e-07,100.0,,,,,,,,,,3.5269,5.0987,2.8678,0.0,0.6564,0.123918,0.0,0.286,5.0,,,,,,4.0032,PASS,
111,s01_lqr_pitch_step,g000013_c5,13,,0.01,0.005083920959758183,1e-07,97.40425234589271,,,,,,,,,,3.5263,5.0933,2.8702,0.0,0.657,0.123922,0.0,0.286,5.0,,,,,,4.018375,PASS,
112,s01_lqr_pitch_step,g000013_c6,13,,0.2390597576242372,0.14041950529323377,1e-07,59.834757466838006,,,,,,,,,,3.5265,5.0987,2.8633,0.0,0.6548,0.123955,0.0,0.286,5.0,,,,,,3.996225,PASS,
113,s01_lqr_pitch_step,g000013_c7,13,,0.013195683357806739,0.004077719657434657,1.6074071515830243e-06,61.90633779112304,,,,,,,,,,3.5322,5.0997,2.8592,0.0,0.6545,0.123918,0.0,0.286,5.0,,,,,,3.99535,PASS,
114,s01_lqr_pitch_step,g000014_c0,14,,0.01,0.17996293238874306,4.329675086225043e-07,100.0,,,,,,,,,,3.5275,5.0952,2.8673,0.0,0.6564,0.123927,0.0,0.286,5.0,,,,,,3.9996,PASS,
115,s01_lqr_pitch_step,g000014_c1,14,,0.035053264696457205,0.023251531249034427,5.475554137014791e-05,100.0,,,,,,,,,,3.5581,5.1281,2.8209,0.0,0.6456,0.12388,0.0,0.286,5.0,,,,,,4.040375,PASS,
116,s01_lqr_pitch_step,g000014_c2,14,,0.07863398660964672,0.5802416529958239,1.9128106063965582e-06,63.03798255122526,,,,,,,,,,3.533,5.1009,2.8618,0.0,0.6551,0.123923,0.0,0.286,5.0,,,,,,3.9946,PASS,
117,s01_lqr_pitch_step,g000014_c3,14,,0.024452756878292355,0.052608650412170894,1e-07,100.0,,,,,,,,,,3.5263,5.0944,2.8708,0.0,0.6572,0.123936,0.0,0.286,5.0,,,,,,3.992825,PASS,
118,s01_lqr_pitch_step,g000014_c4,14,,0.06608282098091489,0.01669589916994795,1.0111297420578249e-06,72.78323956705319,,,,,,,,,,3.5302,5.0997,2.8632,0.0,0.6555,0.123924,0.0,0.286,5.0,,,,,,3.9994,PASS,
119,s01_lqr_pitch_step,g000014_c5,14,,0.13614748556390666,0.24045349632043783,1.0182055396934103e-06,100.0,,,,,,,,,,3.5283,5.0952,2.8645,0.0,0.6557,0.123919,0.0,0.286,5.0,,,,,,4.00455,PASS,
120,s01_lqr_pitch_step,g000014_c6,14,,0.02618724841095535,0.027040867570732697,2.295496881595067e-07,100.0,,,,,,,,,,3.5277,5.0974,2.8672,0.0,0.6563,0.123917,0.0,0.286,5.0,,,,,,3.99805,PASS,
121,s01_lqr_pitch_step,g000014_c7,14,,0.7617925132919843,0.021276609753597717,3.1475000163057583e-07,5.678195920043412,,,,,,,,,,3.5356,5.1055,2.8535,0.0,0.6531,0.123916,0.0,0.286,5.0,,,,,,3.988375,PASS,
122,s01_lqr_pitch_step,g000015_c0,15,,0.04480207779251102,0.16777878498464324,4.177054075568487e-07,8.031229807149957,,,,,,,,,,3.5346,5.1045,2.8609,0.0,0.6551,0.123874,0.0,0.286,5.0,,,,,,4.07965,PASS,
123,s01_lqr_pitch_step,g000015_c1,15,,0.056507110247337296,0.09536034704988863,9.62652710838111e-07,100.0,,,,,,,,,,3.5293,5.0974,2.869,0.0,0.6575,0.123915,0.0,0.286,5.0,,,,,,4.025925,PASS,
124,s01_lqr_pitch_step,g000015_c2,15,,0.05756138789412303,0.008651236612039604,9.97613067249872e-07,77.76081774120398,,,,,,,,,,3.5312,5.0997,2.8632,0.0,0.6554,0.123913,0.0,0.286,5.0,,,,,,3.9928,PASS,
125,s01_lqr_pitch_step,g000015_c3,15,,0.020695825531331428,0.11759237261920183,3.1229226720592464e-06,100.0,,,,,,,,,,3.5332,5.1017,2.8607,0.0,0.6549,0.12392,0.0,0.286,5.0,,,,,,4.040975,PASS,
126,s01_lqr_pitch_step,g000015_c4,15,,0.1706666554179112,0.017838506906763602,1.0566828588200027e-06,100.0,,,,,,,,,,3.5302,5.0999,2.8644,0.0,0.6558,0.123929,0.0,0.286,5.0,,,,,,4.007675,PASS,
127,s01_lqr_pitch_step,g000015_c5,15,,0.037723021228691464,0.001370821089437414,1.107016476716932e-05,100.0,,,,,,,,,,3.5408,5.1076,2.8499,0.0,0.6524,0.123924,0.0,0.286,5.0,,,,,,4.024825,PASS,
128,s01_lqr_pitch_step,g000015_c6,15,,0.015708147033464778,0.007243562701702243,1.0015614967770748e-06,100.0,,,,,,,,,,3.5311,5.0991,2.8639,0.0,0.6556,0.123934,0.0,0.286,5.0,,,,,,4.02565,PASS,
129,s01_lqr_pitch_step,g000015_c7,15,,0.01,0.011114115910781468,2.1532322324917564e-06,100.0,,,,,,,,,,3.5325,5.1022,2.8557,0.0,0.6531,0.123945,0.0,0.286,5.0,,,,,,4.0005,PASS,
130,s01_lqr_pitch_step,g000016_c0,16,,0.026866757432093484,0.041536531008097614,1e-07,78.82339467337336,,,,,,,,,,3.5273,5.0957,2.8699,0.0,0.657,0.123922,0.0,0.286,5.0,,,,,,4.024075,PASS,
131,s01_lqr_pitch_step,g000016_c1,16,,0.06738486049666373,0.004683261579860995,1.653272965646953e-06,100.0,,,,,,,,,,3.5318,5.0988,2.8512,0.0,0.6517,0.12394,0.0,0.286,5.0,,,,,,3.986575,PASS,
132,s01_lqr_pitch_step,g000016_c2,16,,0.01825804376038937,0.008168420859428299,4.181625365692466e-07,66.43683086044344,,,,,,,,,,3.5282,5.098,2.8656,0.0,0.6559,0.123919,0.0,0.286,5.0,,,,,,3.987975,PASS,
133,s01_lqr_pitch_step,g000016_c3,16,,0.01354996169893568,0.025934883899780617,1.8872235507275822e-05,43.67311649558231,,,,,,,,,,3.5551,5.1271,2.8339,0.0,0.6495,0.123937,0.0,0.286,5.0,,,,,,4.038625,PASS,
134,s01_lqr_pitch_step,g000016_c4,16,,0.1171832323399583,0.1947071875148343,3.221280290070537e-07,43.81277361948369,,,,,,,,,,3.5291,5.0961,2.8658,0.0,0.656,0.123918,0.0,0.286,5.0,,,,,,4.021575,PASS,
135,s01_lqr_pitch_step,g000016_c5,16,,0.017028632445179607,0.049679866077013954,1.6930491642624834e-06,48.17365448019312,,,,,,,,,,3.5335,5.1045,2.8597,0.0,0.6546,0.123918,0.0,0.286,5.0,,,,,,4.000775,PASS,
136,s01_lqr_pitch_step,g000016_c6,16,,0.023871620482283726,0.05540813254569027,3.746782418876131e-06,100.0,,,,,,,,,,3.5346,5.1015,2.855,0.0,0.6531,0.123965,0.0,0.286,5.0,,,,,,4.015225,PASS,
137,s01_lqr_pitch_step,g000016_c7,16,,0.030051637427215835,0.01918675182620117,9.191126835616405e-07,60.18798456324005,,,,,,,,,,3.532,5.1001,2.8631,0.0,0.6555,0.123916,0.0,0.286,5.0,,,,,,4.016625,PASS,
138,s01_lqr_pitch_step,g000017_c0,17,,0.06243456999048511,0.016023304434862856,4.1796852848453523e-07,11.71161827305814,,,,,,,,,,3.533,5.1032,2.8597,0.0,0.6547,0.123928,0.0,0.286,5.0,,,,,,4.023675,PASS,
139,s01_lqr_pitch_step,g000017_c1,17,,0.21401925509236788,0.054974769817748514,1.7821220987842263e-06,100.0,,,,,,,,,,3.5311,5.0998,2.8597,0.0,0.6541,0.123964,0.0,0.286,5.0,,,,,,4.021625,PASS,
140,s01_lqr_pitch_step,g000017_c2,17,,0.022919004012578712,0.013844316981785836,1.956022884396335e-07,43.36781042346603,,,,,,,,,,3.5279,5.0963,2.8658,0.0,0.656,0.123918,0.0,0.286,5.0,,,,,,4.004825,PASS,
141,s01_lqr_pitch_step,g000017_c3,17,,0.0436562647809561,0.008860026939738619,8.666100081586291e-07,47.855214336028325,,,,,,,,,,3.531,5.1003,2.8625,0.0,0.6552,0.123933,0.0,0.286,5.0,,,,,,4.016825,PASS,
142,s01_lqr_pitch_step,g000017_c4,17,,0.17266175721067367,0.11552682679146133,2.5688928776837834e-06,100.0,,,,,,,,,,3.5327,5.1006,2.8535,0.0,0.6525,0.123956,0.0,0.286,5.0,,,,,,4.0225,PASS,
143,s01_lqr_pitch_step,g000017_c5,17,,0.35407025137173315,0.013714911916505798,5.461049911577321e-07,66.1939795545046,,,,,,,,,,3.5297,5.0962,2.8639,0.0,0.6555,0.123919,0.0,0.286,5.0,,,,,,4.008475,PASS,
144,s01_lqr_pitch_step,g000017_c6,17,,0.024546073792029777,0.06759760589782637,4.5433605113051385e-07,100.0,,,,,,,,,,3.5277,5.0987,2.8665,0.0,0.6561,0.123923,0.0,0.286,5.0,,,,,,3.989675,PASS,
145,s01_lqr_pitch_step,g000017_c7,17,,0.056358937594953966,0.06236579223211337,3.688619085933729e-06,100.0,,,,,,,,,,3.5346,5.1044,2.8583,0.0,0.6543,0.123933,0.0,0.286,5.0,,,,,,3.988475,PASS,
146,s01_lqr_pitch_step,g000018_c0,18,,0.018256330300490703,0.049993894435405,2.338481668906801e-06,100.0,,,,,,,,,,3.5322,5.1011,2.8607,0.0,0.6548,0.123922,0.0,0.286,5.0,,,,,,3.9816,PASS,
147,s01_lqr_pitch_step,g000018_c1,18,,0.06261457423910267,0.027215633153622753,2.7733121814368206e-06,77.727027000936,,,,,,,,,,3.5337,5.1013,2.8595,0.0,0.6545,0.123922,0.0,0.286,5.0,,,,,,3.99275,PASS,
148,s01_lqr_pitch_step,g000018_c2,18,,0.053354282256495064,0.015157097866371977,5.185303749487565e-07,47.469176918821,,,,,,,,,,3.5304,5.0985,2.8642,0.0,0.6557,0.123933,0.0,0.286,5.0,,,,,,4.0293,PASS,
149,s01_lqr_pitch_step,g000018_c3,18,,0.044567385749739244,0.03328185031158581,3.623295339831583e-06,54.54202436806698,,,,,,,,,,3.5364,5.1034,2.8542,0.0,0.6533,0.123924,0.0,0.286,5.0,,,,,,3.997275,PASS,
150,s01_lqr_pitch_step,g000018_c4,18,,0.05874654763652542,0.05413801871109317,1.3150391414873147e-06,100.0,,,,,,,,,,3.5304,5.0988,2.8524,0.0,0.652,0.123937,0.0,0.286,5.0,,,,,,4.023675,PASS,
151,s01_lqr_pitch_step,g000018_c5,18,,0.043613445011351726,0.018612522155889814,1.3985065328075403e-06,67.0490683873337,,,,,,,,,,3.5317,5.1021,2.8614,0.0,0.655,0.12392,0.0,0.286,5.0,,,,,,3.994225,PASS,
152,s01_lqr_pitch_step,g000018_c6,18,,0.031689273569114676,0.03520239169890752,4.1574247825615275e-07,19.97804766556547,,,,,,,,,,3.5315,5.0982,2.8618,0.0,0.6551,0.123917,0.0,0.286,5.0,,,,,,4.01755,PASS,
153,s01_lqr_pitch_step,g000018_c7,18,,0.05652050514894162,0.031321137194173745,4.583465966384496e-07,44.59986303336885,,,,,,,,,,3.5299,5.0997,2.8611,0.0,0.6545,0.123948,0.0,0.286,5.0,,,,,,4.0382,PASS,
154,s01_lqr_pitch_step,g000019_c0,19,,0.03777088911289606,0.026418754639295654,1.3087024249098675e-06,46.4732068954738,,,,,,,,,,3.5329,5.1027,2.8597,0.0,0.6546,0.123917,0.0,0.286,5.0,,,,,,4.027775,PASS,
155,s01_lqr_pitch_step,g000019_c1,19,,0.049741098278580004,0.059794151224587824,5.720197474238331e-07,100.0,,,,,,,,,,3.5299,5.1001,2.8671,0.0,0.6563,0.123964,0.0,0.286,5.0,,,,,,4.017625,PASS,
156,s01_lqr_pitch_step,g000019_c2,19,,0.08513679586410987,0.11037931388040936,1.7038491780874955e-06,100.0,,,,,,,,,,3.5309,5.1002,2.87,0.0,0.6579,0.123916,0.0,0.286,5.0,,,,,,4.019,PASS,
157,s01_lqr_pitch_step,g000019_c3,19,,0.08554709602087483,0.04086869724389673,4.013382227373945e-07,100.0,,,,,,,,,,3.528,5.0934,2.8669,0.0,0.6562,0.123969,0.0,0.286,5.0,,,,,,4.006875,PASS,
158,s01_lqr_pitch_step,g000019_c4,19,,0.07509446678524759,0.020844508398430786,3.605731607838568e-07,58.37511530449938,,,,,,,,,,3.5282,5.095,2.8718,0.0,0.6581,0.123915,0.0,0.286,5.0,,,,,,4.0296,PASS,
159,s01_lqr_pitch_step,g000019_c5,19,,0.061306566103129345,0.010127638338403952,5.085806813503814e-07,35.27020137122527,,,,,,,,,,3.5305,5.1014,2.8681,0.0,0.6571,0.123916,0.0,0.286,5.0,,,,,,4.016775,PASS,
160,s01_lqr_pitch_step,g000019_c6,19,,0.04229821501421967,0.09912412788751991,9.585129767483854e-07,82.99443569656566,,,,,,,,,,3.5301,5.0978,2.8643,0.0,0.6556,0.12392,0.0,0.286,5.0,,,,,,4.002225,PASS,
161,s01_lqr_pitch_step,g000019_c7,19,,0.05626791584280037,0.016953096928013098,1.3636539359882806e-06,100.0,,,,,,,,,,3.5303,5.0991,2.867,0.0,0.6569,0.123916,0.0,0.286,5.0,,,,,,4.04865,PASS,
162,s01_lqr_pitch_step,g000020_c0,20,,0.03335399975651333,0.07094167166800026,1.2440850882770035e-06,78.60117237938401,,,,,,,,,,3.5318,5.099,2.8569,0.0,0.6534,0.123954,0.0,0.286,5.0,,,,,,4.0071,PASS,
163,s01_lqr_pitch_step,g000020_c1,20,,0.08682559887092761,0.0351050913763006,1.2863141224680997e-06,100.0,,,,,,,,,,3.5305,5.1013,2.8606,0.0,0.6544,0.123968,0.0,0.286,5.0,,,,,,3.999075,PASS,
164,s01_lqr_pitch_step,g000020_c2,20,,0.06281896556942597,0.05397348344543819,3.1744545829065725e-07,100.0,,,,,,,,,,3.5285,5.097,2.867,0.0,0.6564,0.123916,0.0,0.286,5.0,,,,,,4.014475,PASS,
165,s01_lqr_pitch_step,g000020_c3,20,,0.0788056430854023,0.050285919201886325,1.2068092711599076e-06,100.0,,,,,,,,,,3.5295,5.099,2.8635,0.0,0.6555,0.123918,0.0,0.286,5.0,,,,,,4.01895,PASS,
166,s01_lqr_pitch_step,g000020_c4,20,,0.03934010759659135,0.028352995222367238,8.568054707282161e-07,100.0,,,,,,,,,,3.53,5.0993,2.8613,0.0,0.6545,0.12397,0.0,0.286,5.0,,,,,,3.996825,PASS,
167,s01_lqr_pitch_step,g000020_c5,20,,0.0849392004601256,0.027786494948914515,4.903809275022823e-07,59.6134554781704,,,,,,,,,,3.529,5.0984,2.8657,0.0,0.656,0.123915,0.0,0.286,5.0,,,,,,4.005975,PASS,
168,s01_lqr_pitch_step,g000020_c6,20,,0.030440093444463415,0.04803105366896705,1.4542351437582149e-06,75.54880300674284,,,,,,,,,,3.5313,5.1017,2.8583,0.0,0.654,0.123937,0.0,0.286,5.0,,,,,,4.033575,PASS,
169,s01_lqr_pitch_step,g000020_c7,20,,0.0682702033100467,0.05208360137831607,1.2080785613520421e-06,70.98137058234028,,,,,,,,,,3.532,5.1004,2.8627,0.0,0.6553,0.123932,0.0,0.286,5.0,,,,,,4.009625,PASS,
170,s01_lqr_pitch_step,g000021_c0,21,,0.07786727095286695,0.04994931151587961,6.539962952210191e-07,72.07374482207739,,,,,,,,,,3.5293,5.0977,2.8676,0.0,0.6564,0.12393,0.0,0.286,5.0,,,,,,3.984025,PASS,
171,s01_lqr_pitch_step,g000021_c1,21,,0.0657605042536193,0.030697629842688354,1.6043310562642438e-06,84.53545973826797,,,,,,,,,,3.5308,5.0987,2.8613,0.0,0.655,0.123922,0.0,0.286,5.0,,,,,,3.990575,PASS,
172,s01_lqr_pitch_step,g000021_c2,21,,0.053911175390225996,0.04446589360520708,1.2479079151586408e-06,97.62632478654974,,,,,,,,,,3.5298,5.0948,2.8635,0.0,0.6555,0.123918,0.0,0.286,5.0,,,,,,4.00485,PASS,
173,s01_lqr_pitch_step,g000021_c3,21,,0.06884050326595394,0.0651621278435558,6.321903600243214e-07,100.0,,,,,,,,,,3.5295,5.0995,2.8594,0.0,0.6539,0.12393,0.0,0.286,5.0,,,,,,4.022775,PASS,
174,s01_lqr_pitch_step,g000021_c4,21,,0.04938059353852133,0.041328237549792146,1.2328361996487315e-06,100.0,,,,,,,,,,3.5299,5.0985,2.8623,0.0,0.6551,0.123917,0.0,0.286,5.0,,,,,,3.997925,PASS,
175,s01_lqr_pitch_step,g000021_c5,21,,0.05982168332927646,0.02007833915238747,1.2400128116300428e-06,100.0,,,,,,,,,,3.5299,5.0992,2.8599,0.0,0.6542,0.123959,0.0,0.286,5.0,,,,,,4.000075,PASS,
176,s01_lqr_pitch_step,g000021_c6,21,,0.08202651952608256,0.02664503266604105,1.0542908290791011e-06,100.0,,,,,,,,,,3.5293,5.0982,2.8683,0.0,0.657,0.123921,0.0,0.286,5.0,,,,,,4.026775,PASS,
177,s01_lqr_pitch_step,g000021_c7,21,,0.02240906383222806,0.06940867851644089,1.5394149611128705e-06,72.32448495392858,,,,,,,,,,3.5325,5.1021,2.8557,0.0,0.6532,0.123957,0.0,0.286,5.0,,,,,,4.025325,PASS,
178,s01_lqr_pitch_step,g000022_c0,22,,0.06851076623926698,0.03717510383297072,6.506645280161593e-07,71.02220562537465,,,,,,,,,,3.5293,5.102,2.8652,0.0,0.656,0.123926,0.0,0.286,5.0,,,,,,4.034525,PASS,
179,s01_lqr_pitch_step,g000022_c1,22,,0.0506687152049511,0.04721114035110661,8.399584724813093e-07,97.10021873637413,,,,,,,,,,3.53,5.0987,2.8662,0.0,0.6561,0.123917,0.0,0.286,5.0,,,,,,4.016225,PASS,
180,s01_lqr_pitch_step,g000022_c2,22,,0.0517863918948048,0.04496163377074501,5.588998579396273e-07,100.0,,,,,,,,,,3.5276,5.0967,2.8672,0.0,0.6564,0.123921,0.0,0.286,5.0,,,,,,3.984875,PASS,
181,s01_lqr_pitch_step,g000022_c3,22,,0.05035192891257164,0.029633172171857524,9.978800319303586e-07,84.71190076306794,,,,,,,,,,3.5303,5.0994,2.8672,0.0,0.6569,0.123914,0.0,0.286,5.0,,,,,,4.039425,PASS,
182,s01_lqr_pitch_step,g000022_c4,22,,0.06403301579082399,0.0412227852477856,8.64842364380728e-07,86.16743347354182,,,,,,,,,,3.5302,5.0974,2.8638,0.0,0.6555,0.123918,0.0,0.286,5.0,,,,,,4.008975,PASS,
183,s01_lqr_pitch_step,g000022_c5,22,,0.062353025221745385,0.033141246762639937,7.905498180879241e-07,100.0,,,,,,,,,,3.5295,5.0971,2.8651,0.0,0.6559,0.123918,0.0,0.286,5.0,,,,,,4.044275,PASS,
184,s01_lqr_pitch_step,g000022_c6,22,,0.07305600806707664,0.04823584344546282,7.160245436706788e-07,100.0,,,,,,,,,,3.5294,5.0969,2.8583,0.0,0.6536,0.12393,0.0,0.286,5.0,,,,,,4.034975,PASS,
185,s01_lqr_pitch_step,g000022_c7,22,,0.05713956746769269,0.03524537334228009,2.0366463614756205e-06,92.24100059595176,,,,,,,,,,3.5322,5.0991,2.8611,0.0,0.655,0.123935,0.0,0.286,5.0,,,,,,4.02675,PASS,
186,s01_lqr_pitch_step,g000023_c0,23,,0.048761197212998944,0.02769667164844594,1.1129788884718391e-06,100.0,,,,,,,,,,3.5305,5.1015,2.8634,0.0,0.6555,0.123915,0.0,0.286,5.0,,,,,,3.99825,PASS,
187,s01_lqr_pitch_step,g000023_c1,23,,0.0466618989497932,0.04336851933717263,7.994475231322235e-07,92.51167191152044,,,,,,,,,,3.5297,5.1021,2.8639,0.0,0.6555,0.123916,0.0,0.286,5.0,,,,,,3.978475,PASS,
188,s01_lqr_pitch_step,g000023_c2,23,,0.03134499442020277,0.05317944133352924,1.2419254253065553e-06,100.0,,,,,,,,,,3.5302,5.1,2.8597,0.0,0.6541,0.123958,0.0,0.286,5.0,,,,,,4.009075,PASS,
189,s01_lqr_pitch_step,g000023_c3,23,,0.051072173551054215,0.031821335837733555,6.265953041010718e-07,98.2421668660703,,,,,,,,,,3.5278,5.0973,2.8658,0.0,0.656,0.123916,0.0,0.286,5.0,,,,,,4.010575,PASS,
190,s01_lqr_pitch_step,g000023_c4,23,,0.05194258282256575,0.034475830602518916,1.762849181503062e-06,96.21447748897245,,,,,,,,,,3.5323,5.1019,2.8609,0.0,0.6549,0.123925,0.0,0.286,5.0,,,,,,3.993125,PASS,
191,s01_lqr_pitch_step,g000023_c5,23,,0.03679490849831111,0.04069137268370799,5.522697766206664e-07,100.0,,,,,,,,,,3.5286,5.0981,2.8648,0.0,0.6558,0.123919,0.0,0.286,5.0,,,,,,3.996375,PASS,
192,s01_lqr_pitch_step,g000023_c6,23,,0.05506738201268544,0.039837633884440116,8.875834962688388e-07,83.0053108512611,,,,,,,,,,3.5297,5.0989,2.8684,0.0,0.6572,0.123914,0.0,0.286,5.0,,,,,,4.03565,PASS,
193,s01_lqr_pitch_step,g000023_c7,23,,0.0423883651766889,0.041891052418635596,8.19713331502695e-07,100.0,,,,,,,,,,3.5291,5.099,2.864,0.0,0.6555,0.123917,0.0,0.286,5.0,,,,,,3.999275,PASS,
194,s01_lqr_pitch_step,g000024_c0,24,,0.03970033186038748,0.04400153240298844,6.634874975118592e-07,100.0,,,,,,,,,,3.5288,5.0989,2.8647,0.0,0.6558,0.123921,0.0,0.286,5.0,,,,,,4.026525,PASS,
195,s01_lqr_pitch_step,g000024_c1,24,,0.04881713893245358,0.030292549224792527,9.120890326464946e-07,100.0,,,,,,,,,,3.53,5.0966,2.854,0.0,0.6524,0.12394,0.0,0.286,5.0,,,,,,3.990875,PASS,
196,s01_lqr_pitch_step,g000024_c2,24,,0.06624613596944506,0.03715437602752601,1.3124903236601818e-06,77.67696097554277,,,,,,,,,,3.5311,5.1021,2.8636,0.0,0.6556,0.123935,0.0,0.286,5.0,,,,,,4.013675,PASS,
197,s01_lqr_pitch_step,g000024_c3,24,,0.06754966383121061,0.03137166634644324,1.1822011131887346e-06,94.06230263333585,,,,,,,,,,3.5304,5.0982,2.8623,0.0,0.6551,0.123914,0.0,0.286,5.0,,,,,,3.98135,PASS,
198,s01_lqr_pitch_step,g000024_c4,24,,0.05529999789130562,0.038293271332002284,8.897754936941807e-07,97.64561769682962,,,,,,,,,,3.5295,5.097,2.8648,0.0,0.6558,0.123917,0.0,0.286,5.0,,,,,,3.9867,PASS,
199,s01_lqr_pitch_step,g000024_c5,24,,0.06883355850665161,0.04692529835449937,8.016524080727517e-07,100.0,,,,,,,,,,3.5295,5.095,2.8632,0.0,0.6552,0.123973,0.0,0.286,5.0,,,,,,3.976025,PASS,
200,s01_lqr_pitch_step,g000024_c6,24,,0.04741740256520559,0.0404972111106846,7.992253019944182e-07,88.4669728135311,,,,,,,,,,3.5293,5.0992,2.8652,0.0,0.6558,0.123919,0.0,0.286,5.0,,,,,,3.981825,PASS,
201,s01_lqr_pitch_step,g000024_c7,24,,0.04893618590931466,0.04421126831022404,9.319262637428774e-07,100.0,,,,,,,,,,3.5298,5.0987,2.8681,0.0,0.6569,0.123973,0.0,0.286,5.0,,,,,,3.989125,PASS,
202,s01_lqr_pitch_step,g000025_c0,25,,0.046187291283698514,0.04427906779164991,1.0008897704042905e-06,100.0,,,,,,,,,,3.5302,5.0987,2.8613,0.0,0.6546,0.12397,0.0,0.286,5.0,,,,,,4.01075,PASS,
203,s01_lqr_pitch_step,g000025_c1,25,,0.04716901537717887,0.039498364459974816,6.936202472105819e-07,84.15305633857899,,,,,,,,,,3.5295,5.0994,2.8638,0.0,0.6556,0.123931,0.0,0.286,5.0,,,,,,3.98495,PASS,
204,s01_lqr_pitch_step,g000025_c2,25,,0.05986228084947467,0.03852488433556144,1.0361206431006486e-06,100.0,,,,,,,,,,3.5298,5.094,2.8604,0.0,0.6543,0.123967,0.0,0.286,5.0,,,,,,4.005,PASS,
205,s01_lqr_pitch_step,g000025_c3,25,,0.051965502311126996,0.02766970246301713,9.70404850873868e-07,100.0,,,,,,,,,,3.5294,5.0988,2.864,0.0,0.6556,0.123927,0.0,0.286,5.0,,,,,,3.990025,PASS,
206,s01_lqr_pitch_step,g000025_c4,25,,0.04574172944138603,0.03389874667740557,7.811741256875426e-07,100.0,,,,,,,,,,3.5296,5.0978,2.8636,0.0,0.6553,0.123972,0.0,0.286,5.0,,,,,,3.98785,PASS,
207,s01_lqr_pitch_step,g000025_c5,25,,0.0627891733018259,0.028711212995789267,9.445380299839789e-07,89.96188063443603,,,,,,,,,,3.5296,5.0979,2.8654,0.0,0.6559,0.12395,0.0,0.286,5.0,,,,,,3.98815,PASS,
208,s01_lqr_pitch_step,g000025_c6,25,,0.0590475379261289,0.0476553896645303,8.227870194304464e-07,100.0,,,,,,,,,,3.5297,5.097,2.866,0.0,0.6561,0.123931,0.0,0.286,5.0,,,,,,3.983875,PASS,
209,s01_lqr_pitch_step,g000025_c7,25,,0.04887834592548251,0.0344570143160564,9.627897638473605e-07,73.9848547426419,,,,,,,,,,3.5298,5.0974,2.8628,0.0,0.6553,0.12392,0.0,0.286,5.0,,,,,,4.032975,PASS,
210,s01_lqr_pitch_step,g000026_c0,26,,0.04466076207700471,0.037696772795094396,8.814733625449255e-07,86.1904899252308,,,,,,,,,,3.5299,5.0987,2.8628,0.0,0.6552,0.123917,0.0,0.286,5.0,,,,,,3.99685,PASS,
211,s01_lqr_pitch_step,g000026_c1,26,,0.05021849198216067,0.03521853651840353,1.0355806804741151e-06,96.27896812651133,,,,,,,,,,3.5295,5.0976,2.8563,0.0,0.653,0.123945,0.0,0.286,5.0,,,,,,4.0073,PASS,
212,s01_lqr_pitch_step,g000026_c2,26,,0.052405216475872984,0.03044259992753328,1.0364738224237306e-06,76.78967997052662,,,,,,,,,,3.5315,5.0987,2.8635,0.0,0.6555,0.123934,0.0,0.286,5.0,,,,,,3.984075,PASS,
213,s01_lqr_pitch_step,g000026_c3,26,,0.05127851600274296,0.043777253491786586,7.802388050025894e-07,91.76465921451442,,,,,,,,,,3.5296,5.0978,2.8658,0.0,0.656,0.123928,0.0,0.286,5.0,,,,,,4.006525,PASS,
214,s01_lqr_pitch_step,g000026_c4,26,,0.048971552060069604,0.0369732003238726,1.1871278203489242e-06,100.0,,,,,,,,,,3.5306,5.0973,2.8648,0.0,0.6558,0.123928,0.0,0.286,5.0,,,,,,3.976675,PASS,
215,s01_lqr_pitch_step,g000026_c5,26,,0.047069731537826405,0.0363560408713964,9.317650352360956e-07,89.85104613594399,,,,,,,,,,3.5292,5.0946,2.8668,0.0,0.6567,0.123916,0.0,0.286,5.0,,,,,,4.003375,PASS,
216,s01_lqr_pitch_step,g000026_c6,26,,0.04636399692302956,0.02875613017884386,1.0634302204961222e-06,100.0,,,,,,,,,,3.5302,5.0996,2.8634,0.0,0.6555,0.123917,0.0,0.286,5.0,,,,,,4.014275,PASS,
217,s01_lqr_pitch_step,g000026_c7,26,,0.047377521217273864,0.03556400645268153,9.476155879029598e-07,93.98826987384956,,,,,,,,,,3.5295,5.0988,2.8651,0.0,0.6559,0.123931,0.0,0.286,5.0,,,,,,3.997775,PASS,
218,s01_lqr_pitch_step,g000027_c0,27,,0.044857411296263736,0.0435548545874246,8.682396047354448e-07,100.0,,,,,,,,,,3.5303,5.0995,2.8652,0.0,0.6559,0.12392,0.0,0.286,5.0,,,,,,4.01905,PASS,
219,s01_lqr_pitch_step,g000027_c1,27,,0.048645333382469236,0.039515574710705936,9.179479000801805e-07,100.0,,,,,,,,,,3.5303,5.0988,2.8764,0.0,0.6604,0.123964,0.0,0.286,5.0,,,,,,4.032475,PASS,
220,s01_lqr_pitch_step,g000027_c2,27,,0.05051343557292404,0.04173363558999081,8.030689868901954e-07,88.59775576114166,,,,,,,,,,3.5296,5.0989,2.8643,0.0,0.6556,0.123918,0.0,0.286,5.0,,,,,,4.012825,PASS,
221,s01_lqr_pitch_step,g000027_c3,27,,0.046441216178140156,0.043916815495501436,1.0488112820800487e-06,100.0,,,,,,,,,,3.5297,5.099,2.8645,0.0,0.6557,0.123929,0.0,0.286,5.0,,,,,,4.009375,PASS,
222,s01_lqr_pitch_step,g000027_c4,27,,0.05177479719016718,0.04058341374685967,9.373052383347521e-07,100.0,,,,,,,,,,3.5293,5.0966,2.8671,0.0,0.6567,0.123921,0.0,0.286,5.0,,,,,,4.010175,PASS,
223,s01_lqr_pitch_step,g000027_c5,27,,0.046923517210439754,0.04262301374440909,8.50921901018999e-07,87.01090351111618,,,,,,,,,,3.5297,5.097,2.8642,0.0,0.6557,0.123916,0.0,0.286,5.0,,,,,,3.975625,PASS,
224,s01_lqr_pitch_step,g000027_c6,27,,0.05120239703980372,0.03626280667857735,8.371364773419362e-07,96.1583177955716,,,,,,,,,,3.5302,5.1009,2.8635,0.0,0.6556,0.123933,0.0,0.286,5.0,,,,,,4.016275,PASS,
225,s01_lqr_pitch_step,g000027_c7,27,,0.04946720569841505,0.038002752357459604,8.972703601290078e-07,86.84335357227322,,,,,,,,,,3.5301,5.0963,2.8606,0.0,0.6543,0.123966,0.0,0.286,5.0,,,,,,3.9955,PASS,
226,s01_lqr_pitch_step,g000028_c0,28,,0.041924357466886705,0.03893953864605214,8.183937120965533e-07,86.5224460900865,,,,,,,,,,3.5302,5.1019,2.863,0.0,0.6551,0.123952,0.0,0.286,5.0,,,,,,4.0225,PASS,
227,s01_lqr_pitch_step,g000028_c1,28,,0.05751097638166468,0.03693068899785551,9.438785913948261e-07,99.47963065653357,,,,,,,,,,3.5298,5.0961,2.8628,0.0,0.6553,0.123918,0.0,0.286,5.0,,,,,,4.035,PASS,
228,s01_lqr_pitch_step,g000028_c2,28,,0.055057947994854105,0.0374030907596254,9.293764003505311e-07,99.69751488200625,,,,,,,,,,3.5292,5.0993,2.8651,0.0,0.6559,0.123916,0.0,0.286,5.0,,,,,,4.01795,PASS,
229,s01_lqr_pitch_step,g000028_c3,28,,0.043338499595009974,0.03782381012341396,9.119807300084062e-07,98.30789533403141,,,,,,,,,,3.5292,5.0999,2.8709,0.0,0.6581,0.123915,0.0,0.286,5.0,,,,,,4.0032,PASS,
230,s01_lqr_pitch_step,g000028_c4,28,,0.05467863206161278,0.037562904997095026,8.120931742924543e-07,100.0,,,,,,,,,,3.5295,5.099,2.8673,0.0,0.6566,0.123938,0.0,0.286,5.0,,,,,,4.01115,PASS,
231,s01_lqr_pitch_step,g000028_c5,28,,0.04548291227213446,0.044183777897497375,9.032032763678083e-07,93.65733256961477,,,,,,,,,,3.5297,5.0965,2.8659,0.0,0.6562,0.123952,0.0,0.286,5.0,,,,,,3.990175,PASS,
232,s01_lqr_pitch_step,g000028_c6,28,,0.055638315642896854,0.03460523737025779,7.849955991217286e-07,100.0,,,,,,,,,,3.5298,5.0962,2.8647,0.0,0.6557,0.123919,0.0,0.286,5.0,,,,,,3.967725,PASS,
233,s01_lqr_pitch_step,g000028_c7,28,,0.04962047960645323,0.03022630432288806,8.455567595741599e-07,100.0,,,,,,,,,,3.529,5.0967,2.8641,0.0,0.6556,0.123918,0.0,0.286,5.0,,,,,,4.0014,PASS,
234,s01_lqr_pitch_step,g000029_c0,29,,0.04649681338917151,0.03527697057127116,8.583449594512314e-07,92.73511077393619,,,,,,,,,,3.5299,5.0982,2.8641,0.0,0.6556,0.123919,0.0,0.286,5.0,,,,,,3.988875,PASS,
235,s01_lqr_pitch_step,g000029_c1,29,,0.05125015106178366,0.036050371965420366,9.288091476223342e-07,100.0,,,,,,,,,,3.5305,5.1003,2.8635,0.0,0.6555,0.123931,0.0,0.286,5.0,,,,,,4.020725,PASS,
236,s01_lqr_pitch_step,g000029_c2,29,,0.057840011142382984,0.03721454126484018,8.893905363054207e-07,92.61380660298413,,,,,,,,,,3.5293,5.0996,2.8641,0.0,0.6557,0.123933,0.0,0.286,5.0,,,,,,4.014175,PASS,
237,s01_lqr_pitch_step,g000029_c3,29,,0.04445943648789201,0.03829279346764372,9.223706665391936e-07,100.0,,,,,,,,,,3.5301,5.0964,2.8639,0.0,0.6556,0.123918,0.0,0.286,5.0,,,,,,3.97795,PASS,
238,s01_lqr_pitch_step,g000029_c4,29,,0.05275965625184538,0.03976251565696406,8.556811432399823e-07,100.0,,,,,,,,,,3.5284,5.095,2.8605,0.0,0.6543,0.12395,0.0,0.286,5.0,,,,,,3.988525,PASS,
239,s01_lqr_pitch_step,g000029_c5,29,,0.05012333788643979,0.040233481045187106,9.149841529200048e-07,100.0,,,,,,,,,,3.5299,5.0975,2.8693,0.0,0.6574,0.123948,0.0,0.286,5.0,,,,,,4.0079,PASS,
240,s01_lqr_pitch_step,g000029_c6,29,,0.05344417178917302,0.03803428255643489,8.886279659776923e-07,94.04356374500212,,,,,,,,,,3.5298,5.1009,2.8637,0.0,0.6555,0.123921,0.0,0.286,5.0,,,,,,4.011525,PASS,
241,s01_lqr_pitch_step,g000029_c7,29,,0.05151977271370706,0.04034683521284657,9.817126653197716e-07,100.0,,,,,,,,,,3.5299,5.0993,2.8638,0.0,0.6556,0.123917,0.0,0.286,5.0,,,,,,4.0259,PASS,
242,s01_lqr_pitch_step,g000030_c0,30,,0.054275533302935684,0.03722475986665939,8.483986841925045e-07,100.0,,,,,,,,,,3.5292,5.1002,2.8641,0.0,0.6557,0.123927,0.0,0.286,5.0,,,,,,4.0159,PASS,
243,s01_lqr_pitch_step,g000030_c1,30,,0.050942489033490274,0.03376777586972246,8.708109675641164e-07,100.0,,,,,,,,,,3.5296,5.0988,2.8637,0.0,0.6554,0.123918,0.0,0.286,5.0,,,,,,3.98955,PASS,
244,s01_lqr_pitch_step,g000030_c2,30,,0.05482119806133023,0.037391634106531874,8.458041364728116e-07,96.3913882989554,,,,,,,,,,3.5292,5.0984,2.8651,0.0,0.6559,0.123922,0.0,0.286,5.0,,,,,,4.04425,PASS,
245,s01_lqr_pitch_step,g000030_c3,30,,0.04914518515430052,0.03705044962694126,9.377495245575225e-07,100.0,,,,,,,,,,3.5295,5.0981,2.8642,0.0,0.6555,0.123918,0.0,0.286,5.0,,,,,,3.967825,PASS,
246,s01_lqr_pitch_step,g000030_c4,30,,0.0529562786480314,0.039630211769874586,1.0084369624379662e-06,97.15642510883981,,,,,,,,,,3.5304,5.0974,2.8661,0.0,0.6564,0.123915,0.0,0.286,5.0,,,,,,4.03765,PASS,
247,s01_lqr_pitch_step,g000030_c5,30,,0.052359956622274044,0.030816725967011377,9.58431290561678e-07,98.69750282771389,,,,,,,,,,3.5292,5.0988,2.8649,0.0,0.6558,0.12392,0.0,0.286,5.0,,,,,,4.0137,PASS,
248,s01_lqr_pitch_step,g000030_c6,30,,0.06064834131930811,0.03560683725777859,8.834032795111804e-07,98.00447710101143,,,,,,,,,,3.5294,5.1008,2.8642,0.0,0.6557,0.12393,0.0,0.286,5.0,,,,,,4.0047,PASS,
249,s01_lqr_pitch_step,g000030_c7,30,,0.04911819845529615,0.04092760045121762,8.61389138575218e-07,100.0,,,,,,,,,,3.5292,5.0948,2.8649,0.0,0.6558,0.123918,0.0,0.286,5.0,,,,,,3.9872,PASS,
250,s01_lqr_pitch_step,g000031_c0,31,,0.052779530369864415,0.040328192370485086,8.654219585176111e-07,100.0,,,,,,,,,,3.5302,5.098,2.8598,0.0,0.6541,0.123961,0.0,0.286,5.0,,,,,,3.979825,PASS,
251,s01_lqr_pitch_step,g000031_c1,31,,0.050577058637081986,0.03898512086854102,8.591949295746468e-07,98.83146722671248,,,,,,,,,,3.5295,5.0972,2.8659,0.0,0.6562,0.123924,0.0,0.286,5.0,,,,,,4.0521,PASS,
252,s01_lqr_pitch_step,g000031_c2,31,,0.054785722487906,0.04070852742394094,8.685819429450389e-07,100.0,,,,,,,,,,3.5292,5.0986,2.8534,0.0,0.6522,0.123939,0.0,0.286,5.0,,,,,,4.0289,PASS,
253,s01_lqr_pitch_step,g000031_c3,31,,0.05457544639463966,0.039369852106606505,8.63983798145346e-07,100.0,,,,,,,,,,3.5299,5.0967,2.8595,0.0,0.654,0.123958,0.0,0.286,5.0,,,,,,4.016275,PASS,
254,s01_lqr_pitch_step,g000031_c4,31,,0.048851114360346636,0.04184982715107097,8.930478743427752e-07,100.0,,,,,,,,,,3.5294,5.1008,2.8644,0.0,0.6557,0.12392,0.0,0.286,5.0,,,,,,3.99095,PASS,
255,s01_lqr_pitch_step,g000031_c5,31,,0.05097153405495277,0.037916093951768946,9.344556867317581e-07,100.0,,,,,,,,,,3.5302,5.0967,2.862,0.0,0.6549,0.123958,0.0,0.286,5.0,,,,,,4.007225,PASS,
256,s01_lqr_pitch_step,g000031_c6,31,,0.05093370901117699,0.03784213891792374,9.58746373656569e-07,91.50080301722855,,,,,,,,,,3.5303,5.0984,2.864,0.0,0.6556,0.123916,0.0,0.286,5.0,,,,,,3.971325,PASS,
257,s01_lqr_pitch_step,g000031_c7,31,,0.05513689403833011,0.037418961924434106,9.573915421013862e-07,94.62873335558291,,,,,,,,,,3.5305,5.0962,2.8597,0.0,0.6541,0.123963,0.0,0.286,5.0,,,,,,3.98405,PASS,
258,s01_lqr_pitch_step,g000032_c0,32,,0.051341161262190994,0.03915269781738763,9.649303382320883e-07,98.23257272611389,,,,,,,,,,3.5291,5.0983,2.8653,0.0,0.6558,0.123921,0.0,0.286,5.0,,,,,,3.997725,PASS,
259,s01_lqr_pitch_step,g000032_c1,32,,0.04977179894931571,0.03884131927219023,9.821303882090136e-07,94.32790324630255,,,,,,,,,,3.53,5.0988,2.8548,0.0,0.6528,0.123927,0.0,0.286,5.0,,,,,,4.055275,PASS,
260,s01_lqr_pitch_step,g000032_c2,32,,0.050538012948892694,0.035867012628808655,8.927431889102668e-07,100.0,,,,,,,,,,3.53,5.1006,2.8674,0.0,0.6566,0.123943,0.0,0.286,5.0,,,,,,4.003825,PASS,
261,s01_lqr_pitch_step,g000032_c3,32,,0.04987160081233588,0.03748816089647233,8.825398195407065e-07,100.0,,,,,,,,,,3.5298,5.0981,2.8629,0.0,0.6553,0.123916,0.0,0.286,5.0,,,,,,3.9675,PASS,
262,s01_lqr_pitch_step,g000032_c4,32,,0.05325401014662268,0.03730984131407632,9.558363650114651e-07,100.0,,,,,,,,,,3.5297,5.1003,2.8639,0.0,0.6555,0.12392,0.0,0.286,5.0,,,,,,4.002925,PASS,
263,s01_lqr_pitch_step,g000032_c5,32,,0.052384882558808445,0.03833113564874756,9.267009538065053e-07,100.0,,,,,,,,,,3.5297,5.0983,2.8641,0.0,0.6555,0.123956,0.0,0.286,5.0,,,,,,3.994625,PASS,
264,s01_lqr_pitch_step,g000032_c6,32,,0.05343944798554307,0.03889393953793103,9.188386217065685e-07,92.12442489171565,,,,,,,,,,3.529,5.1009,2.8624,0.0,0.6552,0.123912,0.0,0.286,5.0,,,,,,4.00685,PASS,
265,s01_lqr_pitch_step,g000032_c7,32,,0.05214679172617595,0.037016129602798035,9.361041031333109e-07,100.0,,,,,,,,,,3.5301,5.0965,2.8628,0.0,0.6552,0.123914,0.0,0.286,5.0,,,,,,4.005525,PASS,
266,s01_lqr_pitch_step,g000033_c0,33,,0.04979533609869044,0.03719590362616479,8.971055940776263e-07,97.34327407276943,,,,,,,,,,3.53,5.0986,2.8649,0.0,0.6559,0.123925,0.0,0.286,5.0,,,,,,4.0064,PASS,
267,s01_lqr_pitch_step,g000033_c1,33,,0.05157704305065511,0.03853091544000586,9.185650839297589e-07,100.0,,,,,,,,,,3.5288,5.0982,2.8641,0.0,0.6556,0.123921,0.0,0.286,5.0,,,,,,3.996025,PASS,
268,s01_lqr_pitch_step,g000033_c2,33,,0.05138336628481171,0.03778066802430386,9.814903196345248e-07,100.0,,,,,,,,,,3.5301,5.1019,2.8654,0.0,0.6559,0.123931,0.0,0.286,5.0,,,,,,3.998375,PASS,
269,s01_lqr_pitch_step,g000033_c3,33,,0.05246573915190371,0.03624597122114249,8.97067190576135e-07,99.84758290821226,,,,,,,,,,3.5292,5.0984,2.8584,0.0,0.6536,0.123949,0.0,0.286,5.0,,,,,,3.99585,PASS,
270,s01_lqr_pitch_step,g000033_c4,33,,0.05036233170278418,0.03844028606011528,9.193392814018315e-07,100.0,,,,,,,,,,3.5293,5.0968,2.8655,0.0,0.6559,0.12392,0.0,0.286,5.0,,,,,,3.993625,PASS,
271,s01_lqr_pitch_step,g000033_c5,33,,0.05175956908872815,0.041485415576423254,9.146680387842341e-07,98.9972680556025,,,,,,,,,,3.5294,5.0983,2.8582,0.0,0.6537,0.123953,0.0,0.286,5.0,,,,,,4.00435,PASS,
272,s01_lqr_pitch_step,g000033_c6,33,,0.05306641644127807,0.037783817570029014,9.285638240618735e-07,94.31460571262097,,,,,,,,,,3.5297,5.0978,2.8659,0.0,0.6561,0.123935,0.0,0.286,5.0,,,,,,4.006375,PASS,
273,s01_lqr_pitch_step,g000033_c7,33,,0.05081119642400645,0.03742482512041324,9.106422924425441e-07,100.0,,,,,,,,,,3.5292,5.0997,2.8667,0.0,0.6563,0.123937,0.0,0.286,5.0,,,,,,4.009075,PASS,
274,s01_lqr_pitch_step,g000034_c0,34,,0.0505484125173124,0.03858566848314041,8.663311470689058e-07,99.41970768792918,,,,,,,,,,3.5291,5.0988,2.8701,0.0,0.6574,0.12394,0.0,0.286,5.0,,,,,,3.98685,PASS,
275,s01_lqr_pitch_step,g000034_c1,34,,0.05086138695346202,0.03788760538776356,8.77999658439927e-07,99.48547782390203,,,,,,,,,,3.5289,5.098,2.8688,0.0,0.6572,0.123925,0.0,0.286,5.0,,,,,,4.01475,PASS,
276,s01_lqr_pitch_step,g000034_c2,34,,0.05144393369162519,0.03979935832751031,8.955243523801333e-07,100.0,,,,,,,,,,3.5303,5.0975,2.8651,0.0,0.6559,0.123918,0.0,0.286,5.0,,,,,,4.03295,PASS,
277,s01_lqr_pitch_step,g000034_c3,34,,0.052099485154078376,0.03682859447238907,8.572187781009438e-07,100.0,,,,,,,,,,3.5285,5.0968,2.8633,0.0,0.6551,0.123933,0.0,0.286,5.0,,,,,,3.994775,PASS,
278,s01_lqr_pitch_step,g000034_c4,34,,0.05273472362514146,0.03803601391743816,9.312419697280768e-07,97.67451877949877,,,,,,,,,,3.5292,5.0946,2.8656,0.0,0.6561,0.123949,0.0,0.286,5.0,,,,,,3.9685,PASS,
279,s01_lqr_pitch_step,g000034_c5,34,,0.04917817856854208,0.039030356948620136,9.284698055196216e-07,96.44656616514105,,,,,,,,,,3.5288,5.0985,2.8639,0.0,0.6557,0.123924,0.0,0.286,5.0,,,,,,4.003925,PASS,
280,s01_lqr_pitch_step,g000034_c6,34,,0.05087257446744106,0.03837509945479248,8.796989276473923e-07,100.0,,,,,,,,,,3.5296,5.0953,2.8643,0.0,0.6556,0.123918,0.0,0.286,5.0,,,,,,4.005375,PASS,
281,s01_lqr_pitch_step,g000034_c7,34,,0.050259248023807955,0.037184331736402565,9.173199649807168e-07,100.0,,,,,,,,,,3.5288,5.0954,2.8646,0.0,0.6558,0.123946,0.0,0.286,5.0,,,,,,4.0196,PASS,
282,s01_lqr_pitch_step,g000035_c0,35,,0.053987990915389,0.03911245304059179,8.799154805497354e-07,98.48748845691074,,,,,,,,,,3.5294,5.0962,2.8643,0.0,0.6556,0.123916,0.0,0.286,5.0,,,,,,3.9699,PASS,
283,s01_lqr_pitch_step,g000035_c1,35,,0.051645619644587214,0.03836411709131902,8.802283461145709e-07,94.90915915510526,,,,,,,,,,3.5293,5.0987,2.8663,0.0,0.6563,0.123953,0.0,0.286,5.0,,,,,,3.991375,PASS,
284,s01_lqr_pitch_step,g000035_c2,35,,0.052010354422480656,0.03852315093997873,8.745747252899824e-07,100.0,,,,,,,,,,3.5295,5.095,2.864,0.0,0.6557,0.123923,0.0,0.286,5.0,,,,,,3.992825,PASS,
285,s01_lqr_pitch_step,g000035_c3,35,,0.05188466999927712,0.03895106259958847,8.808530419812858e-07,98.65791972210471,,,,,,,,,,3.5293,5.1006,2.8649,0.0,0.6557,0.123927,0.0,0.286,5.0,,,,,,3.974125,PASS,
286,s01_lqr_pitch_step,g000035_c4,35,,0.05180157774731262,0.03849555184354728,9.261456872385426e-07,100.0,,,,,,,,,,3.5306,5.0999,2.8631,0.0,0.6554,0.123918,0.0,0.286,5.0,,,,,,4.01515,PASS,
287,s01_lqr_pitch_step,g000035_c5,35,,0.05269701770662366,0.0401813387430398,8.578645159079379e-07,100.0,,,,,,,,,,3.5285,5.0976,2.8663,0.0,0.6564,0.123913,0.0,0.286,5.0,,,,,,4.02965,PASS,
288,s01_lqr_pitch_step,g000035_c6,35,,0.05064498486718677,0.03825121438669526,9.276299500041396e-07,100.0,,,,,,,,,,3.5299,5.0997,2.8604,0.0,0.6542,0.12396,0.0,0.286,5.0,,,,,,4.018675,PASS,
289,s01_lqr_pitch_step,g000035_c7,35,,0.05168351211394017,0.039187904367052794,9.51560799644839e-07,99.42776211670039,,,,,,,,,,3.5297,5.0979,2.8653,0.0,0.6558,0.123964,0.0,0.286,5.0,,,,,,4.00265,PASS,
290,s01_lqr_pitch_step,g000036_c0,36,,0.05374303030059546,0.039033348414651385,8.863361847600322e-07,98.49129419266865,,,,,,,,,,3.5293,5.0979,2.8669,0.0,0.6565,0.123953,0.0,0.286,5.0,,,,,,4.025225,PASS,
291,s01_lqr_pitch_step,g000036_c1,36,,0.051005847337604895,0.03925755883475585,8.896296838536287e-07,100.0,,,,,,,,,,3.5291,5.0979,2.8638,0.0,0.6555,0.123939,0.0,0.286,5.0,,,,,,4.015275,PASS,
292,s01_lqr_pitch_step,g000036_c2,36,,0.05047473675483415,0.03715164236215898,8.83252217394062e-07,97.80386568300491,,,,,,,,,,3.5291,5.0971,2.8659,0.0,0.6561,0.123931,0.0,0.286,5.0,,,,,,4.012925,PASS,
293,s01_lqr_pitch_step,g000036_c3,36,,0.05023949578010082,0.040076957627809176,9.321876713058534e-07,98.59758022958066,,,,,,,,,,3.5286,5.1024,2.8651,0.0,0.6559,0.123917,0.0,0.286,5.0,,,,,,4.059125,PASS,
294,s01_lqr_pitch_step,g000036_c4,36,,0.05420711818583508,0.03862142879400452,9.016567508205883e-07,99.72894690327632,,,,,,,,,,3.5288,5.1009,2.8642,0.0,0.6557,0.123916,0.0,0.286,5.0,,,,,,4.01975,PASS,
295,s01_lqr_pitch_step,g000036_c5,36,,0.05093670849494928,0.038746344857362565,9.518701755981229e-07,100.0,,,,,,,,,,3.5298,5.0979,2.8644,0.0,0.6557,0.12392,0.0,0.286,5.0,,,,,,3.9958,PASS,
296,s01_lqr_pitch_step,g000036_c6,36,,0.0509296969368404,0.03880736560106215,9.183279894272718e-07,100.0,,,,,,,,,,3.5293,5.0997,2.863,0.0,0.6553,0.123918,0.0,0.286,5.0,,,,,,3.99535,PASS,
297,s01_lqr_pitch_step,g000036_c7,36,,0.049798207885385325,0.038466310595842476,9.014554120540438e-07,100.0,,,,,,,,,,3.529,5.1026,2.8674,0.0,0.6567,0.123915,0.0,0.286,5.0,,,,,,4.0551,PASS,
298,s01_lqr_pitch_step,g000037_c0,37,,0.053755141251498606,0.03946672461848429,9.041931017400981e-07,100.0,,,,,,,,,,3.5299,5.1006,2.865,0.0,0.6558,0.123918,0.0,0.286,5.0,,,,,,4.023725,PASS,
299,s01_lqr_pitch_step,g000037_c1,37,,0.05149374624965172,0.038756066865244874,9.553467183985877e-07,100.0,,,,,,,,,,3.5306,5.101,2.869,0.0,0.6571,0.123974,0.0,0.286,5.0,,,,,,3.9999,PASS,
300,s01_lqr_pitch_step,g000037_c2,37,,0.05079642167841832,0.03770058052397885,8.988047485161787e-07,99.37061083940719,,,,,,,,,,3.5294,5.0945,2.8547,0.0,0.6526,0.123944,0.0,0.286,5.0,,,,,,4.022575,PASS,
301,s01_lqr_pitch_step,g000037_c3,37,,0.05042101882092756,0.04038162107940729,9.08171211755552e-07,100.0,,,,,,,,,,3.5287,5.0969,2.8662,0.0,0.6561,0.123919,0.0,0.286,5.0,,,,,,4.009125,PASS,
302,s01_lqr_pitch_step,g000037_c4,37,,0.052646462629683116,0.038561269641324426,9.488856140380883e-07,99.31310601077364,,,,,,,,,,3.5291,5.0991,2.8659,0.0,0.6561,0.12393,0.0,0.286,5.0,,,,,,4.020125,PASS,
303,s01_lqr_pitch_step,g000037_c5,37,,0.05193097348489804,0.03888260895931421,8.74682067896144e-07,98.20004434356044,,,,,,,,,,3.5294,5.0975,2.8623,0.0,0.6548,0.123965,0.0,0.286,5.0,,,,,,4.023625,PASS,
304,s01_lqr_pitch_step,g000037_c6,37,,0.051982861086132176,0.040645886679336364,8.554321953995965e-07,100.0,,,,,,,,,,3.5295,5.0988,2.8663,0.0,0.6562,0.123926,0.0,0.286,5.0,,,,,,4.00535,PASS,
305,s01_lqr_pitch_step,g000037_c7,37,,0.05177740621935484,0.0364571502996065,8.683449024703688e-07,100.0,,,,,,,,,,3.5294,5.0967,2.8657,0.0,0.6561,0.123932,0.0,0.286,5.0,,,,,,4.0038,PASS,
306,s01_lqr_pitch_step,g000038_c0,38,,0.052880409775007714,0.038077983752508184,8.72236298448261e-07,96.11491478714258,,,,,,,,,,3.5291,5.0996,2.8637,0.0,0.6556,0.123914,0.0,0.286,5.0,,,,,,4.0328,PASS,
307,s01_lqr_pitch_step,g000038_c1,38,,0.05123364244325536,0.03725434761196598,8.955306069905275e-07,100.0,,,,,,,,,,3.5287,5.0953,2.8639,0.0,0.6555,0.123916,0.0,0.286,5.0,,,,,,3.99605,PASS,
308,s01_lqr_pitch_step,g000038_c2,38,,0.051546979612776496,0.03792896209066875,9.297570243502466e-07,99.81165417053712,,,,,,,,,,3.5302,5.0992,2.8641,0.0,0.6557,0.123922,0.0,0.286,5.0,,,,,,4.008475,PASS,
309,s01_lqr_pitch_step,g000038_c3,38,,0.052005695185463836,0.03879093825499784,8.915845330230874e-07,100.0,,,,,,,,,,3.5298,5.0991,2.8638,0.0,0.6555,0.123918,0.0,0.286,5.0,,,,,,3.99715,PASS,
310,s01_lqr_pitch_step,g000038_c4,38,,0.05357233306427899,0.040197725905591807,8.973857211729804e-07,96.19791881019273,,,,,,,,,,3.5288,5.0972,2.8639,0.0,0.6555,0.123919,0.0,0.286,5.0,,,,,,3.977175,PASS,
311,s01_lqr_pitch_step,g000038_c5,38,,0.05115348266661439,0.03847532398443124,9.19330826361525e-07,96.46705423326088,,,,,,,,,,3.5297,5.0946,2.8626,0.0,0.655,0.12392,0.0,0.286,5.0,,,,,,4.027975,PASS,
