run_id,scenario,label,gen,timestamp,Q_PITCH,Q_PITCH_RATE,Q_VEL,R,KP_V,KI_V,KFF_V,KP_YAW,KI_YAW,LEG_K_S,LEG_B_S,LEG_K_ROLL,LEG_D_ROLL,rms_pitch_deg,max_pitch_deg,wheel_travel_m,wheel_liftoff_s,vel_track_rms_ms,hip_track_rms_rad,hip_cmd_rate_rms,settle_time_s,survived_s,fitness_balance,fitness_disturbance,fitness_drive_slow,fitness_drive_med,fitness_obstacle,fitness,status,fail_reason
1,s03_vel_pi_disturbance,evo_seed,0,,,,,,0.05,0.1,0.108498,,,,,,,3.2953,4.497,0.9703,0.0,0.1911,0.005204,0.0,0.0,6.002,,,,,,200.985765,FAIL,vel error exceeded
2,s03_vel_pi_disturbance,g000000_c0,0,,,,,,0.001,0.13295625489328627,0.11222578828947145,,,,,,,3.7847,5.8367,1.4312,0.0,0.2842,0.005226,0.0,0.0,6.002,,,,,,201.471862,FAIL,vel error exceeded
3,s03_vel_pi_disturbance,g000000_c1,0,,,,,,0.6288951275880355,0.006917816550214033,1.2,,,,,,,2.6339,2.7458,0.4171,0.0,0.0728,0.005171,0.0,12.0,6.01,,,,,,200.406675,FAIL,vel error exceeded
4,s03_vel_pi_disturbance,g000000_c2,0,,,,,,0.001169421683726115,2.4146406493744847,1.2,,,,,,,6.6518,10.8616,0.1631,0.0,0.3501,0.005259,0.0,12.0,1.244,,,,,,202.125503,FAIL,vel error exceeded
5,s03_vel_pi_disturbance,g000000_c3,0,,,,,,0.0027760451805888433,0.1139893267802822,0.8460521318932227,,,,,,,3.842,5.6985,1.4289,0.0,0.2842,0.005233,0.0,0.0,6.002,,,,,,201.464808,FAIL,vel error exceeded
6,s03_vel_pi_disturbance,g000000_c4,0,,,,,,1.4048990417572973,0.04754625132483359,0.1,,,,,,,2.9415,6.5534,0.0199,0.0,0.0,0.003879,0.0,12.0,0.106,,,,,,201.847635,FAIL,vel error exceeded
7,s03_vel_pi_disturbance,g000000_c5,0,,,,,,0.10531660374064213,8.337700057720506,0.10492977500048917,,,,,,,14.2461,25.3188,0.1033,0.0,0.0,0.005436,0.0,12.0,0.62,,,,,,201.25649,FAIL,vel error exceeded
8,s03_vel_pi_disturbance,g000000_c6,0,,,,,,0.001109038807558854,0.001,0.22034084721937994,,,,,,,0.1698,0.2998,0.4909,0.0,0.3889,0.004889,0.0,0.0,1.926,,,,,,201.95218,FAIL,vel error exceeded
9,s03_vel_pi_disturbance,g000000_c7,0,,,,,,0.30054134709451225,3.0116458834518514,0.2939065147449273,,,,,,,5.7452,9.6911,0.1745,0.0,0.2455,0.004922,0.0,12.0,1.286,,,,,,201.90242,FAIL,vel error exceeded
10,s03_vel_pi_disturbance,g000001_c0,1,,,,,,0.10056193864165187,0.045517598269875455,0.2976662382970604,,,,,,,2.8148,3.4522,1.0784,0.0,0.2056,0.005173,0.0,0.0,6.01,,,,,,201.052575,FAIL,vel error exceeded
11,s03_vel_pi_disturbance,g000001_c1,1,,,,,,0.010341950161228157,0.009400907290077155,1.2,,,,,,,0.4205,0.792,0.5552,0.0,0.3908,0.004914,0.0,0.0,2.094,,,,,,201.96528,FAIL,vel error exceeded
12,s03_vel_pi_disturbance,g000001_c2,1,,,,,,0.036165157317568114,0.004220207662031964,0.5224240097814429,,,,,,,0.8291,1.4098,0.6937,0.0,0.3904,0.00496,0.0,0.0,2.466,,,,,,201.967023,FAIL,vel error exceeded
13,s03_vel_pi_disturbance,g000001_c3,1,,,,,,0.0021682150734936272,0.9191178407215422,0.1,,,,,,,4.9215,7.635,0.5244,0.0,0.239,0.005051,0.0,0.0,3.116,,,,,,201.43028,FAIL,vel error exceeded
14,s03_vel_pi_disturbance,g000001_c4,1,,,,,,0.0657565435329876,0.474873918066257,0.1,,,,,,,3.7137,6.0404,0.7078,0.0,0.1377,0.005206,0.0,0.0,6.002,,,,,,200.78141,FAIL,vel error exceeded
15,s03_vel_pi_disturbance,g000001_c5,1,,,,,,1.401438213221516,0.030456396735095693,0.12828822872162546,,,,,,,2.9805,6.625,0.0202,0.0,0.0,0.003886,0.0,12.0,0.106,,,,,,201.862963,FAIL,vel error exceeded
16,s03_vel_pi_disturbance,g000001_c6,1,,,,,,0.0017560047922314163,0.1422666708875846,1.2,,,,,,,3.7285,5.8472,1.4026,0.0,0.2775,0.005219,0.0,0.0,6.002,,,,,,201.44086,FAIL,vel error exceeded
17,s03_vel_pi_disturbance,g000001_c7,1,,,,,,4.909383504468889,1.0772567641975808,0.38242759772787255,,,,,,,2.9684,6.4563,0.0198,0.0,0.0,0.003816,0.0,12.0,0.1,,,,,,201.883685,FAIL,vel error exceeded
18,s03_vel_pi_disturbance,g000002_c0,2,,,,,,0.12895281686541835,0.1693546068893022,0.1,,,,,,,2.9001,3.9531,0.4613,0.0,0.0911,0.005181,0.0,0.0,6.002,,,,,,200.48635,FAIL,vel error exceeded
19,s03_vel_pi_disturbance,g000002_c1,2,,,,,,0.12199117091591673,10.0,1.2,,,,,,,2.7589,7.7435,0.0325,0.0,0.0,0.003863,0.0,12.0,0.26,,,,,,201.073178,FAIL,vel error exceeded
20,s03_vel_pi_disturbance,g000002_c2,2,,,,,,0.29592262926120455,0.20929052368984605,0.1,,,,,,,2.7926,3.3069,0.2225,0.0,0.0434,0.00518,0.0,0.0,6.002,,,,,,200.24882,FAIL,vel error exceeded
21,s03_vel_pi_disturbance,g000002_c3,2,,,,,,0.4923353800393262,3.6160232891956006,0.1,,,,,,,5.3108,8.4273,0.1181,0.0,0.0,0.00487,0.0,12.0,0.83,,,,,,200.96533,FAIL,vel error exceeded
22,s03_vel_pi_disturbance,g000002_c4,2,,,,,,0.29617877701289436,0.31042132518029353,1.2,,,,,,,2.7928,3.4834,0.1632,0.0,0.0309,0.00518,0.0,0.0,6.002,,,,,,200.18944,FAIL,vel error exceeded
23,s03_vel_pi_disturbance,g000002_c5,2,,,,,,0.01538135487914246,0.29812928817153317,0.1,,,,,,,3.3984,6.5327,3.7546,0.0,0.2149,0.005179,0.0,0.0,12.0,,,,,,1.162128,PASS,
24,s03_vel_pi_disturbance,g000002_c6,2,,,,,,0.004369890963118533,0.018155439726782695,0.17830508268687342,,,,,,,0.4307,0.8697,0.5557,0.0,0.3927,0.004913,0.0,0.0,2.088,,,,,,201.97596,FAIL,vel error exceeded
25,s03_vel_pi_disturbance,g000002_c7,2,,,,,,0.00489599267166313,0.04168772059190509,0.1,,,,,,,0.9291,1.9328,0.717,0.0,0.4042,0.00496,0.0,0.0,2.466,,,,,,202.043152,FAIL,vel error exceeded
26,s03_vel_pi_disturbance,g000003_c0,3,,,,,,0.082801987492904,0.19978509515661402,0.2804056078083244,,,,,,,2.9432,4.5342,0.5927,0.0,0.1156,0.005175,0.0,0.0,6.008,,,,,,200.617073,FAIL,vel error exceeded
27,s03_vel_pi_disturbance,g000003_c1,3,,,,,,0.005239778530360231,2.087778803634172,0.12036274544820906,,,,,,,6.1124,9.9963,0.1989,0.0,0.3328,0.005265,0.0,12.0,1.4,,,,,,202.043485,FAIL,vel error exceeded
28,s03_vel_pi_disturbance,g000003_c2,3,,,,,,0.002861544182001338,0.1227260856343998,0.1,,,,,,,3.8044,5.7372,1.4218,0.0,0.2824,0.00523,0.0,0.0,6.002,,,,,,201.458873,FAIL,vel error exceeded
29,s03_vel_pi_disturbance,g000003_c3,3,,,,,,0.0036031409887639755,10.0,0.1,,,,,,,3.0858,8.7797,0.0382,0.0,0.0,0.004065,0.0,12.0,0.306,,,,,,201.045742,FAIL,vel error exceeded
30,s03_vel_pi_disturbance,g000003_c4,3,,,,,,0.2305842821080837,0.7999663183468005,0.1,,,,,,,2.8678,4.6148,0.1981,0.0,0.0359,0.00518,0.0,2.014,6.006,,,,,,200.241688,FAIL,vel error exceeded
31,s03_vel_pi_disturbance,g000003_c5,3,,,,,,0.0022218183582667327,0.15697654799273977,0.1,,,,,,,3.6546,5.8903,1.3503,0.0,0.2661,0.005207,0.0,0.0,6.002,,,,,,201.387168,FAIL,vel error exceeded
32,s03_vel_pi_disturbance,g000003_c6,3,,,,,,0.009191346644937171,0.08283293154506939,0.36307242638717413,,,,,,,3.6142,5.0213,1.3112,0.0,0.2652,0.005216,0.0,0.0,6.002,,,,,,201.3567,FAIL,vel error exceeded
33,s03_vel_pi_disturbance,g000003_c7,3,,,,,,0.004343441112178122,0.7978572815658841,0.18087282619404307,,,,,,,4.5339,7.3602,0.5738,0.0,0.2342,0.00506,0.0,0.0,3.388,,,,,,201.37617,FAIL,vel error exceeded
34,s03_vel_pi_disturbance,g000004_c0,4,,,,,,0.005403573567820623,0.0016805783339797254,0.1,,,,,,,0.2451,0.4356,0.5104,0.0,0.3893,0.004897,0.0,0.0,1.978,,,,,,201.955038,FAIL,vel error exceeded
35,s03_vel_pi_disturbance,g000004_c1,4,,,,,,0.005094412062722097,0.009720725492131233,0.7493283387408906,,,,,,,0.3321,0.6411,0.5306,0.0,0.3906,0.004905,0.0,0.0,2.028,,,,,,201.96354,FAIL,vel error exceeded
36,s03_vel_pi_disturbance,g000004_c2,4,,,,,,0.020686926875560594,0.056451012657503,1.2,,,,,,,2.4017,3.8866,4.4951,0.0,0.2879,0.005146,0.0,0.0,12.0,,,,,,1.466182,PASS,
37,s03_vel_pi_disturbance,g000004_c3,4,,,,,,0.052429311726862105,0.008188923433251252,0.18162776082749058,,,,,,,1.3808,2.2167,1.0339,0.0,0.4042,0.005024,0.0,0.0,3.278,,,,,,202.038782,FAIL,vel error exceeded
38,s03_vel_pi_disturbance,g000004_c4,4,,,,,,0.07421862287984315,0.22121920900689712,0.1,,,,,,,2.9346,4.7248,0.6208,0.0,0.1201,0.00517,0.0,0.0,6.012,,,,,,200.645033,FAIL,vel error exceeded
39,s03_vel_pi_disturbance,g000004_c5,4,,,,,,0.008900876945748286,3.9365625273223848,0.1,,,,,,,8.7698,15.5002,0.1099,0.0,0.0,0.005252,0.0,12.0,0.91,,,,,,200.55158,FAIL,vel error exceeded
40,s03_vel_pi_disturbance,g000004_c6,4,,,,,,0.005599061999860152,0.12530922723786858,0.1,,,,,,,3.7483,5.6645,1.3832,0.0,0.2737,0.005226,0.0,0.0,6.002,,,,,,201.41516,FAIL,vel error exceeded
41,s03_vel_pi_disturbance,g000004_c7,4,,,,,,0.058430247675828134,0.18376232154637065,1.0869039351290883,,,,,,,3.0542,4.7981,0.7404,0.0,0.1444,0.005178,0.0,0.0,6.008,,,,,,200.763467,FAIL,vel error exceeded
42,s03_vel_pi_disturbance,g000005_c0,5,,,,,,0.6132162428766114,2.26546419590089,0.1,,,,,,,2.7381,3.5943,0.0263,0.0,0.0102,0.005181,0.0,12.0,6.002,,,,,,200.128077,FAIL,vel error exceeded
43,s03_vel_pi_disturbance,g000005_c1,5,,,,,,0.001,0.06452547125741137,0.11512902229437459,,,,,,,2.4471,3.9947,4.5814,0.0,0.3495,0.005134,0.0,0.0,12.0,,,,,,1.778048,PASS,
44,s03_vel_pi_disturbance,g000005_c2,5,,,,,,0.011568837220238635,1.2682547501148003,0.6810015762227469,,,,,,,5.7051,9.5571,0.4285,0.0,0.2543,0.005029,0.0,0.0,2.596,,,,,,201.59321,FAIL,vel error exceeded
45,s03_vel_pi_disturbance,g000005_c3,5,,,,,,0.002451739360216283,10.0,0.1,,,,,,,3.0728,8.74,0.0381,0.0,0.0,0.004066,0.0,12.0,0.306,,,,,,201.040738,FAIL,vel error exceeded
46,s03_vel_pi_disturbance,g000005_c4,5,,,,,,0.008867436654694475,0.749784637079963,0.1,,,,,,,4.2734,7.1579,0.5994,0.0,0.2321,0.005064,0.0,0.0,3.542,,,,,,201.353695,FAIL,vel error exceeded
47,s03_vel_pi_disturbance,g000005_c5,5,,,,,,0.00905125462990132,0.7786299247648703,0.544488890338844,,,,,,,4.3554,7.2238,0.5819,0.0,0.232,0.005061,0.0,0.0,3.458,,,,,,201.359232,FAIL,vel error exceeded
48,s03_vel_pi_disturbance,g000005_c6,5,,,,,,0.022653750232313766,0.1768312220879154,1.1171446938661154,,,,,,,3.331,5.4396,1.037,0.0,0.2028,0.005184,0.0,0.0,6.002,,,,,,201.064447,FAIL,vel error exceeded
49,s03_vel_pi_disturbance,g000005_c7,5,,,,,,0.002860264421662363,0.31141220134773717,0.1,,,,,,,3.923,8.0766,3.8349,0.0,0.2687,0.005197,0.0,0.0,12.0,,,,,,1.45529,PASS,
50,s03_vel_pi_disturbance,g000006_c0,6,,,,,,0.009324550525392198,0.2074834857982212,0.21061220820162035,,,,,,,3.1022,5.8718,2.1831,0.0,0.2357,0.005092,0.0,0.0,7.888,,,,,,201.24366,FAIL,vel error exceeded
51,s03_vel_pi_disturbance,g000006_c1,6,,,,,,0.0653209492584864,0.15430052809575387,1.2,,,,,,,3.0939,4.5675,0.7681,0.0,0.1466,0.005187,0.0,0.0,6.002,,,,,,200.768715,FAIL,vel error exceeded
52,s03_vel_pi_disturbance,g000006_c2,6,,,,,,0.001884227078374505,3.3804761893303525,1.2,,,,,,,7.9703,13.6122,0.1219,0.0,0.0,0.005251,0.0,12.0,1.0,,,,,,200.465317,FAIL,vel error exceeded
53,s03_vel_pi_disturbance,g000006_c3,6,,,,,,0.047807079504506786,0.05711631759785311,0.20402158588022032,,,,,,,3.0083,4.0552,1.2111,0.0,0.2455,0.00518,0.0,0.0,6.002,,,,,,201.25028,FAIL,vel error exceeded
54,s03_vel_pi_disturbance,g000006_c4,6,,,,,,0.001,6.986629043869355,0.1556045145848448,,,,,,,13.4138,25.2525,0.1087,0.0,0.0,0.005403,0.0,12.0,0.708,,,,,,201.105953,FAIL,vel error exceeded
55,s03_vel_pi_disturbance,g000006_c5,6,,,,,,0.001,0.033616533816761635,0.1,,,,,,,0.6127,1.3003,0.6051,0.0,0.3974,0.004929,0.0,0.0,2.202,,,,,,202.004482,FAIL,vel error exceeded
56,s03_vel_pi_disturbance,g000006_c6,6,,,,,,0.0010043254682015716,0.14904976922402347,0.2685211448533712,,,,,,,3.7081,5.9008,1.3939,0.0,0.2755,0.005214,0.0,0.0,6.002,,,,,,201.432973,FAIL,vel error exceeded
57,s03_vel_pi_disturbance,g000006_c7,6,,,,,,0.001,0.031752932686912844,0.1,,,,,,,0.5713,1.2112,0.5877,0.0,0.3951,0.004925,0.0,0.0,2.164,,,,,,201.9922,FAIL,vel error exceeded
58,s03_vel_pi_disturbance,g000007_c0,7,,,,,,0.007449066363813343,1.1504227532082196,0.1,,,,,,,5.4495,8.7468,0.4538,0.0,0.2478,0.005036,0.0,0.0,2.742,,,,,,201.530585,FAIL,vel error exceeded
59,s03_vel_pi_disturbance,g000007_c1,7,,,,,,0.03908511911948954,0.048940743835269605,0.3056535889330095,,,,,,,2.3984,3.7423,4.5195,0.0,0.251,0.005153,0.0,0.0,12.0,,,,,,1.282665,PASS,
60,s03_vel_pi_disturbance,g000007_c2,7,,,,,,0.0037948226029608126,10.0,0.8455390287137651,,,,,,,3.1055,8.823,0.0383,0.0,0.0,0.004066,0.0,12.0,0.306,,,,,,201.049303,FAIL,vel error exceeded
61,s03_vel_pi_disturbance,g000007_c3,7,,,,,,0.005334503812639539,0.3211692738535226,0.1,,,,,,,4.3468,9.5664,3.709,0.0,0.2739,0.005198,0.0,0.0,10.962,,,,,,201.486018,FAIL,vel error exceeded
62,s03_vel_pi_disturbance,g000007_c4,7,,,,,,0.002097003824538181,2.735439225682311,0.1,,,,,,,7.0754,11.6766,0.1443,0.0,0.3884,0.005254,0.0,12.0,1.142,,,,,,202.338237,FAIL,vel error exceeded
63,s03_vel_pi_disturbance,g000007_c5,7,,,,,,0.03297392849202771,0.09022542579975584,0.1,,,,,,,3.455,4.7514,1.1271,0.0,0.2237,0.005212,0.0,0.0,6.002,,,,,,201.149012,FAIL,vel error exceeded
64,s03_vel_pi_disturbance,g000007_c6,7,,,,,,0.11891961700939407,0.07845599412484602,0.1,,,,,,,2.9276,3.5777,0.6826,0.0,0.1413,0.005184,0.0,0.0,6.002,,,,,,200.73042,FAIL,vel error exceeded
65,s03_vel_pi_disturbance,g000007_c7,7,,,,,,0.015055129136874922,1.6437744850570326,0.4936148440208856,,,,,,,6.8178,13.3292,0.3805,0.0,0.2887,0.005017,0.0,12.0,2.238,,,,,,201.888315,FAIL,vel error exceeded
66,s03_vel_pi_disturbance,g000008_c0,8,,,,,,0.6422906930513672,10.0,0.5086321542471067,,,,,,,2.1966,5.2532,0.019,0.0,0.0,0.002383,0.0,12.0,0.11,,,,,,201.511877,FAIL,vel error exceeded
67,s03_vel_pi_disturbance,g000008_c1,8,,,,,,0.0020613154011208286,10.0,0.432427817876926,,,,,,,3.1351,8.9331,0.0388,0.0,0.0,0.004071,0.0,12.0,0.308,,,,,,201.058728,FAIL,vel error exceeded
68,s03_vel_pi_disturbance,g000008_c2,8,,,,,,0.5945702002159714,1.1740730911637225,0.8836707226829688,,,,,,,2.7436,3.2887,0.042,0.0,0.0101,0.00518,0.0,12.0,6.002,,,,,,200.103405,FAIL,vel error exceeded
69,s03_vel_pi_disturbance,g000008_c3,8,,,,,,1.5114667431264308,0.08830516862593245,0.22139628299035352,,,,,,,3.061,6.7633,0.0206,0.0,0.0,0.003897,0.0,12.0,0.106,,,,,,201.889885,FAIL,vel error exceeded
70,s03_vel_pi_disturbance,g000008_c4,8,,,,,,0.06288093721089269,4.107259365266642,0.1,,,,,,,8.6442,15.0443,0.1028,0.0,0.0,0.005237,0.0,12.0,0.856,,,,,,200.577043,FAIL,vel error exceeded
71,s03_vel_pi_disturbance,g000008_c5,8,,,,,,0.09749415883138716,0.3430615322719744,0.1,,,,,,,2.9986,4.8304,0.5117,0.0,0.094,0.005177,0.0,0.0,6.008,,,,,,200.523493,FAIL,vel error exceeded
72,s03_vel_pi_disturbance,g000008_c6,8,,,,,,0.004166293830028171,1.228728025158306,1.2,,,,,,,5.7711,9.7969,0.4434,0.0,0.2566,0.005033,0.0,0.0,2.642,,,,,,201.601725,FAIL,vel error exceeded
73,s03_vel_pi_disturbance,g000008_c7,8,,,,,,0.08759883604270301,0.04176820138908146,1.2,,,,,,,2.4587,3.5166,4.2707,0.0,0.2011,0.005158,0.0,0.0,12.0,,,,,,1.04755,PASS,
74,s03_vel_pi_disturbance,g000009_c0,9,,,,,,0.1436571034689193,0.3793209373712859,1.2,,,,,,,2.9317,4.473,0.3407,0.0,0.0602,0.005181,0.0,0.0,6.002,,,,,,200.34681,FAIL,vel error exceeded
75,s03_vel_pi_disturbance,g000009_c1,9,,,,,,0.05239572505401521,0.04494942001851232,1.2,,,,,,,2.4085,3.6619,4.5157,0.0,0.2342,0.005155,0.0,0.0,12.0,,,,,,1.201535,PASS,
76,s03_vel_pi_disturbance,g000009_c2,9,,,,,,0.054212866129896516,0.4005368260619948,0.25672231545941193,,,,,,,3.5171,5.976,0.7469,0.0,0.1457,0.005186,0.0,0.0,6.002,,,,,,200.811772,FAIL,vel error exceeded
77,s03_vel_pi_disturbance,g000009_c3,9,,,,,,0.03430532712797236,0.011855106142504086,0.14426299102865192,,,,,,,0.9563,1.6783,0.749,0.0,0.3948,0.004973,0.0,0.0,2.592,,,,,,201.991093,FAIL,vel error exceeded
78,s03_vel_pi_disturbance,g000009_c4,9,,,,,,0.025152591150002054,0.061970602700532056,1.2,,,,,,,3.082,4.1717,1.3384,0.0,0.2735,0.005181,0.0,0.0,6.002,,,,,,201.391533,FAIL,vel error exceeded
79,s03_vel_pi_disturbance,g000009_c5,9,,,,,,2.084999108395438,0.0010545546657918096,0.1,,,,,,,2.9823,6.5317,0.02,0.0,0.0,0.003843,0.0,12.0,0.102,,,,,,201.881282,FAIL,vel error exceeded
80,s03_vel_pi_disturbance,g000009_c6,9,,,,,,0.029565725631580313,0.4563827157335454,0.9184384605771776,,,,,,,4.4288,8.595,0.9705,0.0,0.1994,0.005215,0.0,0.0,6.002,,,,,,201.118022,FAIL,vel error exceeded
81,s03_vel_pi_disturbance,g000009_c7,9,,,,,,0.10963973478605896,0.19692600398491683,1.2,,,,,,,2.9,4.2314,0.4902,0.0,0.0969,0.005178,0.0,0.0,6.008,,,,,,200.52016,FAIL,vel error exceeded
82,s03_vel_pi_disturbance,g000010_c0,10,,,,,,0.001,0.0027352797867249193,1.2,,,,,,,0.1871,0.3419,0.5,0.0,0.3907,0.004891,0.0,0.0,1.946,,,,,,201.961122,FAIL,vel error exceeded
83,s03_vel_pi_disturbance,g000010_c1,10,,,,,,0.21725676765696122,0.001270888037037205,0.11901787708610956,,,,,,,2.4728,2.733,1.1,0.0,0.1995,0.005155,0.0,0.0,6.032,,,,,,201.056265,FAIL,vel error exceeded
84,s03_vel_pi_disturbance,g000010_c2,10,,,,,,0.04260638927064329,0.28776668119881094,0.112331658619172,,,,,,,3.333,6.9006,3.5567,0.0,0.2066,0.005167,0.0,0.0,12.0,,,,,,1.11817,PASS,
85,s03_vel_pi_disturbance,g000010_c3,10,,,,,,0.36444833489159256,0.3400052554295113,0.1,,,,,,,2.7774,3.3365,0.1376,0.0,0.0286,0.00518,0.0,12.0,6.006,,,,,,200.17961,FAIL,vel error exceeded
86,s03_vel_pi_disturbance,g000010_c4,10,,,,,,0.01813337988159012,0.324418090113291,0.1,,,,,,,4.2408,9.3096,3.4286,0.0,0.2651,0.005198,0.0,0.0,10.738,,,,,,201.440385,FAIL,vel error exceeded
87,s03_vel_pi_disturbance,g000010_c5,10,,,,,,0.22000529092088186,4.071925146108615,0.9395138091655231,,,,,,,7.4547,12.2441,0.0883,0.0,0.0,0.005179,0.0,12.0,0.752,,,,,,200.605118,FAIL,vel error exceeded
88,s03_vel_pi_disturbance,g000010_c6,10,,,,,,0.11398382052315165,0.01790058624576215,0.4460599764592084,,,,,,,2.3001,3.0036,5.2415,0.0,0.2308,0.00515,0.0,0.0,12.0,,,,,,1.203935,PASS,
89,s03_vel_pi_disturbance,g000010_c7,10,,,,,,0.007929131289522245,0.024865201349874085,1.2,,,,,,,0.6094,1.2283,0.6059,0.0,0.3947,0.004931,0.0,0.0,2.214,,,,,,201.989375,FAIL,vel error exceeded
90,s03_vel_pi_disturbance,g000011_c0,11,,,,,,0.06420341637501023,0.00361269872566063,0.39137261065310736,,,,,,,1.5699,2.3272,1.2377,0.0,0.4074,0.005049,0.0,0.0,3.772,,,,,,202.05394,FAIL,vel error exceeded
91,s03_vel_pi_disturbance,g000011_c1,11,,,,,,0.011857798533276927,0.1736317724945703,1.2,,,,,,,3.4639,5.6862,1.1645,0.0,0.2286,0.005189,0.0,0.0,6.002,,,,,,201.197872,FAIL,vel error exceeded
92,s03_vel_pi_disturbance,g000011_c2,11,,,,,,0.1615110279090033,0.08991946343381636,0.2942240870346369,,,,,,,2.857,3.3979,0.5404,0.0,0.1106,0.005181,0.0,0.0,6.002,,,,,,200.57807,FAIL,vel error exceeded
93,s03_vel_pi_disturbance,g000011_c3,11,,,,,,0.021377138490558105,0.45811448313898945,0.8068939938916392,,,,,,,4.6967,9.5214,1.053,0.0,0.2197,0.005219,0.0,0.0,6.002,,,,,,201.2308,FAIL,vel error exceeded
94,s03_vel_pi_disturbance,g000011_c4,11,,,,,,0.039707903585901844,0.18495654368899997,0.41163824065419363,,,,,,,3.1594,5.1257,0.8649,0.0,0.1695,0.005178,0.0,0.0,6.008,,,,,,200.893728,FAIL,vel error exceeded
95,s03_vel_pi_disturbance,g000011_c5,11,,,,,,0.15862657171173816,0.028883170576808656,0.1,,,,,,,2.6406,3.0331,1.043,0.0,0.1898,0.005164,0.0,0.0,6.02,,,,,,200.984825,FAIL,vel error exceeded
96,s03_vel_pi_disturbance,g000011_c6,11,,,,,,0.6703342525718284,0.0031800425886968436,0.16900776004939042,,,,,,,2.909,4.5955,0.7722,0.0,0.2134,0.005251,0.0,12.0,6.01,,,,,,202.094675,FAIL,vel error exceeded
97,s03_vel_pi_disturbance,g000011_c7,11,,,,,,0.03755994868702732,0.035143985791575516,1.2,,,,,,,2.2828,3.1683,5.4127,0.0,0.272,0.005152,0.0,0.0,12.0,,,,,,1.38323,PASS,
98,s03_vel_pi_disturbance,g000012_c0,12,,,,,,0.003877203814078184,0.001,1.2,,,,,,,0.2142,0.3782,0.5038,0.0,0.3895,0.004894,0.0,0.0,1.96,,,,,,201.955855,FAIL,vel error exceeded
99,s03_vel_pi_disturbance,g000012_c1,12,,,,,,1.2869881863078043,0.18765281271540457,1.2,,,,,,,2.941,6.5994,0.02,0.0,0.0,0.003899,0.0,12.0,0.108,,,,,,201.83867,FAIL,vel error exceeded
100,s03_vel_pi_disturbance,g000012_c2,12,,,,,,0.0313208610959058,0.06836756129671369,1.2,,,,,,,3.257,4.4494,1.1826,0.0,0.2457,0.005195,0.0,0.0,6.002,,,,,,201.253868,FAIL,vel error exceeded
101,s03_vel_pi_disturbance,g000012_c3,12,,,,,,0.020373851826942905,0.03914506912629017,0.2965301244110545,,,,,,,2.3073,3.0778,5.5229,0.0,0.2913,0.005154,0.0,0.0,12.0,,,,,,1.474968,PASS,
102,s03_vel_pi_disturbance,g000012_c4,12,,,,,,0.1569039523148903,0.10594368531147169,1.2,,,,,,,2.8779,3.4995,0.4914,0.0,0.1026,0.005182,0.0,0.0,6.002,,,,,,200.53898,FAIL,vel error exceeded
103,s03_vel_pi_disturbance,g000012_c5,12,,,,,,2.288797893870709,0.006828959169143533,0.4430826521694115,,,,,,,3.0293,6.611,0.0202,0.0,0.0,0.003849,0.0,12.0,0.102,,,,,,201.89705,FAIL,vel error exceeded
104,s03_vel_pi_disturbance,g000012_c6,12,,,,,,0.21469131539963324,0.12016482327553575,1.0969645754859272,,,,,,,2.8191,3.3129,0.3898,0.0,0.0785,0.00518,0.0,0.0,6.002,,,,,,200.419875,FAIL,vel error exceeded
105,s03_vel_pi_disturbance,g000012_c7,12,,,,,,0.1137672359095387,0.07003649744131793,1.2,,,,,,,2.9207,3.5603,0.75,0.0,0.1536,0.005182,0.0,0.0,6.002,,,,,,200.791215,FAIL,vel error exceeded
106,s03_vel_pi_disturbance,g000013_c0,13,,,,,,0.02232230139524525,0.06808677226583676,0.1872541206710614,,,,,,,3.246,4.4215,1.2522,0.0,0.2613,0.005192,0.0,0.0,6.002,,,,,,201.332108,FAIL,vel error exceeded
107,s03_vel_pi_disturbance,g000013_c1,13,,,,,,0.0678149838163318,0.04079481035280221,1.2,,,,,,,2.4142,3.5614,4.5161,0.0,0.2194,0.005157,0.0,0.0,12.0,,,,,,1.131785,PASS,
108,s03_vel_pi_disturbance,g000013_c2,13,,,,,,0.08161307319878466,0.020788897689365995,0.23319827403538151,,,,,,,2.2328,3.0174,5.6097,0.0,0.264,0.005147,0.0,0.0,12.0,,,,,,1.35737,PASS,
109,s03_vel_pi_disturbance,g000013_c3,13,,,,,,0.39947963198855135,0.024579095507688924,1.2,,,,,,,2.6346,2.7835,0.5632,0.0,0.0978,0.005169,0.0,0.0,6.012,,,,,,200.5226,FAIL,vel error exceeded
110,s03_vel_pi_disturbance,g000013_c4,13,,,,,,0.3466431774755047,0.10941281020424193,1.2,,,,,,,2.7466,3.0016,0.3696,0.0,0.0643,0.005177,0.0,0.0,6.006,,,,,,200.352075,FAIL,vel error exceeded
111,s03_vel_pi_disturbance,g000013_c5,13,,,,,,0.04828815347214113,0.015575527561611548,1.2,,,,,,,1.837,2.5881,1.6497,0.0,0.433,0.005078,0.0,0.0,4.56,,,,,,202.181723,FAIL,vel error exceeded
112,s03_vel_pi_disturbance,g000013_c6,13,,,,,,0.18182081242493295,0.028010791045670436,1.1665385002116626,,,,,,,2.6325,2.9681,0.9662,0.0,0.1746,0.005165,0.0,0.0,6.02,,,,,,200.90917,FAIL,vel error exceeded
113,s03_vel_pi_disturbance,g000013_c7,13,,,,,,0.07379319308317925,0.06842762032119845,0.9839491085053245,,,,,,,3.0732,3.9168,0.9246,0.0,0.1904,0.005189,0.0,0.0,6.002,,,,,,200.975542,FAIL,vel error exceeded
114,s03_vel_pi_disturbance,g000014_c0,14,,,,,,0.3322665095397199,0.0906537109287037,1.0002649555528949,,,,,,,2.7362,2.9783,0.4212,0.0,0.0736,0.005176,0.0,0.0,6.008,,,,,,200.398635,FAIL,vel error exceeded
115,s03_vel_pi_disturbance,g000014_c1,14,,,,,,0.00814572093388887,0.056673789539475494,1.0856518402204474,,,,,,,2.3543,3.7117,4.701,0.0,0.2993,0.005144,0.0,0.0,12.0,,,,,,1.52024,PASS,
116,s03_vel_pi_disturbance,g000014_c2,14,,,,,,0.14159383526128497,0.33705324878401594,1.1384208626953745,,,,,,,2.8956,4.3784,0.3554,0.0,0.0646,0.005179,0.0,0.0,6.006,,,,,,200.365995,FAIL,vel error exceeded
117,s03_vel_pi_disturbance,g000014_c3,14,,,,,,0.045128957622698404,0.008286015434977681,0.7679982634499865,,,,,,,1.1428,1.9066,0.8532,0.0,0.3966,0.004995,0.0,0.0,2.856,,,,,,202.000355,FAIL,vel error exceeded
118,s03_vel_pi_disturbance,g000014_c4,14,,,,,,0.20023028817827523,0.02738781146600985,0.6883168856010571,,,,,,,2.6279,2.9323,0.9128,0.0,0.1641,0.005165,0.0,0.0,6.02,,,,,,200.857102,FAIL,vel error exceeded
119,s03_vel_pi_disturbance,g000014_c5,14,,,,,,0.16441190142423617,0.04772607414033526,1.2,,,,,,,2.7433,3.1501,0.8329,0.0,0.1531,0.005172,0.0,0.0,6.01,,,,,,200.791243,FAIL,vel error exceeded
120,s03_vel_pi_disturbance,g000014_c6,14,,,,,,0.021957049939924915,0.07182861436910587,0.6605523768299545,,,,,,,3.3408,4.5743,1.2277,0.0,0.2546,0.005199,0.0,0.0,6.002,,,,,,201.299605,FAIL,vel error exceeded
121,s03_vel_pi_disturbance,g000014_c7,14,,,,,,0.042266384733394516,0.04098351951914255,1.2,,,,,,,2.3577,3.4558,4.8815,0.0,0.2479,0.005155,0.0,0.0,12.0,,,,,,1.265702,PASS,
122,s03_vel_pi_disturbance,g000015_c0,15,,,,,,0.030930890027959138,0.01767953449728439,1.2,,,,,,,1.0237,1.8463,0.7797,0.0,0.3982,0.004978,0.0,0.0,2.656,,,,,,202.00919,FAIL,vel error exceeded
123,s03_vel_pi_disturbance,g000015_c1,15,,,,,,0.021348944123415616,0.019073516446287138,0.6551505593290936,,,,,,,0.8057,1.5126,0.6789,0.0,0.395,0.004954,0.0,0.0,2.406,,,,,,201.991945,FAIL,vel error exceeded
124,s03_vel_pi_disturbance,g000015_c2,15,,,,,,0.0649995204160331,0.030145502542553458,1.0751257557250646,,,,,,,2.2922,3.2306,5.2104,0.0,0.2459,0.005151,0.0,0.0,12.0,,,,,,1.26165,PASS,
125,s03_vel_pi_disturbance,g000015_c3,15,,,,,,0.08365231268060183,0.014550321650446245,0.313792433681069,,,,,,,2.1734,2.8468,6.0707,0.0,0.2969,0.005143,0.0,0.0,12.0,,,,,,1.522038,PASS,
126,s03_vel_pi_disturbance,g000015_c4,15,,,,,,0.129484565412931,0.01496754152826407,0.9535594653764857,,,,,,,2.3163,2.9476,5.2004,0.0,0.2246,0.00515,0.0,0.0,12.0,,,,,,1.17907,PASS,
127,s03_vel_pi_disturbance,g000015_c5,15,,,,,,0.10498147647947331,0.03130961425190105,0.7334200040271838,,,,,,,2.4006,3.264,4.5867,0.0,0.1981,0.005156,0.0,0.0,12.0,,,,,,1.037855,PASS,
128,s03_vel_pi_disturbance,g000015_c6,15,,,,,,0.06659291889880745,0.018162884717521647,0.5924753122496421,,,,,,,2.1462,2.8409,6.2346,0.0,0.3129,0.005141,0.0,0.0,12.0,,,,,,1.595898,PASS,
129,s03_vel_pi_disturbance,g000015_c7,15,,,,,,0.22331618671798764,0.1508755473829861,1.08674761688077,,,,,,,2.8207,3.3778,0.3191,0.0,0.0662,0.005181,0.0,0.0,6.002,,,,,,200.359778,FAIL,vel error exceeded
130,s03_vel_pi_disturbance,g000016_c0,16,,,,,,0.06117214114068544,0.010602958148205216,0.5490395295072801,,,,,,,2.0267,2.6474,7.2205,0.0,0.3932,0.005133,0.0,0.0,12.0,,,,,,1.994762,PASS,
131,s03_vel_pi_disturbance,g000016_c1,16,,,,,,0.1425686320426117,0.10501630066144985,1.1715439981122744,,,,,,,2.9028,3.5748,0.5245,0.0,0.1093,0.005184,0.0,0.0,6.002,,,,,,200.57243,FAIL,vel error exceeded
132,s03_vel_pi_disturbance,g000016_c2,16,,,,,,0.14280474521272424,0.017069009655888888,0.334435041548383,,,,,,,2.3616,2.958,4.9351,0.0,0.2045,0.005152,0.0,0.0,12.0,,,,,,1.08437,PASS,
133,s03_vel_pi_disturbance,g000016_c3,16,,,,,,0.03433034152124935,0.04359220634960211,0.587063729610479,,,,,,,2.3589,3.4817,4.8713,0.0,0.2554,0.005154,0.0,0.0,12.0,,,,,,1.30135,PASS,
134,s03_vel_pi_disturbance,g000016_c4,16,,,,,,0.037574221888214715,0.02460502567758552,0.4549813941547522,,,,,,,2.1017,2.7386,6.6737,0.0,0.3532,0.005139,0.0,0.0,12.0,,,,,,1.78755,PASS,
135,s03_vel_pi_disturbance,g000016_c5,16,,,,,,0.14959393512871225,0.04428914384802645,0.7394294856767796,,,,,,,2.7417,3.1826,0.9074,0.0,0.1673,0.005171,0.0,0.0,6.01,,,,,,200.861752,FAIL,vel error exceeded
136,s03_vel_pi_disturbance,g000016_c6,16,,,,,,0.0636667645174374,0.04742511354046034,1.1948016217665156,,,,,,,2.8313,3.7475,1.2983,0.0,0.2498,0.00517,0.0,0.0,6.012,,,,,,201.274477,FAIL,vel error exceeded
137,s03_vel_pi_disturbance,g000016_c7,16,,,,,,0.08299076425450697,0.02056214931763796,1.2,,,,,,,2.2347,3.0192,5.5987,0.0,0.2628,0.005147,0.0,0.0,12.0,,,,,,1.351873,PASS,
138,s03_vel_pi_disturbance,g000017_c0,17,,,,,,0.09489308027917678,0.02600517937296191,1.0148201345742947,,,,,,,2.3261,3.1825,5.0066,0.0,0.2222,0.005152,0.0,0.0,12.0,,,,,,1.153918,PASS,
139,s03_vel_pi_disturbance,g000017_c1,17,,,,,,0.11129981434415318,0.028421401987362566,1.2,,,,,,,2.3865,3.1939,4.6718,0.0,0.1991,0.005155,0.0,0.0,12.0,,,,,,1.045165,PASS,
140,s03_vel_pi_disturbance,g000017_c2,17,,,,,,0.07861675874183567,0.030479766810297647,0.7638128194860546,,,,,,,2.3334,3.2877,4.9548,0.0,0.2264,0.005153,0.0,0.0,12.0,,,,,,1.169225,PASS,
141,s03_vel_pi_disturbance,g000017_c3,17,,,,,,0.07011371252259756,0.030516505055277317,1.1975205748518836,,,,,,,2.3114,3.2648,5.0902,0.0,0.2372,0.005152,0.0,0.0,12.0,,,,,,1.220145,PASS,
142,s03_vel_pi_disturbance,g000017_c4,17,,,,,,0.10252541501417978,0.02967771425752902,0.6678861777881496,,,,,,,2.3803,3.2437,4.6968,0.0,0.2038,0.005155,0.0,0.0,12.0,,,,,,1.065338,PASS,
143,s03_vel_pi_disturbance,g000017_c5,17,,,,,,0.10329210559063746,0.07206488743627944,0.9247918577717985,,,,,,,2.9599,3.6498,0.7699,0.0,0.1589,0.005185,0.0,0.0,6.002,,,,,,200.81794,FAIL,vel error exceeded
144,s03_vel_pi_disturbance,g000017_c6,17,,,,,,0.10389004021560347,0.03720156194333977,1.2,,,,,,,2.4506,3.3442,4.3228,0.0,0.1907,0.005159,0.0,0.0,12.0,,,,,,1.001138,PASS,
145,s03_vel_pi_disturbance,g000017_c7,17,,,,,,0.06558015550758504,0.014041026581621392,0.48925416450994563,,,,,,,2.0915,2.7132,6.6789,0.0,0.3479,0.005137,0.0,0.0,12.0,,,,,,1.770195,PASS,
146,s03_vel_pi_disturbance,g000018_c0,18,,,,,,0.08094000544341506,0.04037217345622784,1.2,,,,,,,2.4371,3.5267,4.3917,0.0,0.2072,0.005158,0.0,0.0,12.0,,,,,,1.075465,PASS,
147,s03_vel_pi_disturbance,g000018_c1,18,,,,,,0.06558233614502174,0.034528309550956406,1.2,,,,,,,2.347,3.3723,4.8931,0.0,0.2309,0.005154,0.0,0.0,12.0,,,,,,1.1876,PASS,
148,s03_vel_pi_disturbance,g000018_c2,18,,,,,,0.07583818034845516,0.05852416894578305,1.2,,,,,,,3.0078,3.8033,1.0022,0.0,0.2043,0.005184,0.0,0.0,6.002,,,,,,201.043682,FAIL,vel error exceeded
149,s03_vel_pi_disturbance,g000018_c3,18,,,,,,0.10363128447674508,0.03889778403770966,0.9241093617492251,,,,,,,2.4635,3.3666,4.2564,0.0,0.1897,0.005159,0.0,0.0,12.0,,,,,,0.996198,PASS,
150,s03_vel_pi_disturbance,g000018_c4,18,,,,,,0.07906948547719905,0.046074116532786716,1.1676373222368803,,,,,,,2.8236,3.6368,1.1994,0.0,0.2301,0.005171,0.0,0.0,6.01,,,,,,201.17502,FAIL,vel error exceeded
151,s03_vel_pi_disturbance,g000018_c5,18,,,,,,0.10398515254221015,0.03485548006831244,1.2,,,,,,,2.4309,3.3172,4.4241,0.0,0.1931,0.005158,0.0,0.0,12.0,,,,,,1.012902,PASS,
152,s03_vel_pi_disturbance,g000018_c6,18,,,,,,0.030604111979805126,0.07141693960492172,1.2,,,,,,,3.3243,4.5523,1.1753,0.0,0.2421,0.0052,0.0,0.0,6.002,,,,,,201.236697,FAIL,vel error exceeded
153,s03_vel_pi_disturbance,g000018_c7,18,,,,,,0.055339257858269104,0.06561240784601925,1.2,,,,,,,3.1644,4.1429,1.0548,0.0,0.2168,0.005193,0.0,0.0,6.002,,,,,,201.107833,FAIL,vel error exceeded
154,s03_vel_pi_disturbance,g000019_c0,19,,,,,,0.25974870322055754,0.0736293697403885,1.2,,,,,,,2.7434,3.038,0.5292,0.0,0.0944,0.005175,0.0,0.0,6.008,,,,,,200.500088,FAIL,vel error exceeded
155,s03_vel_pi_disturbance,g000019_c1,19,,,,,,0.20079689916461893,0.046363587557957206,0.1960306933104708,,,,,,,2.7105,3.0416,0.7598,0.0,0.1367,0.005171,0.0,0.0,6.01,,,,,,200.710312,FAIL,vel error exceeded
156,s03_vel_pi_disturbance,g000019_c2,19,,,,,,0.29155442252530966,0.03034617323170972,1.132793596802642,,,,,,,2.6403,2.8486,0.6871,0.0,0.1207,0.005168,0.0,0.0,6.014,,,,,,200.635282,FAIL,vel error exceeded
157,s03_vel_pi_disturbance,g000019_c3,19,,,,,,0.13413701609287254,0.04783725875153939,0.5030039874195568,,,,,,,2.7811,3.2741,0.9181,0.0,0.1719,0.005173,0.0,0.0,6.008,,,,,,200.883117,FAIL,vel error exceeded
158,s03_vel_pi_disturbance,g000019_c4,19,,,,,,0.09341307935899806,0.02729796641214324,1.2,,,,,,,2.3359,3.2141,4.946,0.0,0.2195,0.005153,0.0,0.0,12.0,,,,,,1.140005,PASS,
159,s03_vel_pi_disturbance,g000019_c5,19,,,,,,0.05974738797870315,0.05775080500292016,0.17814617910985744,,,,,,,3.0241,3.992,1.1013,0.0,0.2257,0.005183,0.0,0.0,6.002,,,,,,201.151093,FAIL,vel error exceeded
160,s03_vel_pi_disturbance,g000019_c6,19,,,,,,0.06938647795555332,0.03506747828675525,1.1329799118809702,,,,,,,2.3627,3.3991,4.8024,0.0,0.2252,0.005155,0.0,0.0,12.0,,,,,,1.16045,PASS,
161,s03_vel_pi_disturbance,g000019_c7,19,,,,,,0.1413440942379044,0.02428664162797611,1.2,,,,,,,2.4094,3.0409,4.6022,0.0,0.1858,0.005155,0.0,0.0,12.0,,,,,,0.990768,PASS,
162,s03_vel_pi_disturbance,g000020_c0,20,,,,,,0.0666601565531702,0.011796284274932827,1.2,,,,,,,2.07,2.687,6.8643,0.0,0.3628,0.005136,0.0,0.0,12.0,,,,,,1.84487,PASS,
163,s03_vel_pi_disturbance,g000020_c1,20,,,,,,0.18372708009005356,0.00600214903672457,1.2,,,,,,,2.3814,2.7856,5.0369,0.0,0.2053,0.005152,0.0,0.0,12.0,,,,,,1.10561,PASS,
164,s03_vel_pi_disturbance,g000020_c2,20,,,,,,0.06413162582756948,0.0173469322690056,1.2,,,,,,,2.1252,2.7897,6.3972,0.0,0.3259,0.00514,0.0,0.0,12.0,,,,,,1.659918,PASS,
165,s03_vel_pi_disturbance,g000020_c3,20,,,,,,0.3400242164971226,0.026148605608610865,1.2,,,,,,,2.6323,2.8098,0.632,0.0,0.1101,0.005168,0.0,0.0,6.012,,,,,,200.582247,FAIL,vel error exceeded
166,s03_vel_pi_disturbance,g000020_c4,20,,,,,,0.20162966893115303,0.008593340753878954,0.2910141305950131,,,,,,,2.51,2.7989,1.0892,0.0,0.1972,0.005157,0.0,0.0,6.03,,,,,,201.04014,FAIL,vel error exceeded
167,s03_vel_pi_disturbance,g000020_c5,20,,,,,,0.22872969397261791,0.01635343623720083,1.2,,,,,,,2.5755,2.8315,0.92,0.0,0.1648,0.005162,0.0,0.0,6.022,,,,,,200.864452,FAIL,vel error exceeded
168,s03_vel_pi_disturbance,g000020_c6,20,,,,,,0.12186059246437055,0.028991381566155487,1.2,,,,,,,2.4114,3.1631,4.5446,0.0,0.1895,0.005156,0.0,0.0,12.0,,,,,,1.00155,PASS,
169,s03_vel_pi_disturbance,g000020_c7,20,,,,,,0.22277021249330686,0.02540469568733568,1.2,,,,,,,2.6188,2.8925,0.865,0.0,0.1548,0.005165,0.0,0.0,6.02,,,,,,200.811142,FAIL,vel error exceeded
170,s03_vel_pi_disturbance,g000021_c0,21,,,,,,0.6070182482265385,0.01601028731983235,1.188737648904655,,,,,,,2.6413,2.7575,0.4142,0.0,0.0721,0.005172,0.0,12.0,6.01,,,,,,200.400485,FAIL,vel error exceeded
171,s03_vel_pi_disturbance,g000021_c1,21,,,,,,0.44516454894854307,0.0783995914438199,0.5477853506308109,,,,,,,2.7026,2.8605,0.388,0.0,0.0662,0.005175,0.0,12.0,6.008,,,,,,200.364605,FAIL,vel error exceeded
172,s03_vel_pi_disturbance,g000021_c2,21,,,,,,0.09007131631641857,0.042355288036222516,1.2,,,,,,,2.7722,3.5012,1.1952,0.0,0.2261,0.005169,0.0,0.0,6.012,,,,,,201.156207,FAIL,vel error exceeded
173,s03_vel_pi_disturbance,g000021_c3,21,,,,,,0.038536812626687844,0.034783561143014105,1.2,,,,,,,2.2798,3.165,5.4205,0.0,0.2718,0.005152,0.0,0.0,12.0,,,,,,1.382518,PASS,
174,s03_vel_pi_disturbance,g000021_c4,21,,,,,,0.1605253596168851,0.05680311063305023,0.9058303091248388,,,,,,,2.7834,3.2215,0.7642,0.0,0.1429,0.005175,0.0,0.0,6.008,,,,,,200.739245,FAIL,vel error exceeded
175,s03_vel_pi_disturbance,g000021_c5,21,,,,,,0.1866543466630493,0.08108589310693169,1.2,,,,,,,2.8106,3.2565,0.5637,0.0,0.1086,0.005178,0.0,0.0,6.006,,,,,,200.568527,FAIL,vel error exceeded
176,s03_vel_pi_disturbance,g000021_c6,21,,,,,,0.0659022266138995,0.01332202937837357,1.2,,,,,,,2.0847,2.7045,6.7393,0.0,0.3527,0.005137,0.0,0.0,12.0,,,,,,1.794305,PASS,
177,s03_vel_pi_disturbance,g000021_c7,21,,,,,,0.3157681400579556,0.032567028240946275,0.7932824378694457,,,,,,,2.6467,2.8408,0.6387,0.0,0.1114,0.005169,0.0,0.0,6.012,,,,,,200.588302,FAIL,vel error exceeded
178,s03_vel_pi_disturbance,g000022_c0,22,,,,,,0.200610495068275,0.6961268361325265,0.8139337201161525,,,,,,,2.8728,4.6584,0.238,0.0,0.0419,0.005178,0.0,0.0,6.006,,,,,,200.27052,FAIL,vel error exceeded
179,s03_vel_pi_disturbance,g000022_c1,22,,,,,,1.008780787013602,0.2555861065901092,0.1,,,,,,,2.1567,5.1246,0.0185,0.0,0.0,0.002307,0.0,12.0,0.106,,,,,,201.527007,FAIL,vel error exceeded
180,s03_vel_pi_disturbance,g000022_c2,22,,,,,,1.0828023996025822,0.050398258065489795,1.2,,,,,,,2.075,5.0466,0.0185,0.0,0.0,0.00238,0.0,12.0,0.11,,,,,,201.487365,FAIL,vel error exceeded
181,s03_vel_pi_disturbance,g000022_c3,22,,,,,,0.14595427239484085,0.044879308734456724,0.8249080969086613,,,,,,,2.749,3.1992,0.9127,0.0,0.1688,0.005171,0.0,0.0,6.01,,,,,,200.869255,FAIL,vel error exceeded
182,s03_vel_pi_disturbance,g000022_c4,22,,,,,,0.061372795237478774,0.024229414447339222,1.2,,,,,,,2.2029,3.0038,5.8055,0.0,0.2835,0.005146,0.0,0.0,12.0,,,,,,1.447682,PASS,
183,s03_vel_pi_disturbance,g000022_c5,22,,,,,,0.26553830381109894,0.18749055069627604,0.8479468397567698,,,,,,,2.8022,3.3402,0.2506,0.0,0.0507,0.00518,0.0,0.0,6.002,,,,,,200.284183,FAIL,vel error exceeded
184,s03_vel_pi_disturbance,g000022_c6,22,,,,,,0.047266301646565326,0.02997035690620455,0.8431078742311393,,,,,,,2.2344,3.0738,5.6442,0.0,0.2791,0.005148,0.0,0.0,12.0,,,,,,1.421255,PASS,
185,s03_vel_pi_disturbance,g000022_c7,22,,,,,,0.1273788445296248,0.05448564240952289,0.6554393101524122,,,,,,,2.8265,3.3599,0.8661,0.0,0.166,0.005176,0.0,0.0,6.008,,,,,,200.853965,FAIL,vel error exceeded
186,s03_vel_pi_disturbance,g000023_c0,23,,,,,,0.15264451226894263,0.0018245728820121224,1.2,,,,,,,2.2882,2.7283,5.5913,0.0,0.2503,0.005147,0.0,0.0,12.0,,,,,,1.31677,PASS,
187,s03_vel_pi_disturbance,g000023_c1,23,,,,,,0.08544156585092398,0.05909927541368643,0.8975744432590664,,,,,,,2.9701,3.7065,0.9503,0.0,0.193,0.005183,0.0,0.0,6.002,,,,,,200.987143,FAIL,vel error exceeded
188,s03_vel_pi_disturbance,g000023_c2,23,,,,,,0.5426408317355402,0.13710053526822852,1.2,,,,,,,2.7229,2.885,0.2685,0.0,0.0456,0.005178,0.0,12.0,6.006,,,,,,200.264727,FAIL,vel error exceeded
189,s03_vel_pi_disturbance,g000023_c3,23,,,,,,0.40009559772727765,0.046910228800739535,1.1071094550523173,,,,,,,2.6719,2.8332,0.4932,0.0,0.0849,0.005172,0.0,0.0,6.01,,,,,,200.457247,FAIL,vel error exceeded
190,s03_vel_pi_disturbance,g000023_c4,23,,,,,,0.6188771747605469,0.053643082497649604,1.2,,,,,,,2.6733,2.7826,0.3484,0.0,0.0598,0.005174,0.0,12.0,6.008,,,,,,200.339542,FAIL,vel error exceeded
191,s03_vel_pi_disturbance,g000023_c5,23,,,,,,0.40131059377770933,0.02136301756353965,0.4550888570110591,,,,,,,2.6288,2.7769,0.5721,0.0,0.0994,0.005169,0.0,0.0,6.012,,,,,,200.530385,FAIL,vel error exceeded
192,s03_vel_pi_disturbance,g000023_c6,23,,,,,,0.07725030452615028,0.11770765371646459,1.2,,,,,,,3.1052,4.2149,0.7604,0.0,0.1486,0.005193,0.0,0.0,6.002,,,,,,200.772805,FAIL,vel error exceeded
193,s03_vel_pi_disturbance,g000023_c7,23,,,,,,0.006554558818604423,0.0126126488302279,1.0416481519817582,,,,,,,0.3934,0.7652,0.545,0.0,0.3909,0.004911,0.0,0.0,2.066,,,,,,201.966127,FAIL,vel error exceeded
194,s03_vel_pi_disturbance,g000024_c0,24,,,,,,0.5856475060465842,0.005167610477598688,1.2,,,,,,,2.6275,2.7401,0.4485,0.0,0.0782,0.00517,0.0,12.0,6.01,,,,,,200.429348,FAIL,vel error exceeded
195,s03_vel_pi_disturbance,g000024_c1,24,,,,,,0.006563288636283674,0.007676558421082142,1.2,,,,,,,0.3305,0.6225,0.5299,0.0,0.39,0.004905,0.0,0.0,2.028,,,,,,201.95986,FAIL,vel error exceeded
196,s03_vel_pi_disturbance,g000024_c2,24,,,,,,0.19064198565266258,0.001,0.7350344510204704,,,,,,,2.3713,2.7292,5.1776,0.0,0.2151,0.00515,0.0,0.0,12.0,,,,,,1.15758,PASS,
197,s03_vel_pi_disturbance,g000024_c3,24,,,,,,0.012820144117830667,0.11175629181694638,1.1880130428753992,,,,,,,3.6894,5.3874,1.3084,0.0,0.258,0.005225,0.0,0.0,6.002,,,,,,201.330158,FAIL,vel error exceeded
198,s03_vel_pi_disturbance,g000024_c4,24,,,,,,0.012429777522674474,0.2367936700394251,0.22747632692108657,,,,,,,3.571,7.0138,3.8348,0.0,0.2357,0.00517,0.0,0.0,12.0,,,,,,1.25602,PASS,
199,s03_vel_pi_disturbance,g000024_c5,24,,,,,,0.01284784769867337,0.015137483012194515,0.7173337367218037,,,,,,,0.5478,1.0471,0.5888,0.0,0.3917,0.004926,0.0,0.0,2.18,,,,,,201.9723,FAIL,vel error exceeded
200,s03_vel_pi_disturbance,g000024_c6,24,,,,,,0.16160335354113192,0.1256430940317176,1.2,,,,,,,2.8759,3.561,0.4399,0.0,0.0916,0.005182,0.0,0.0,6.002,,,,,,200.48517,FAIL,vel error exceeded
201,s03_vel_pi_disturbance,g000024_c7,24,,,,,,0.04917343746670165,0.07225258942724308,0.1,,,,,,,3.251,4.2995,1.0561,0.0,0.2153,0.005198,0.0,0.0,6.002,,,,,,201.101775,FAIL,vel error exceeded
202,s03_vel_pi_disturbance,g000025_c0,25,,,,,,0.12125978994654503,0.40434089829082376,1.2,,,,,,,3.0304,4.7436,0.4067,0.0,0.0728,0.005184,0.0,0.0,6.002,,,,,,200.416915,FAIL,vel error exceeded
203,s03_vel_pi_disturbance,g000025_c1,25,,,,,,0.008063833347055651,0.007851815045412304,0.1,,,,,,,0.3608,0.6737,0.54,0.0,0.3906,0.004908,0.0,0.0,2.054,,,,,,201.96386,FAIL,vel error exceeded
204,s03_vel_pi_disturbance,g000025_c2,25,,,,,,0.0011683638350284962,0.7622679462868371,0.7490796020399003,,,,,,,4.521,7.3502,0.5946,0.0,0.2354,0.005063,0.0,0.0,3.468,,,,,,201.375663,FAIL,vel error exceeded
205,s03_vel_pi_disturbance,g000025_c3,25,,,,,,1.5044660650564163,0.001,1.2,,,,,,,2.9827,6.5777,0.0201,0.0,0.0,0.003864,0.0,12.0,0.104,,,,,,201.871062,FAIL,vel error exceeded
206,s03_vel_pi_disturbance,g000025_c4,25,,,,,,0.010551539195365684,0.035511619795514114,0.1,,,,,,,0.9293,1.8755,0.7233,0.0,0.4028,0.004962,0.0,0.0,2.488,,,,,,202.035168,FAIL,vel error exceeded
207,s03_vel_pi_disturbance,g000025_c5,25,,,,,,9.915252804039087,2.580361188451671,1.2,,,,,,,3.0831,6.6502,0.0204,0.0,0.0,0.003832,0.0,12.0,0.1,,,,,,201.922718,FAIL,vel error exceeded
208,s03_vel_pi_disturbance,g000025_c6,25,,,,,,10.0,0.027781115388819545,0.1,,,,,,,2.9694,6.4087,0.0197,0.0,0.0,0.003792,0.0,12.0,0.098,,,,,,201.892857,FAIL,vel error exceeded
209,s03_vel_pi_disturbance,g000025_c7,25,,,,,,0.0062632503826913506,0.05974427163890403,1.2,,,,,,,2.3819,3.8367,4.6229,0.0,0.3147,0.005141,0.0,0.0,12.0,,,,,,1.599627,PASS,
210,s03_vel_pi_disturbance,g000026_c0,26,,,,,,3.8572286522062718,0.0016706720490483992,0.1,,,,,,,2.9489,6.4234,0.0197,0.0,0.0,0.003813,0.0,12.0,0.1,,,,,,201.877,FAIL,vel error exceeded
211,s03_vel_pi_disturbance,g000026_c1,26,,,,,,1.5056313407186563,0.02658391998756222,0.2084642514583031,,,,,,,2.9484,6.5204,0.0199,0.0,0.0,0.003859,0.0,12.0,0.104,,,,,,201.859525,FAIL,vel error exceeded
212,s03_vel_pi_disturbance,g000026_c2,26,,,,,,0.023030223475836754,1.136300069796781,1.0881933490439573,,,,,,,5.0092,7.6639,0.4412,0.0,0.2368,0.005034,0.0,0.0,2.774,,,,,,201.457343,FAIL,vel error exceeded
213,s03_vel_pi_disturbance,g000026_c3,26,,,,,,0.8671514015353,0.0011675658426566504,0.5511941246173164,,,,,,,2.2096,5.1808,0.0186,0.0,0.0,0.00227,0.0,12.0,0.104,,,,,,201.549005,FAIL,vel error exceeded
214,s03_vel_pi_disturbance,g000026_c4,26,,,,,,0.45036026533413426,0.002537900821852624,1.2,,,,,,,2.6005,2.7324,0.5776,0.0,0.1024,0.005168,0.0,12.0,6.018,,,,,,200.55164,FAIL,vel error exceeded
215,s03_vel_pi_disturbance,g000026_c5,26,,,,,,0.19627804686492992,0.055822848544923045,0.48956099070866355,,,,,,,2.7443,3.0997,0.703,0.0,0.1278,0.005174,0.0,0.0,6.008,,,,,,200.664715,FAIL,vel error exceeded
216,s03_vel_pi_disturbance,g000026_c6,26,,,,,,0.11200885256533777,0.0015565297552985401,1.2,,,,,,,2.1647,2.7042,6.3492,0.0,0.3155,0.00514,0.0,0.0,12.0,,,,,,1.625558,PASS,
217,s03_vel_pi_disturbance,g000026_c7,26,,,,,,0.5869568167269101,0.00420042890507956,1.2,,,,,,,2.6264,2.7378,0.4495,0.0,0.0784,0.00517,0.0,12.0,6.01,,,,,,200.43047,FAIL,vel error exceeded
218,s03_vel_pi_disturbance,g000027_c0,27,,,,,,2.3829440568032987,0.04234188897292917,0.18568677529850786,,,,,,,3.0329,6.6177,0.0203,0.0,0.0,0.00385,0.0,12.0,0.102,,,,,,201.898407,FAIL,vel error exceeded
219,s03_vel_pi_disturbance,g000027_c1,27,,,,,,0.12579024846874148,0.014380082271005963,1.2,,,,,,,2.3025,2.9363,5.2834,0.0,0.2311,0.005149,0.0,0.0,12.0,,,,,,1.209968,PASS,
220,s03_vel_pi_disturbance,g000027_c2,27,,,,,,0.07670777502497621,0.004319815544265036,1.2,,,,,,,2.0396,2.6529,7.1931,0.0,0.3897,0.005133,0.0,0.0,12.0,,,,,,1.98276,PASS,
221,s03_vel_pi_disturbance,g000027_c3,27,,,,,,0.40347463090114505,0.38856006812561,0.5160733645945879,,,,,,,2.7702,3.3032,0.1203,0.0,0.0206,0.00518,0.0,12.0,6.002,,,,,,200.140668,FAIL,vel error exceeded
222,s03_vel_pi_disturbance,g000027_c4,27,,,,,,0.022314631778776274,0.031962993621019085,1.2,,,,,,,2.165,2.7838,6.445,0.0,0.3429,0.005144,0.0,0.0,12.0,,,,,,1.731988,PASS,
223,s03_vel_pi_disturbance,g000027_c5,27,,,,,,0.0037140965835204373,0.11546247442097989,1.2,,,,,,,3.8216,5.6789,1.4174,0.0,0.2816,0.005232,0.0,0.0,6.002,,,,,,201.452137,FAIL,vel error exceeded
224,s03_vel_pi_disturbance,g000027_c6,27,,,,,,0.01346167399399886,0.003925639510558063,1.2,,,,,,,0.4027,0.7247,0.5526,0.0,0.39,0.004913,0.0,0.0,2.09,,,,,,201.960802,FAIL,vel error exceeded
225,s03_vel_pi_disturbance,g000027_c7,27,,,,,,0.40969612641899167,0.08773191658921023,1.2,,,,,,,2.7156,2.9024,0.3869,0.0,0.0663,0.005176,0.0,12.0,6.008,,,,,,200.364272,FAIL,vel error exceeded
226,s03_vel_pi_disturbance,g000028_c0,28,,,,,,0.7542886015025597,0.016317452925979966,1.2,,,,,,,2.9534,4.6898,0.0557,0.0,0.0,0.004384,0.0,12.0,0.332,,,,,,201.399065,FAIL,vel error exceeded
227,s03_vel_pi_disturbance,g000028_c1,28,,,,,,0.13051022626028438,0.005230256183498445,0.6035410755715974,,,,,,,2.2497,2.7661,5.7454,0.0,0.2648,0.005145,0.0,0.0,12.0,,,,,,1.380038,PASS,
228,s03_vel_pi_disturbance,g000028_c2,28,,,,,,0.02451867619926361,0.02279822134070281,1.2,,,,,,,0.9886,1.8451,0.7601,0.0,0.3997,0.004973,0.0,0.0,2.598,,,,,,202.017378,FAIL,vel error exceeded
229,s03_vel_pi_disturbance,g000028_c3,28,,,,,,0.37956519250429055,0.05257212261622087,0.5083072043145375,,,,,,,2.6814,2.853,0.4941,0.0,0.0852,0.005173,0.0,0.0,6.01,,,,,,200.45828,FAIL,vel error exceeded
230,s03_vel_pi_disturbance,g000028_c4,28,,,,,,0.051300626648885954,0.02301435015254899,0.1,,,,,,,2.1446,2.855,6.2606,0.0,0.3187,0.005142,0.0,0.0,12.0,,,,,,1.619747,PASS,
231,s03_vel_pi_disturbance,g000028_c5,28,,,,,,0.003512383635565694,0.0011296814291996454,1.2,,,,,,,0.209,0.3737,0.5025,0.0,0.3895,0.004893,0.0,0.0,1.956,,,,,,201.955827,FAIL,vel error exceeded
232,s03_vel_pi_disturbance,g000028_c6,28,,,,,,3.8810825683471304,0.005558618215047612,0.6634419079060708,,,,,,,3.0629,6.6682,0.0204,0.0,0.0,0.003853,0.0,12.0,0.102,,,,,,201.908208,FAIL,vel error exceeded
233,s03_vel_pi_disturbance,g000028_c7,28,,,,,,0.2185064258170916,0.0010008081915404477,1.2,,,,,,,2.4727,2.7319,1.0975,0.0,0.199,0.005155,0.0,0.0,6.032,,,,,,201.05366,FAIL,vel error exceeded
234,s03_vel_pi_disturbance,g000029_c0,29,,,,,,0.20920556057476114,0.003772962115415051,1.2,,,,,,,2.4822,2.7568,1.1083,0.0,0.201,0.005156,0.0,0.0,6.032,,,,,,201.063305,FAIL,vel error exceeded
235,s03_vel_pi_disturbance,g000029_c1,29,,,,,,0.05396810138969122,0.028902224959167645,1.2,,,,,,,2.2414,3.1047,5.5642,0.0,0.2711,0.005149,0.0,0.0,12.0,,,,,,1.383525,PASS,
236,s03_vel_pi_disturbance,g000029_c2,29,,,,,,0.04921774715100174,0.09222484158869904,0.987144901847621,,,,,,,3.3013,4.4591,0.9901,0.0,0.1967,0.005204,0.0,0.0,6.002,,,,,,201.012445,FAIL,vel error exceeded
237,s03_vel_pi_disturbance,g000029_c3,29,,,,,,0.6479752340883196,0.4379257909732505,1.2,,,,,,,2.7423,2.996,0.106,0.0,0.0179,0.00518,0.0,12.0,6.002,,,,,,200.141742,FAIL,vel error exceeded
238,s03_vel_pi_disturbance,g000029_c4,29,,,,,,0.4632119705901405,0.0041418965090450075,1.2,,,,,,,2.6064,2.7362,0.5583,0.0,0.0985,0.005168,0.0,12.0,6.016,,,,,,200.530207,FAIL,vel error exceeded
239,s03_vel_pi_disturbance,g000029_c5,29,,,,,,0.22789286745953705,0.011658953549991129,0.2533584813085036,,,,,,,2.5496,2.803,0.9628,0.0,0.1728,0.00516,0.0,0.0,6.024,,,,,,200.907758,FAIL,vel error exceeded
240,s03_vel_pi_disturbance,g000029_c6,29,,,,,,0.07986980980506643,0.003882545108177242,1.2,,,,,,,2.0508,2.6586,7.1122,0.0,0.3826,0.005134,0.0,0.0,12.0,,,,,,1.948492,PASS,
241,s03_vel_pi_disturbance,g000029_c7,29,,,,,,0.00671349218633259,0.009739305981416311,1.2,,,,,,,0.3621,0.692,0.5398,0.0,0.3909,0.004908,0.0,0.0,2.052,,,,,,201.964845,FAIL,vel error exceeded
242,s03_vel_pi_disturbance,g000030_c0,30,,,,,,0.027533864139040676,0.0182630113227201,0.4832439518601525,,,,,,,0.9506,1.7371,0.7471,0.0,0.398,0.00497,0.0,0.0,2.572,,,,,,202.00776,FAIL,vel error exceeded
243,s03_vel_pi_disturbance,g000030_c1,30,,,,,,0.05047479930882138,0.00468537368339426,0.7457176172213126,,,,,,,1.1809,1.9083,0.8841,0.0,0.3965,0.005001,0.0,0.0,2.938,,,,,,201.99954,FAIL,vel error exceeded
244,s03_vel_pi_disturbance,g000030_c2,30,,,,,,0.015611808085647334,0.0197501514569305,1.2,,,,,,,0.688,1.325,0.6364,0.0,0.3945,0.004941,0.0,0.0,2.296,,,,,,201.988565,FAIL,vel error exceeded
245,s03_vel_pi_disturbance,g000030_c3,30,,,,,,1.4689149297161144,0.10888798818684922,0.3553988886566045,,,,,,,3.0054,6.6654,0.0203,0.0,0.0,0.003889,0.0,12.0,0.106,,,,,,201.870238,FAIL,vel error exceeded
246,s03_vel_pi_disturbance,g000030_c4,30,,,,,,0.8018961990524204,0.009572472008662998,1.2,,,,,,,4.0794,6.3136,0.0394,0.0,0.0,0.004584,0.0,12.0,0.228,,,,,,201.461415,FAIL,vel error exceeded
247,s03_vel_pi_disturbance,g000030_c5,30,,,,,,0.02562630153787976,0.002428793841861161,1.2,,,,,,,0.5981,1.0353,0.6127,0.0,0.3899,0.004935,0.0,0.0,2.252,,,,,,201.962112,FAIL,vel error exceeded
248,s03_vel_pi_disturbance,g000030_c6,30,,,,,,0.06468761412415111,0.04491230996393014,1.0651779147428262,,,,,,,2.4365,3.6788,4.3665,0.0,0.2218,0.005156,0.0,0.0,12.0,,,,,,1.143575,PASS,
249,s03_vel_pi_disturbance,g000030_c7,30,,,,,,0.022466774933259062,0.023771682203639947,0.1,,,,,,,0.9551,1.7991,0.7423,0.0,0.3992,0.004969,0.0,0.0,2.554,,,,,,202.014717,FAIL,vel error exceeded
250,s03_vel_pi_disturbance,g000031_c0,31,,,,,,0.04924473947707267,0.025420640524340062,0.2898140963133762,,,,,,,2.1717,2.9212,6.0645,0.0,0.3055,0.005144,0.0,0.0,12.0,,,,,,1.5533,PASS,
251,s03_vel_pi_disturbance,g000031_c1,31,,,,,,0.12987724134128928,0.10420040806950051,0.5104363300891301,,,,,,,2.9295,3.6516,0.5607,0.0,0.1161,0.005185,0.0,0.0,6.002,,,,,,200.606425,FAIL,vel error exceeded
252,s03_vel_pi_disturbance,g000031_c2,31,,,,,,0.2357930999387963,0.00353850617624862,0.29163624253168535,,,,,,,2.507,2.749,1.007,0.0,0.1816,0.005158,0.0,0.0,6.028,,,,,,200.958593,FAIL,vel error exceeded
253,s03_vel_pi_disturbance,g000031_c3,31,,,,,,0.22701832685921974,0.1271371785934266,0.30048250503326435,,,,,,,2.8129,3.2932,0.3668,0.0,0.0732,0.00518,0.0,0.0,6.002,,,,,,200.393822,FAIL,vel error exceeded
254,s03_vel_pi_disturbance,g000031_c4,31,,,,,,0.020485556324911,0.002708697407440542,1.2,,,,,,,0.5083,0.8873,0.5821,0.0,0.3892,0.004925,0.0,0.0,2.172,,,,,,201.95763,FAIL,vel error exceeded
255,s03_vel_pi_disturbance,g000031_c5,31,,,,,,0.6358535471366373,0.01793343272197146,0.16814598325383387,,,,,,,2.6451,2.7651,0.3945,0.0,0.0688,0.005172,0.0,12.0,6.01,,,,,,200.38788,FAIL,vel error exceeded
256,s03_vel_pi_disturbance,g000031_c6,31,,,,,,0.4273546094363545,0.01132398598062649,1.2,,,,,,,2.6128,2.7513,0.5757,0.0,0.1013,0.005168,0.0,0.0,6.016,,,,,,200.543245,FAIL,vel error exceeded
257,s03_vel_pi_disturbance,g000031_c7,31,,,,,,0.49262634930901295,0.022329953276781257,1.2,,,,,,,2.6395,2.7628,0.4808,0.0,0.0831,0.005171,0.0,12.0,6.01,,,,,,200.450668,FAIL,vel error exceeded
258,s03_vel_pi_disturbance,g000032_c0,32,,,,,,0.18170577107570143,0.014980138906995033,1.2,,,,,,,2.5412,2.871,1.1044,0.0,0.1999,0.005158,0.0,0.0,6.026,,,,,,201.045942,FAIL,vel error exceeded
259,s03_vel_pi_disturbance,g000032_c1,32,,,,,,0.4374007406486308,0.025404936992095194,1.2,,,,,,,2.6396,2.7764,0.5214,0.0,0.09,0.00517,0.0,12.0,6.01,,,,,,200.483553,FAIL,vel error exceeded
260,s03_vel_pi_disturbance,g000032_c2,32,,,,,,0.06668413578140024,0.030863084761980252,1.2,,,,,,,2.3058,3.262,5.1255,0.0,0.2407,0.005152,0.0,0.0,12.0,,,,,,1.236393,PASS,
261,s03_vel_pi_disturbance,g000032_c3,32,,,,,,0.26841153664731027,0.010342011636056888,1.2,,,,,,,2.5636,2.7789,0.8553,0.0,0.1526,0.005162,0.0,0.0,6.022,,,,,,200.804117,FAIL,vel error exceeded
262,s03_vel_pi_disturbance,g000032_c4,32,,,,,,0.15910122938951582,0.0659602630884422,1.2,,,,,,,2.8144,3.2848,0.6946,0.0,0.1329,0.005177,0.0,0.0,6.006,,,,,,200.688582,FAIL,vel error exceeded
263,s03_vel_pi_disturbance,g000032_c5,32,,,,,,0.06556252566654747,0.03393239281537356,0.6523967587839272,,,,,,,2.3399,3.353,4.9323,0.0,0.2325,0.005154,0.0,0.0,12.0,,,,,,1.195398,PASS,
264,s03_vel_pi_disturbance,g000032_c6,32,,,,,,0.06537059655431231,0.021598299828531283,1.2,,,,,,,2.184,2.9424,5.9424,0.0,0.2917,0.005144,0.0,0.0,12.0,,,,,,1.489878,PASS,
265,s03_vel_pi_disturbance,g000032_c7,32,,,,,,0.07334245686949536,0.04125758794266951,1.2,,,,,,,2.4291,3.5655,4.4315,0.0,0.2138,0.005157,0.0,0.0,12.0,,,,,,1.105835,PASS,
266,s03_vel_pi_disturbance,g000033_c0,33,,,,,,0.32139336974064414,0.06427941929778641,0.8812463962441313,,,,,,,2.7074,2.9267,0.5078,0.0,0.0879,0.005174,0.0,0.0,6.008,,,,,,200.469115,FAIL,vel error exceeded
267,s03_vel_pi_disturbance,g000033_c1,33,,,,,,0.09694690134320424,0.035922734243244124,1.2,,,,,,,2.4281,3.3708,4.4393,0.0,0.1975,0.005158,0.0,0.0,12.0,,,,,,1.03223,PASS,
268,s03_vel_pi_disturbance,g000033_c2,33,,,,,,0.31550861090398447,0.024963573122032602,0.6151094099682153,,,,,,,2.6269,2.817,0.6746,0.0,0.119,0.005168,0.0,0.0,6.018,,,,,,200.63139,FAIL,vel error exceeded
269,s03_vel_pi_disturbance,g000033_c3,33,,,,,,0.06795534958361117,0.01917909102406835,1.2,,,,,,,2.1641,2.8866,6.0953,0.0,0.3022,0.005143,0.0,0.0,12.0,,,,,,1.54301,PASS,
270,s03_vel_pi_disturbance,g000033_c4,33,,,,,,0.5470498529927456,0.018209725881682227,1.2,,,,,,,2.6389,2.7569,0.449,0.0,0.0778,0.005171,0.0,12.0,6.01,,,,,,200.425893,FAIL,vel error exceeded
271,s03_vel_pi_disturbance,g000033_c5,33,,,,,,0.12206294061815325,0.029940733548894115,0.9992540944393856,,,,,,,2.4195,3.1696,4.4988,0.0,0.1875,0.005157,0.0,0.0,12.0,,,,,,0.991635,PASS,
272,s03_vel_pi_disturbance,g000033_c6,33,,,,,,0.3415215764272873,0.035797562359841474,0.7451185863918269,,,,,,,2.6541,2.8347,0.5906,0.0,0.1022,0.00517,0.0,0.0,6.01,,,,,,200.541745,FAIL,vel error exceeded
273,s03_vel_pi_disturbance,g000033_c7,33,,,,,,0.3251937356521379,0.03545503661711432,1.2,,,,,,,2.6537,2.8461,0.6129,0.0,0.1068,0.00517,0.0,0.0,6.012,,,,,,200.56534,FAIL,vel error exceeded
274,s03_vel_pi_disturbance,g000034_c0,34,,,,,,0.21688919689226305,0.006163249276531074,1.2,,,,,,,2.5073,2.7729,1.0525,0.0,0.1903,0.005158,0.0,0.0,6.03,,,,,,201.005988,FAIL,vel error exceeded
275,s03_vel_pi_disturbance,g000034_c1,34,,,,,,0.08848074063563206,0.013785390528954363,0.890741542014043,,,,,,,2.1841,2.8532,6.0106,0.0,0.2914,0.005143,0.0,0.0,12.0,,,,,,1.496468,PASS,
276,s03_vel_pi_disturbance,g000034_c2,34,,,,,,0.08208257833134358,0.036344271905569235,1.0908792341297864,,,,,,,2.4036,3.4336,4.57,0.0,0.21,0.005157,0.0,0.0,12.0,,,,,,1.089322,PASS,
277,s03_vel_pi_disturbance,g000034_c3,34,,,,,,0.24896375901382792,0.021388994220006376,0.8506709211961513,,,,,,,2.6048,2.8452,0.8273,0.0,0.1474,0.005165,0.0,0.0,6.02,,,,,,200.774655,FAIL,vel error exceeded
278,s03_vel_pi_disturbance,g000034_c4,34,,,,,,0.15807675736031385,0.03234900689737672,1.2,,,,,,,2.665,3.0585,1.0056,0.0,0.1832,0.005166,0.0,0.0,6.018,,,,,,200.948672,FAIL,vel error exceeded
279,s03_vel_pi_disturbance,g000034_c5,34,,,,,,0.1323117789590921,0.05509283337409175,0.4362425926548306,,,,,,,2.8195,3.3352,0.8465,0.0,0.1618,0.005176,0.0,0.0,6.008,,,,,,200.83302,FAIL,vel error exceeded
280,s03_vel_pi_disturbance,g000034_c6,34,,,,,,0.15235294246713738,0.05673975322116408,1.2,,,,,,,2.7937,3.2537,0.782,0.0,0.1473,0.005175,0.0,0.0,6.008,,,,,,200.761037,FAIL,vel error exceeded
281,s03_vel_pi_disturbance,g000034_c7,34,,,,,,0.3138608128296687,0.09924608426326734,0.8094566381954762,,,,,,,2.7497,3.0253,0.4086,0.0,0.0725,0.005177,0.0,0.0,6.008,,,,,,200.392925,FAIL,vel error exceeded
282,s03_vel_pi_disturbance,g000035_c0,35,,,,,,0.22770374787405986,0.038445279910061504,1.2,,,,,,,2.6717,2.9497,0.7589,0.0,0.1349,0.005169,0.0,0.0,6.012,,,,,,200.703203,FAIL,vel error exceeded
283,s03_vel_pi_disturbance,g000035_c1,35,,,,,,0.1382973696431439,0.0371123735544633,0.6683110616869241,,,,,,,2.7092,3.1674,1.0277,0.0,0.1894,0.005168,0.0,0.0,6.016,,,,,,200.976867,FAIL,vel error exceeded
284,s03_vel_pi_disturbance,g000035_c2,35,,,,,,0.25378420763100407,0.01910070674980682,1.2,,,,,,,2.5965,2.8284,0.8315,0.0,0.148,0.005164,0.0,0.0,6.02,,,,,,200.77784,FAIL,vel error exceeded
285,s03_vel_pi_disturbance,g000035_c3,35,,,,,,0.10322990877316138,0.036728989457411085,1.2,,,,,,,2.4458,3.3442,4.3478,0.0,0.1917,0.005158,0.0,0.0,12.0,,,,,,1.005843,PASS,
286,s03_vel_pi_disturbance,g000035_c4,35,,,,,,0.19716494785219413,0.02437723501540946,1.2,,,,,,,2.6116,2.9167,0.9496,0.0,0.1707,0.005164,0.0,0.0,6.02,,,,,,200.889958,FAIL,vel error exceeded
287,s03_vel_pi_disturbance,g000035_c5,35,,,,,,0.15099003517284001,0.026362504431627725,1.2,,,,,,,2.6169,3.0325,1.1056,0.0,0.2015,0.005162,0.0,0.0,6.022,,,,,,201.046327,FAIL,vel error exceeded
288,s03_vel_pi_disturbance,g000035_c6,35,,,,,,0.1637976722865776,0.0350601750448508,1.2,,,,,,,2.6792,3.0656,0.9564,0.0,0.1743,0.005167,0.0,0.0,6.018,,,,,,200.904317,FAIL,vel error exceeded
289,s03_vel_pi_disturbance,g000035_c7,35,,,,,,0.14390150504660404,0.03131844656934188,0.3960609144992562,,,,,,,2.6594,3.0996,1.0754,0.0,0.1969,0.005165,0.0,0.0,6.02,,,,,,201.020045,FAIL,vel error exceeded
290,s03_vel_pi_disturbance,g000036_c0,36,,,,,,0.15335501879755986,0.018048693133980023,1.2,,,,,,,2.3895,2.9449,4.7863,0.0,0.1932,0.005154,0.0,0.0,12.0,,,,,,1.032613,PASS,
291,s03_vel_pi_disturbance,g000036_c1,36,,,,,,0.14608730371284293,0.016875642945196025,1.2,,,,,,,2.3671,2.9467,4.9106,0.0,0.2023,0.005153,0.0,0.0,12.0,,,,,,1.074752,PASS,
292,s03_vel_pi_disturbance,g000036_c2,36,,,,,,0.0846746383559117,0.01959088833432756,0.9471376229449251,,,,,,,2.2302,2.996,5.639,0.0,0.2651,0.005146,0.0,0.0,12.0,,,,,,1.363915,PASS,
293,s03_vel_pi_disturbance,g000036_c3,36,,,,,,0.13015930569718367,0.028847922210563634,0.9418903608660802,,,,,,,2.4243,3.1261,4.4837,0.0,0.1838,0.005157,0.0,0.0,12.0,,,,,,0.97646,PASS,
294,s03_vel_pi_disturbance,g000036_c4,36,,,,,,0.10758693830836095,0.01572534100467542,0.9209132000803888,,,,,,,2.2635,2.9583,5.4807,0.0,0.2486,0.005148,0.0,0.0,12.0,,,,,,1.290058,PASS,
295,s03_vel_pi_disturbance,g000036_c5,36,,,,,,0.17019938623654476,0.025224880632110584,1.0502012314833338,,,,,,,2.6144,2.9744,1.0376,0.0,0.1881,0.005163,0.0,0.0,6.022,,,,,,200.980028,FAIL,vel error exceeded
296,s03_vel_pi_disturbance,g000036_c6,36,,,,,,0.14319833112519556,0.019498293571378403,1.2,,,,,,,2.3792,2.9844,4.8115,0.0,0.1969,0.005154,0.0,0.0,12.0,,,,,,1.04679,PASS,
297,s03_vel_pi_disturbance,g000036_c7,36,,,,,,0.33468477562701754,0.02919981290167784,1.0555780877770933,,,,,,,2.6395,2.819,0.6264,0.0,0.1091,0.005169,0.0,0.0,6.012,,,,,,200.577255,FAIL,vel error exceeded
298,s03_vel_pi_disturbance,g000037_c0,37,,,,,,0.15093947228437685,0.03884952615174797,0.7687479636707615,,,,,,,2.7102,3.1335,0.9603,0.0,0.1759,0.005169,0.0,0.0,6.012,,,,,,200.906133,FAIL,vel error exceeded
299,s03_vel_pi_disturbance,g000037_c1,37,,,,,,0.28756288412520176,0.017297867633151488,1.2,,,,,,,2.5979,2.8036,0.7664,0.0,0.136,0.005165,0.0,0.0,6.02,,,,,,200.7186,FAIL,vel error exceeded
300,s03_vel_pi_disturbance,g000037_c2,37,,,,,,0.13051318937315842,0.02293019140741261,0.7620899345221381,,,,,,,2.3788,3.0598,4.764,0.0,0.1974,0.005154,0.0,0.0,12.0,,,,,,1.044048,PASS,
301,s03_vel_pi_disturbance,g000037_c3,37,,,,,,0.1397546090424318,0.021918871678435006,0.8559154435577062,,,,,,,2.3894,3.0218,4.7269,0.0,0.1928,0.005154,0.0,0.0,12.0,,,,,,1.02498,PASS,
302,s03_vel_pi_disturbance,g000037_c4,37,,,,,,0.14853807310402942,0.028559390397767077,0.6395279227561415,,,,,,,2.6359,3.0565,1.089,0.0,0.1986,0.005163,0.0,0.0,6.02,,,,,,201.028745,FAIL,vel error exceeded
303,s03_vel_pi_disturbance,g000037_c5,37,,,,,,0.09715469960546445,0.05201111456442806,0.9521072600915625,,,,,,,2.8857,3.5394,0.9977,0.0,0.1951,0.005178,0.0,0.0,6.006,,,,,,200.997535,FAIL,vel error exceeded
304,s03_vel_pi_disturbance,g000037_c6,37,,,,,,0.10755295024688788,0.029586804757741936,0.9655900250158596,,,,,,,2.3898,3.2273,4.6485,0.0,0.1996,0.005155,0.0,0.0,12.0,,,,,,1.046302,PASS,
305,s03_vel_pi_disturbance,g000037_c7,37,,,,,,0.0992890310300212,0.01890566863834422,0.8212962414177326,,,,,,,2.2685,3.022,5.4086,0.0,0.2456,0.005148,0.0,0.0,12.0,,,,,,1.27211,PASS,
306,s03_vel_pi_disturbance,g000038_c0,38,,,,,,0.16128531633170798,0.03618447859818046,1.2,,,,,,,2.6869,3.0781,0.9531,0.0,0.1738,0.005168,0.0,0.0,6.016,,,,,,200.899113,FAIL,vel error exceeded
307,s03_vel_pi_disturbance,g000038_c1,38,,,,,,0.1913687488419033,0.031723957518071944,1.0476106568607877,,,,,,,2.6513,2.9754,0.9007,0.0,0.1623,0.005167,0.0,0.0,6.018,,,,,,200.84497,FAIL,vel error exceeded
308,s03_vel_pi_disturbance,g000038_c2,38,,,,,,0.10905372419356081,0.030826982640346813,1.0562026596204115,,,,,,,2.4036,3.2422,4.5714,0.0,0.1958,0.005156,0.0,0.0,12.0,,,,,,1.028,PASS,
309,s03_vel_pi_disturbance,g000038_c3,38,,,,,,0.196203553237154,0.027901991557588702,0.8161498157606475,,,,,,,2.6306,2.9436,0.9205,0.0,0.1657,0.005165,0.0,0.0,6.02,,,,,,200.865103,FAIL,vel error exceeded
310,s03_vel_pi_disturbance,g000038_c4,38,,,,,,0.10285958979701275,0.02088839699545597,0.9726683217679457,,,,,,,2.2971,3.0715,5.2189,0.0,0.2322,0.00515,0.0,0.0,12.0,,,,,,1.206703,PASS,
311,s03_vel_pi_disturbance,g000038_c5,38,,,,,,0.16397320686763825,0.023133418448162774,0.8606404490492241,,,,,,,2.5955,2.9725,1.0875,0.0,0.1973,0.005161,0.0,0.0,6.022,,,,,,201.025913,FAIL,vel error exceeded
312,s03_vel_pi_disturbance,g000038_c6,38,,,,,,0.12225670523940661,0.048597065825645776,1.2,,,,,,,2.8053,3.3424,0.949,0.0,0.1796,0.005174,0.0,0.0,6.008,,,,,,200.92136,FAIL,vel error exceeded
313,s03_vel_pi_disturbance,g000038_c7,38,,,,,,0.13486095248803237,0.06052874114202085,0.6849557956781687,,,,,,,2.8374,3.3614,0.7871,0.0,0.1524,0.005178,0.0,0.0,6.006,,,,,,200.785192,FAIL,vel error exceeded
