run_id,scenario,label,gen,timestamp,Q_PITCH,Q_PITCH_RATE,Q_VEL,R,KP_V,KI_V,KFF_V,KP_YAW,KI_YAW,LEG_K_S,LEG_B_S,LEG_K_ROLL,LEG_D_ROLL,rms_pitch_deg,max_pitch_deg,wheel_travel_m,wheel_liftoff_s,vel_track_rms_ms,hip_track_rms_rad,hip_cmd_rate_rms,settle_time_s,survived_s,fitness_balance,fitness_disturbance,fitness_drive_slow,fitness_drive_med,fitness_obstacle,fitness,status,fail_reason
1,s06_yaw_pi_turn,evo_seed,0,,,,,,,,,0.319839,1.35094,,,,,3.2232,9.9733,1.6448,0.0,0.2344,0.00706,0.0,0.0,8.0,,,,,,0.42492,PASS,
2,s06_yaw_pi_turn,g000000_c0,0,,,,,,,,,0.37757837384569026,0.12811168503087847,,,,,3.2245,9.978,1.6447,0.0,0.2345,0.007059,0.0,0.0,8.0,,,,,,0.42895,PASS,
3,s06_yaw_pi_turn,g000000_c1,0,,,,,,,,,0.2908175151657598,2.3903708534134496,,,,,3.2234,9.9817,1.6448,0.0,0.2344,0.00706,0.0,0.0,8.0,,,,,,0.42884,PASS,
4,s06_yaw_pi_turn,g000000_c2,0,,,,,,,,,0.24188049541765708,16.031202772753673,,,,,3.2233,9.9779,1.6447,0.0,0.2344,0.00706,0.0,0.0,8.0,,,,,,0.43723,PASS,
5,s06_yaw_pi_turn,g000000_c3,0,,,,,,,,,1.246681289408286,0.015497387595381986,,,,,3.2244,9.9813,1.6449,0.0,0.2346,0.007059,0.0,0.0,8.0,,,,,,0.40434,PASS,
6,s06_yaw_pi_turn,g000000_c4,0,,,,,,,,,0.033238171181516625,0.9999130824160686,,,,,3.223,9.9754,1.6452,0.0,0.2343,0.007059,0.0,0.0,8.0,,,,,,0.5959,PASS,
7,s06_yaw_pi_turn,g000000_c5,0,,,,,,,,,11.051270955559215,0.014468620500450204,,,,,3.7156,12.6083,4.1438,0.0,0.7017,0.007101,0.0,8.0,8.0,,,,,,0.62836,PASS,
8,s06_yaw_pi_turn,g000000_c6,0,,,,,,,,,0.3929667389093268,0.8616441771341453,,,,,3.2234,9.978,1.6446,0.0,0.2344,0.007059,0.0,0.0,8.0,,,,,,0.41684,PASS,
9,s06_yaw_pi_turn,g000000_c7,0,,,,,,,,,0.14571011073991294,0.007872270856398942,,,,,3.2305,9.9897,1.6456,0.0,0.2348,0.007059,0.0,0.0,8.0,,,,,,0.59155,PASS,
10,s06_yaw_pi_turn,g000001_c0,1,,,,,,,,,0.4918200985306003,0.03262426627770179,,,,,3.2254,9.9813,1.6453,0.0,0.2346,0.007059,0.0,0.0,8.0,,,,,,0.43054,PASS,
11,s06_yaw_pi_turn,g000001_c1,1,,,,,,,,,0.4641165246916779,0.02591856112511538,,,,,3.2257,9.9771,1.6452,0.0,0.2346,0.007059,0.0,0.0,8.0,,,,,,0.43627,PASS,
12,s06_yaw_pi_turn,g000001_c2,1,,,,,,,,,70.49182624976622,0.0025119836034378533,,,,,3.7173,9.639,4.227,0.0,0.685,0.007093,0.0,2.236,8.0,,,,,,0.64563,PASS,
13,s06_yaw_pi_turn,g000001_c3,1,,,,,,,,,6.24352177088339,0.14664769072797357,,,,,3.6738,11.6073,4.3555,0.0,0.7715,0.0071,0.0,8.0,8.0,,,,,,0.58938,PASS,
14,s06_yaw_pi_turn,g000001_c4,1,,,,,,,,,9.039538170834927,2.419095034579766,,,,,3.5144,11.936,3.9065,0.0,0.6467,0.007093,0.0,8.0,8.0,,,,,,0.60224,PASS,
15,s06_yaw_pi_turn,g000001_c5,1,,,,,,,,,35.41804742287878,0.0735617141911496,,,,,3.5544,10.577,3.9748,0.0,0.6353,0.007097,0.0,8.0,8.0,,,,,,0.62634,PASS,
16,s06_yaw_pi_turn,g000001_c6,1,,,,,,,,,0.10595763355217447,0.013058045140521867,,,,,3.2317,9.9951,1.6457,0.0,0.2349,0.007059,0.0,0.0,8.0,,,,,,0.62767,PASS,
17,s06_yaw_pi_turn,g000001_c7,1,,,,,,,,,0.4823104471879213,0.023225342617740806,,,,,3.2261,9.9824,1.6454,0.0,0.2346,0.007059,0.0,0.0,8.0,,,,,,0.43451,PASS,
18,s06_yaw_pi_turn,g000002_c0,2,,,,,,,,,0.7470051900382019,0.0001207271571888448,,,,,3.2256,9.9828,1.645,0.0,0.2346,0.007059,0.0,0.0,8.0,,,,,,0.41766,PASS,
19,s06_yaw_pi_turn,g000002_c1,2,,,,,,,,,0.11984505703920341,0.029895567337392355,,,,,3.2289,9.9898,1.6455,0.0,0.2347,0.007059,0.0,0.0,8.0,,,,,,0.55809,PASS,
20,s06_yaw_pi_turn,g000002_c2,2,,,,,,,,,9.84626823925074,0.0004310787857178526,,,,,3.4584,11.2945,3.9091,0.0,0.6572,0.007111,0.0,6.662,8.0,,,,,,0.58464,PASS,
21,s06_yaw_pi_turn,g000002_c3,2,,,,,,,,,0.45827646530992217,0.00047899586993026055,,,,,3.2258,9.9826,1.6447,0.0,0.2346,0.007059,0.0,0.0,8.0,,,,,,0.44738,PASS,
22,s06_yaw_pi_turn,g000002_c4,2,,,,,,,,,15.724294743616351,0.015476788800165227,,,,,3.5161,10.5675,4.0248,0.0,0.6761,0.007115,0.0,8.0,8.0,,,,,,0.61411,PASS,
23,s06_yaw_pi_turn,g000002_c5,2,,,,,,,,,2.45334031255676,0.41650363342314883,,,,,3.2237,9.9765,1.6452,0.0,0.2346,0.007059,0.0,0.0,8.0,,,,,,0.39797,PASS,
24,s06_yaw_pi_turn,g000002_c6,2,,,,,,,,,0.26731795691431165,0.017306343590029423,,,,,3.2279,9.9926,1.6453,0.0,0.2346,0.007059,0.0,0.0,8.0,,,,,,0.48809,PASS,
25,s06_yaw_pi_turn,g000002_c7,2,,,,,,,,,7.0175324033225035,0.015482498063407768,,,,,3.6301,13.3996,3.8965,0.0,0.6759,0.0071,0.0,6.988,8.0,,,,,,0.59101,PASS,
26,s06_yaw_pi_turn,g000003_c0,3,,,,,,,,,4.6072628491700245,0.9901955001194062,,,,,3.2236,9.9761,1.6453,0.0,0.2346,0.007059,0.0,0.0,8.0,,,,,,0.39766,PASS,
27,s06_yaw_pi_turn,g000003_c1,3,,,,,,,,,0.9013444547277859,1.2476147533423585,,,,,3.2236,9.977,1.645,0.0,0.2346,0.007059,0.0,0.0,8.0,,,,,,0.39886,PASS,
28,s06_yaw_pi_turn,g000003_c2,3,,,,,,,,,1.0144995794849803,1.9322115592195461,,,,,3.2231,9.9727,1.6449,0.0,0.2345,0.007059,0.0,0.0,8.0,,,,,,0.39821,PASS,
29,s06_yaw_pi_turn,g000003_c3,3,,,,,,,,,8.836290863864999,45.635293257207145,,,,,3.5824,12.2962,3.9707,0.0,0.6691,0.00711,0.0,8.0,8.0,,,,,,0.60064,PASS,
30,s06_yaw_pi_turn,g000003_c4,3,,,,,,,,,0.09028250047860605,3.0390352713374797,,,,,3.2231,9.9725,1.6448,0.0,0.2344,0.007059,0.0,0.0,8.0,,,,,,0.50201,PASS,
31,s06_yaw_pi_turn,g000003_c5,3,,,,,,,,,0.7439216833766251,0.0885258474039604,,,,,3.2246,9.9789,1.6451,0.0,0.2346,0.007059,0.0,0.0,8.0,,,,,,0.40856,PASS,
32,s06_yaw_pi_turn,g000003_c6,3,,,,,,,,,29.556417837410862,0.21911747811839147,,,,,3.6476,8.5695,3.9497,0.0,0.6402,0.007109,0.0,8.0,8.0,,,,,,0.64526,PASS,
33,s06_yaw_pi_turn,g000003_c7,3,,,,,,,,,0.2925504827458621,0.0580393380204244,,,,,3.2262,9.9829,1.6451,0.0,0.2346,0.007059,0.0,0.0,8.0,,,,,,0.45582,PASS,
34,s06_yaw_pi_turn,g000004_c0,4,,,,,,,,,0.16500918074184362,1.0794836341608054,,,,,3.2234,9.9773,1.6452,0.0,0.2344,0.00706,0.0,0.0,8.0,,,,,,0.46184,PASS,
35,s06_yaw_pi_turn,g000004_c1,4,,,,,,,,,1.101251434615967,0.1328719583589501,,,,,3.2239,9.9748,1.6449,0.0,0.2345,0.007059,0.0,0.0,8.0,,,,,,0.40219,PASS,
36,s06_yaw_pi_turn,g000004_c2,4,,,,,,,,,28.686518885669717,0.012373298479980846,,,,,3.5101,11.2711,4.0183,0.0,0.6698,0.007107,0.0,2.49,8.0,,,,,,0.62971,PASS,
37,s06_yaw_pi_turn,g000004_c3,4,,,,,,,,,100.0,3.591287598010896,,,,,3.5862,10.3404,4.3703,0.0,0.7251,0.007106,0.0,8.0,8.0,,,,,,0.64452,PASS,
38,s06_yaw_pi_turn,g000004_c4,4,,,,,,,,,9.995741621487815,0.2905428012213575,,,,,3.5185,8.6555,4.0818,0.0,0.6917,0.007109,0.0,8.0,8.0,,,,,,0.59605,PASS,
39,s06_yaw_pi_turn,g000004_c5,4,,,,,,,,,1.9491129787252073,100.0,,,,,3.2227,9.975,1.6453,0.0,0.2344,0.00706,0.0,0.0,8.0,,,,,,0.40477,PASS,
40,s06_yaw_pi_turn,g000004_c6,4,,,,,,,,,3.878536158704011,11.74791181753554,,,,,3.2234,9.9743,1.6452,0.0,0.2346,0.007059,0.0,0.0,8.0,,,,,,0.39794,PASS,
41,s06_yaw_pi_turn,g000004_c7,4,,,,,,,,,3.297770869108055,0.07703252373640938,,,,,3.2239,9.9783,1.6455,0.0,0.2346,0.007059,0.0,0.0,8.0,,,,,,0.39859,PASS,
42,s06_yaw_pi_turn,g000005_c0,5,,,,,,,,,0.18010283429133309,0.8695158621366299,,,,,3.2232,9.9784,1.645,0.0,0.2344,0.00706,0.0,0.0,8.0,,,,,,0.45702,PASS,
43,s06_yaw_pi_turn,g000005_c1,5,,,,,,,,,0.23808720805402694,4.092944277801486,,,,,3.2232,9.975,1.645,0.0,0.2344,0.00706,0.0,0.0,8.0,,,,,,0.43872,PASS,
44,s06_yaw_pi_turn,g000005_c2,5,,,,,,,,,0.6881760982466276,9.768181005083756,,,,,3.2234,9.9783,1.6448,0.0,0.2345,0.007059,0.0,0.0,8.0,,,,,,0.40124,PASS,
45,s06_yaw_pi_turn,g000005_c3,5,,,,,,,,,100.0,1.094197221673582,,,,,3.7799,11.4612,4.2711,0.0,0.7068,0.007123,0.0,8.0,8.0,,,,,,0.66149,PASS,
46,s06_yaw_pi_turn,g000005_c4,5,,,,,,,,,7.588633305010835,6.634236179661455,,,,,3.4725,13.7591,3.8941,0.0,0.6419,0.007093,0.0,6.828,8.0,,,,,,0.57945,PASS,
47,s06_yaw_pi_turn,g000005_c5,5,,,,,,,,,17.890723694522055,3.957288668800146,,,,,3.2344,12.1177,3.5556,0.0,0.5806,0.007098,0.0,1.116,8.0,,,,,,0.58324,PASS,
48,s06_yaw_pi_turn,g000005_c6,5,,,,,,,,,7.969168637420785,0.6643303736143857,,,,,3.4746,11.2434,4.0756,0.0,0.706,0.007105,0.0,8.0,8.0,,,,,,0.58776,PASS,
49,s06_yaw_pi_turn,g000005_c7,5,,,,,,,,,90.7950068937862,1.5267383672965835,,,,,3.7336,10.8933,4.2551,0.0,0.6963,0.007127,0.0,8.0,8.0,,,,,,0.65026,PASS,
50,s06_yaw_pi_turn,g000006_c0,6,,,,,,,,,0.1778960529937169,41.51788293657207,,,,,3.2233,9.9773,1.6449,0.0,0.2345,0.00706,0.0,0.0,8.0,,,,,,0.45433,PASS,
51,s06_yaw_pi_turn,g000006_c1,6,,,,,,,,,2.4575262323110167,90.41467390773464,,,,,3.2229,9.9775,1.6449,0.0,0.2344,0.007059,0.0,0.0,8.0,,,,,,0.40299,PASS,
52,s06_yaw_pi_turn,g000006_c2,6,,,,,,,,,3.5210132821470026,2.611223516756351,,,,,3.2237,9.9777,1.6452,0.0,0.2346,0.007059,0.0,0.0,8.0,,,,,,0.39767,PASS,
53,s06_yaw_pi_turn,g000006_c3,6,,,,,,,,,52.890584519581836,0.15963239112375274,,,,,3.6352,11.2218,4.1676,0.0,0.6754,0.007092,0.0,2.146,8.0,,,,,,0.64312,PASS,
54,s06_yaw_pi_turn,g000006_c4,6,,,,,,,,,0.701116698776968,0.6923722833794175,,,,,3.2235,9.9768,1.6449,0.0,0.2345,0.007059,0.0,0.0,8.0,,,,,,0.40155,PASS,
55,s06_yaw_pi_turn,g000006_c5,6,,,,,,,,,2.4145500608383994,100.0,,,,,3.2228,9.972,1.6453,0.0,0.2344,0.007059,0.0,0.0,8.0,,,,,,0.40358,PASS,
56,s06_yaw_pi_turn,g000006_c6,6,,,,,,,,,1.0704424363991576,2.0137792131689496,,,,,3.2236,9.9769,1.6451,0.0,0.2345,0.007059,0.0,0.0,8.0,,,,,,0.39826,PASS,
57,s06_yaw_pi_turn,g000006_c7,6,,,,,,,,,29.622588888342282,0.0939928743919191,,,,,3.4741,9.2832,4.0163,0.0,0.6355,0.007107,0.0,2.018,8.0,,,,,,0.61741,PASS,
58,s06_yaw_pi_turn,g000007_c0,7,,,,,,,,,0.009703710217471562,2.020912413534884,,,,,3.223,9.9747,1.6455,0.0,0.2344,0.007059,0.0,0.0,8.0,,,,,,0.7105,PASS,
59,s06_yaw_pi_turn,g000007_c1,7,,,,,,,,,77.61065626260499,0.1466306351115477,,,,,3.6869,11.8207,4.0261,0.0,0.6654,0.007104,0.0,7.096,8.0,,,,,,0.64409,PASS,
60,s06_yaw_pi_turn,g000007_c2,7,,,,,,,,,4.296180022209005,1.4483365611839036,,,,,3.2238,9.9763,1.6451,0.0,0.2346,0.007059,0.0,0.0,8.0,,,,,,0.39768,PASS,
61,s06_yaw_pi_turn,g000007_c3,7,,,,,,,,,1.2341937460638717,0.016115920791105885,,,,,3.2245,9.9846,1.6452,0.0,0.2346,0.007059,0.0,0.0,8.0,,,,,,0.40435,PASS,
62,s06_yaw_pi_turn,g000007_c4,7,,,,,,,,,20.624190572042714,2.1117252957842236,,,,,3.4435,9.638,3.8298,0.0,0.6375,0.007101,0.0,8.0,8.0,,,,,,0.61315,PASS,
63,s06_yaw_pi_turn,g000007_c5,7,,,,,,,,,11.43528294075516,1.2793884075267716,,,,,3.6508,9.9025,3.8267,0.0,0.6482,0.007092,0.0,6.688,8.0,,,,,,0.61708,PASS,
64,s06_yaw_pi_turn,g000007_c6,7,,,,,,,,,15.834473514206794,0.6894588811246674,,,,,3.596,11.7776,3.7168,0.0,0.6235,0.007095,0.0,8.0,8.0,,,,,,0.6257,PASS,
65,s06_yaw_pi_turn,g000007_c7,7,,,,,,,,,0.8164820658109645,0.056572582436628036,,,,,3.2247,9.976,1.6451,0.0,0.2346,0.007059,0.0,0.0,8.0,,,,,,0.40887,PASS,
66,s06_yaw_pi_turn,g000008_c0,8,,,,,,,,,1.0678128610513413,0.02171375751806391,,,,,3.2249,9.9812,1.645,0.0,0.2346,0.007059,0.0,0.0,8.0,,,,,,0.40649,PASS,
67,s06_yaw_pi_turn,g000008_c1,8,,,,,,,,,100.0,0.009498279913039564,,,,,3.6761,9.9723,4.5065,0.0,0.7205,0.00711,0.0,8.0,8.0,,,,,,0.64961,PASS,
68,s06_yaw_pi_turn,g000008_c2,8,,,,,,,,,40.10168956416847,8.945833834033326,,,,,3.3997,10.4089,3.6671,0.0,0.6012,0.007115,0.0,2.218,8.0,,,,,,0.61507,PASS,
69,s06_yaw_pi_turn,g000008_c3,8,,,,,,,,,0.1670047676461352,4.138700886470568,,,,,3.2235,9.9776,1.6454,0.0,0.2344,0.00706,0.0,0.0,8.0,,,,,,0.45885,PASS,
70,s06_yaw_pi_turn,g000008_c4,8,,,,,,,,,0.19534490495038248,0.3280646356871289,,,,,3.2231,9.9749,1.6444,0.0,0.2344,0.007059,0.0,0.0,8.0,,,,,,0.45671,PASS,
71,s06_yaw_pi_turn,g000008_c5,8,,,,,,,,,12.678770399334024,0.04259612661639244,,,,,3.5757,12.071,3.8008,0.0,0.6427,0.007094,0.0,0.702,8.0,,,,,,0.61317,PASS,
72,s06_yaw_pi_turn,g000008_c6,8,,,,,,,,,5.810771704807409,13.24342622907419,,,,,3.7204,10.933,4.2199,0.0,0.736,0.007099,0.0,7.052,8.0,,,,,,0.59104,PASS,
73,s06_yaw_pi_turn,g000008_c7,8,,,,,,,,,8.006071138119918,7.861803530793902,,,,,3.634,11.2018,4.1732,0.0,0.7083,0.007098,0.0,8.0,8.0,,,,,,0.5998,PASS,
74,s06_yaw_pi_turn,g000009_c0,9,,,,,,,,,63.14166916794364,2.2816703064347417,,,,,3.404,8.8357,3.8471,0.0,0.6301,0.007097,0.0,2.118,8.0,,,,,,0.6176,PASS,
75,s06_yaw_pi_turn,g000009_c1,9,,,,,,,,,8.30604549869109,0.02872361774735648,,,,,3.5814,12.231,3.7792,0.0,0.646,0.007097,0.0,8.0,8.0,,,,,,0.60444,PASS,
76,s06_yaw_pi_turn,g000009_c2,9,,,,,,,,,10.612595145063581,11.64788115286775,,,,,3.4743,12.4665,3.8962,0.0,0.6476,0.007098,0.0,8.0,8.0,,,,,,0.59493,PASS,
77,s06_yaw_pi_turn,g000009_c3,9,,,,,,,,,0.06721866095127992,0.012519407391462038,,,,,3.2335,10.0001,1.6455,0.0,0.235,0.007059,0.0,0.0,8.0,,,,,,0.73165,PASS,
78,s06_yaw_pi_turn,g000009_c4,9,,,,,,,,,0.43158199123823326,5.541338634070276,,,,,3.2233,9.9744,1.6448,0.0,0.2345,0.007059,0.0,0.0,8.0,,,,,,0.41143,PASS,
79,s06_yaw_pi_turn,g000009_c5,9,,,,,,,,,11.85326789692412,18.040332196114345,,,,,3.8891,12.6371,3.7149,0.0,0.6452,0.007102,0.0,2.662,8.0,,,,,,0.64871,PASS,
80,s06_yaw_pi_turn,g000009_c6,9,,,,,,,,,40.15688484342815,1.7993335462378708,,,,,3.5153,11.0002,3.5588,0.0,0.6058,0.007098,0.0,2.012,8.0,,,,,,0.62363,PASS,
81,s06_yaw_pi_turn,g000009_c7,9,,,,,,,,,20.262738540215857,100.0,,,,,3.5461,11.9572,4.0085,0.0,0.6599,0.007117,0.0,8.0,8.0,,,,,,0.62431,PASS,
82,s06_yaw_pi_turn,g000010_c0,10,,,,,,,,,44.26929267281014,27.07595289590425,,,,,3.3395,8.7777,3.8559,0.0,0.6432,0.00709,0.0,8.0,8.0,,,,,,0.60695,PASS,
83,s06_yaw_pi_turn,g000010_c1,10,,,,,,,,,0.6978500604492174,0.842279865700805,,,,,3.2229,9.9726,1.6445,0.0,0.2345,0.007059,0.0,0.0,8.0,,,,,,0.40119,PASS,
84,s06_yaw_pi_turn,g000010_c2,10,,,,,,,,,1.631871847978719,0.1255200479170476,,,,,3.2241,9.976,1.645,0.0,0.2346,0.007059,0.0,0.0,8.0,,,,,,0.40011,PASS,
85,s06_yaw_pi_turn,g000010_c3,10,,,,,,,,,5.544701953980651,0.7604698725519524,,,,,3.5772,8.7942,3.833,0.0,0.6795,0.007083,0.0,7.054,8.0,,,,,,0.56412,PASS,
86,s06_yaw_pi_turn,g000010_c4,10,,,,,,,,,0.44660685495318003,0.34103018759892867,,,,,3.2238,9.9765,1.6451,0.0,0.2344,0.007059,0.0,0.0,8.0,,,,,,0.41418,PASS,
87,s06_yaw_pi_turn,g000010_c5,10,,,,,,,,,1.5680424298078128,2.3830137376569107,,,,,3.2236,9.9786,1.6451,0.0,0.2346,0.007059,0.0,0.0,8.0,,,,,,0.39766,PASS,
88,s06_yaw_pi_turn,g000010_c6,10,,,,,,,,,3.476559747394418,0.02058603364343452,,,,,3.2238,9.9779,1.6451,0.0,0.2346,0.007059,0.0,0.0,8.0,,,,,,0.39858,PASS,
89,s06_yaw_pi_turn,g000010_c7,10,,,,,,,,,5.281123780240107,13.894617224971613,,,,,3.8392,10.4105,3.9774,0.0,0.739,0.007086,0.0,6.674,8.0,,,,,,0.58432,PASS,
90,s06_yaw_pi_turn,g000011_c0,11,,,,,,,,,26.64438988368896,1.6667520666148403,,,,,3.5957,9.4672,4.1777,0.0,0.6672,0.007103,0.0,8.0,8.0,,,,,,0.63797,PASS,
91,s06_yaw_pi_turn,g000011_c1,11,,,,,,,,,10.224784883982515,29.181271405292254,,,,,3.4452,8.2262,3.9706,0.0,0.6503,0.007095,0.0,8.0,8.0,,,,,,0.59682,PASS,
92,s06_yaw_pi_turn,g000011_c2,11,,,,,,,,,31.629969814429458,0.21159939827420624,,,,,3.5527,11.2931,4.1484,0.0,0.6982,0.007107,0.0,0.352,8.0,,,,,,0.63397,PASS,
93,s06_yaw_pi_turn,g000011_c3,11,,,,,,,,,3.003105914523496,4.356840972554821,,,,,3.2229,9.9724,1.645,0.0,0.2345,0.007059,0.0,0.0,8.0,,,,,,0.39759,PASS,
94,s06_yaw_pi_turn,g000011_c4,11,,,,,,,,,100.0,8.00359647186961,,,,,3.8318,10.5171,4.3307,0.0,0.7335,0.007111,0.0,8.0,8.0,,,,,,0.66128,PASS,
95,s06_yaw_pi_turn,g000011_c5,11,,,,,,,,,29.461575862308422,0.12848179563136064,,,,,3.6014,9.7213,4.361,0.0,0.7254,0.007132,0.0,8.0,8.0,,,,,,0.63434,PASS,
96,s06_yaw_pi_turn,g000011_c6,11,,,,,,,,,41.63070012368093,0.8207629595777997,,,,,3.476,10.831,4.1942,0.0,0.6841,0.007119,0.0,8.0,8.0,,,,,,0.6236,PASS,
97,s06_yaw_pi_turn,g000011_c7,11,,,,,,,,,2.0212231069974256,25.108122201024255,,,,,3.2228,9.9736,1.6447,0.0,0.2346,0.007059,0.0,0.0,8.0,,,,,,0.39908,PASS,
98,s06_yaw_pi_turn,g000012_c0,12,,,,,,,,,26.609333031799643,0.679976316032126,,,,,3.7436,12.4366,3.8507,0.0,0.6212,0.007106,0.0,8.0,8.0,,,,,,0.64946,PASS,
99,s06_yaw_pi_turn,g000012_c1,12,,,,,,,,,0.6039243177790027,2.231733580660276,,,,,3.2234,9.9724,1.645,0.0,0.2345,0.007059,0.0,0.0,8.0,,,,,,0.40214,PASS,
100,s06_yaw_pi_turn,g000012_c2,12,,,,,,,,,100.0,3.499513001285551,,,,,3.7016,11.3219,4.2854,0.0,0.7193,0.007129,0.0,8.0,8.0,,,,,,0.65606,PASS,
101,s06_yaw_pi_turn,g000012_c3,12,,,,,,,,,8.819800838865001,13.48008487967781,,,,,3.4116,10.1122,3.7682,0.0,0.6295,0.00709,0.0,8.0,8.0,,,,,,0.58146,PASS,
102,s06_yaw_pi_turn,g000012_c4,12,,,,,,,,,2.0356169733344336,1.854681756139896,,,,,3.2236,9.9774,1.6453,0.0,0.2346,0.007059,0.0,0.0,8.0,,,,,,0.39766,PASS,
103,s06_yaw_pi_turn,g000012_c5,12,,,,,,,,,1.2350390259480408,2.0340178950134353,,,,,3.2233,9.9789,1.645,0.0,0.2345,0.007059,0.0,0.0,8.0,,,,,,0.39793,PASS,
104,s06_yaw_pi_turn,g000012_c6,12,,,,,,,,,0.588560511111834,0.5926177069883979,,,,,3.2237,9.9764,1.6452,0.0,0.2345,0.007059,0.0,0.0,8.0,,,,,,0.40427,PASS,
105,s06_yaw_pi_turn,g000012_c7,12,,,,,,,,,0.029778491585663466,0.46864791120272475,,,,,3.2232,9.9798,1.6449,0.0,0.2343,0.007059,0.0,0.0,8.0,,,,,,0.61152,PASS,
106,s06_yaw_pi_turn,g000013_c0,13,,,,,,,,,4.174746822167603,100.0,,,,,3.2229,9.9773,1.6451,0.0,0.2344,0.007059,0.0,0.0,8.0,,,,,,0.40119,PASS,
107,s06_yaw_pi_turn,g000013_c1,13,,,,,,,,,0.08188545173230952,4.171779234932585,,,,,3.2231,9.9763,1.6451,0.0,0.2344,0.007059,0.0,0.0,8.0,,,,,,0.50951,PASS,
108,s06_yaw_pi_turn,g000013_c2,13,,,,,,,,,0.7801401476078416,40.31463077636155,,,,,3.2239,9.9778,1.6453,0.0,0.2346,0.007059,0.0,0.0,8.0,,,,,,0.40459,PASS,
109,s06_yaw_pi_turn,g000013_c3,13,,,,,,,,,0.5695500316259493,9.339887029291392,,,,,3.2234,9.9755,1.645,0.0,0.2345,0.007059,0.0,0.0,8.0,,,,,,0.40364,PASS,
110,s06_yaw_pi_turn,g000013_c4,13,,,,,,,,,1.2402837139100888,3.3353646137990913,,,,,3.2236,9.976,1.6454,0.0,0.2345,0.007059,0.0,0.0,8.0,,,,,,0.39796,PASS,
111,s06_yaw_pi_turn,g000013_c5,13,,,,,,,,,2.61586620654411,12.064615567440839,,,,,3.2231,9.9716,1.6449,0.0,0.2346,0.007059,0.0,0.0,8.0,,,,,,0.39791,PASS,
112,s06_yaw_pi_turn,g000013_c6,13,,,,,,,,,1.023352547129259,55.98763935812845,,,,,3.2231,9.974,1.645,0.0,0.2346,0.007059,0.0,0.0,8.0,,,,,,0.40511,PASS,
113,s06_yaw_pi_turn,g000013_c7,13,,,,,,,,,26.20410154679301,18.234058943041106,,,,,3.4353,11.0318,3.9312,0.0,0.6646,0.007121,0.0,8.0,8.0,,,,,,0.62013,PASS,
114,s06_yaw_pi_turn,g000014_c0,14,,,,,,,,,4.638520936763426,0.4911719033854976,,,,,3.2234,9.9711,1.6451,0.0,0.2346,0.007059,0.0,0.0,8.0,,,,,,0.39764,PASS,
115,s06_yaw_pi_turn,g000014_c1,14,,,,,,,,,3.7649612075870236,5.777272679303425,,,,,3.2232,9.975,1.6453,0.0,0.2345,0.007059,0.0,0.0,8.0,,,,,,0.39762,PASS,
116,s06_yaw_pi_turn,g000014_c2,14,,,,,,,,,1.9227438489920705,0.020913370732509935,,,,,3.2242,9.9747,1.6452,0.0,0.2346,0.007059,0.0,0.0,8.0,,,,,,0.40042,PASS,
117,s06_yaw_pi_turn,g000014_c3,14,,,,,,,,,3.2172714761703856,2.3939702204580513,,,,,3.2234,9.9751,1.6453,0.0,0.2346,0.007059,0.0,0.0,8.0,,,,,,0.39764,PASS,
118,s06_yaw_pi_turn,g000014_c4,14,,,,,,,,,41.374048528815386,2.384272046866151,,,,,3.4118,8.6683,3.9704,0.0,0.6437,0.007114,0.0,8.0,8.0,,,,,,0.62438,PASS,
119,s06_yaw_pi_turn,g000014_c5,14,,,,,,,,,5.998170625787892,18.129663992403447,,,,,3.4721,10.1172,4.2495,0.0,0.7259,0.007103,0.0,8.0,8.0,,,,,,0.56561,PASS,
120,s06_yaw_pi_turn,g000014_c6,14,,,,,,,,,37.69853906361846,2.8881948735322287,,,,,3.4233,11.0918,4.1961,0.0,0.6917,0.007114,0.0,0.184,8.0,,,,,,0.61533,PASS,
121,s06_yaw_pi_turn,g000014_c7,14,,,,,,,,,1.8224819784907798,1.5133137917358401,,,,,3.2236,9.974,1.6452,0.0,0.2346,0.007059,0.0,0.0,8.0,,,,,,0.39766,PASS,
122,s06_yaw_pi_turn,g000015_c0,15,,,,,,,,,1.8889346331336654,5.217663117043713,,,,,3.2234,9.974,1.645,0.0,0.2346,0.007059,0.0,0.0,8.0,,,,,,0.39764,PASS,
123,s06_yaw_pi_turn,g000015_c1,15,,,,,,,,,1.6455724255627109,6.317235356128048,,,,,3.2231,9.976,1.645,0.0,0.2345,0.007059,0.0,0.0,8.0,,,,,,0.39791,PASS,
124,s06_yaw_pi_turn,g000015_c2,15,,,,,,,,,16.034976872757145,6.411618714018806,,,,,3.4856,12.1884,3.9307,0.0,0.6653,0.007119,0.0,8.0,8.0,,,,,,0.61826,PASS,
125,s06_yaw_pi_turn,g000015_c3,15,,,,,,,,,7.1451989297437235,15.996808287427687,,,,,3.3793,9.2189,3.9978,0.0,0.6683,0.007097,0.0,1.062,8.0,,,,,,0.56353,PASS,
126,s06_yaw_pi_turn,g000015_c4,15,,,,,,,,,4.305815884713037,3.8076627720425575,,,,,3.2235,9.9746,1.6451,0.0,0.2346,0.007059,0.0,0.0,8.0,,,,,,0.39765,PASS,
127,s06_yaw_pi_turn,g000015_c5,15,,,,,,,,,2.9574688946891396,3.503095246768939,,,,,3.2235,9.9736,1.6451,0.0,0.2346,0.007059,0.0,0.0,8.0,,,,,,0.39765,PASS,
128,s06_yaw_pi_turn,g000015_c6,15,,,,,,,,,0.38769881028205844,0.9411419747867833,,,,,3.2233,9.9794,1.6448,0.0,0.2344,0.00706,0.0,0.0,8.0,,,,,,0.41713,PASS,
129,s06_yaw_pi_turn,g000015_c7,15,,,,,,,,,0.38687439611248986,12.823359713118938,,,,,3.2233,9.9768,1.6451,0.0,0.2345,0.00706,0.0,0.0,8.0,,,,,,0.41563,PASS,
130,s06_yaw_pi_turn,g000016_c0,16,,,,,,,,,2.8035599244769673,0.8781946702753846,,,,,3.2236,9.9795,1.6451,0.0,0.2346,0.007059,0.0,0.0,8.0,,,,,,0.39766,PASS,
131,s06_yaw_pi_turn,g000016_c1,16,,,,,,,,,0.3218801963243661,2.366034061670133,,,,,3.2233,9.9767,1.6448,0.0,0.2344,0.007059,0.0,0.0,8.0,,,,,,0.42403,PASS,
132,s06_yaw_pi_turn,g000016_c2,16,,,,,,,,,2.3182578882446894,4.933331955831215,,,,,3.2233,9.97,1.6453,0.0,0.2346,0.007059,0.0,0.0,8.0,,,,,,0.39763,PASS,
133,s06_yaw_pi_turn,g000016_c3,16,,,,,,,,,1.7810899515833096,2.3618930227602672,,,,,3.2234,9.974,1.6451,0.0,0.2345,0.007059,0.0,0.0,8.0,,,,,,0.39764,PASS,
134,s06_yaw_pi_turn,g000016_c4,16,,,,,,,,,6.997839399723598,6.611854944746147,,,,,3.611,11.6608,4.1719,0.0,0.7027,0.007097,0.0,8.0,8.0,,,,,,0.5897,PASS,
135,s06_yaw_pi_turn,g000016_c5,16,,,,,,,,,3.4658465428382463,4.528806856398842,,,,,3.2235,9.9744,1.6452,0.0,0.2346,0.007059,0.0,0.0,8.0,,,,,,0.39765,PASS,
136,s06_yaw_pi_turn,g000016_c6,16,,,,,,,,,4.959187493376389,3.142916504394995,,,,,3.1933,9.2962,2.1062,0.0,0.4748,0.007078,0.0,0.0,8.0,,,,,,0.45193,PASS,
137,s06_yaw_pi_turn,g000016_c7,16,,,,,,,,,0.8386286535784612,38.174430872691964,,,,,3.2236,9.9772,1.6452,0.0,0.2346,0.007059,0.0,0.0,8.0,,,,,,0.40396,PASS,
138,s06_yaw_pi_turn,g000017_c0,17,,,,,,,,,2.1238252679506675,21.660875983472103,,,,,3.2233,9.9755,1.6451,0.0,0.2346,0.007059,0.0,0.0,8.0,,,,,,0.39883,PASS,
139,s06_yaw_pi_turn,g000017_c1,17,,,,,,,,,2.5731472077876636,5.423229426383035,,,,,3.2234,9.9737,1.6452,0.0,0.2346,0.007059,0.0,0.0,8.0,,,,,,0.39764,PASS,
140,s06_yaw_pi_turn,g000017_c2,17,,,,,,,,,2.848314530797116,15.770283370256347,,,,,3.2231,9.9718,1.6452,0.0,0.2346,0.007059,0.0,0.0,8.0,,,,,,0.39821,PASS,
141,s06_yaw_pi_turn,g000017_c3,17,,,,,,,,,0.9613071751499322,5.886859369303053,,,,,3.2232,9.9736,1.645,0.0,0.2345,0.007059,0.0,0.0,8.0,,,,,,0.39882,PASS,
142,s06_yaw_pi_turn,g000017_c4,17,,,,,,,,,6.331380513824804,1.134465667735832,,,,,3.585,12.4091,4.0075,0.0,0.6982,0.007106,0.0,1.042,8.0,,,,,,0.579,PASS,
143,s06_yaw_pi_turn,g000017_c5,17,,,,,,,,,3.2328248117828067,1.6222620881220082,,,,,3.2234,9.978,1.645,0.0,0.2345,0.007059,0.0,0.0,8.0,,,,,,0.39764,PASS,
144,s06_yaw_pi_turn,g000017_c6,17,,,,,,,,,1.7141580172636006,26.428836328787884,,,,,3.2236,9.9784,1.6453,0.0,0.2346,0.007059,0.0,0.0,8.0,,,,,,0.39976,PASS,
145,s06_yaw_pi_turn,g000017_c7,17,,,,,,,,,5.888257222696316,1.3172875369167054,,,,,4.004,9.9755,4.3727,0.0,0.7782,0.007093,0.0,1.924,8.0,,,,,,0.6116,PASS,
146,s06_yaw_pi_turn,g000018_c0,18,,,,,,,,,2.3303553929942273,6.66859403391776,,,,,3.2232,9.9728,1.645,0.0,0.2345,0.007059,0.0,0.0,8.0,,,,,,0.39762,PASS,
147,s06_yaw_pi_turn,g000018_c1,18,,,,,,,,,2.1965815909103736,8.365920476895969,,,,,3.2231,9.9744,1.645,0.0,0.2345,0.007059,0.0,0.0,8.0,,,,,,0.39791,PASS,
148,s06_yaw_pi_turn,g000018_c2,18,,,,,,,,,2.913072506557466,1.9570543695093903,,,,,3.2231,9.9733,1.6449,0.0,0.2345,0.007059,0.0,0.0,8.0,,,,,,0.39761,PASS,
149,s06_yaw_pi_turn,g000018_c3,18,,,,,,,,,26.56682633183389,6.428774390529254,,,,,3.5402,10.0842,3.9059,0.0,0.6533,0.007114,0.0,8.0,8.0,,,,,,0.62612,PASS,
150,s06_yaw_pi_turn,g000018_c4,18,,,,,,,,,1.7461288675905924,3.8831116337025167,,,,,3.2233,9.971,1.645,0.0,0.2346,0.007059,0.0,0.0,8.0,,,,,,0.39763,PASS,
151,s06_yaw_pi_turn,g000018_c5,18,,,,,,,,,4.333254723441989,5.9848595442440855,,,,,3.2234,9.9741,1.6452,0.0,0.2346,0.007059,0.0,0.0,8.0,,,,,,0.39764,PASS,
152,s06_yaw_pi_turn,g000018_c6,18,,,,,,,,,2.5495944423337824,18.15904812963009,,,,,3.2232,9.9742,1.6449,0.0,0.2345,0.007059,0.0,0.0,8.0,,,,,,0.39852,PASS,
153,s06_yaw_pi_turn,g000018_c7,18,,,,,,,,,8.86266226083151,1.779421033520985,,,,,3.4155,9.7832,4.1657,0.0,0.6897,0.007098,0.0,8.0,8.0,,,,,,0.58065,PASS,
154,s06_yaw_pi_turn,g000019_c0,19,,,,,,,,,2.2012100020474437,2.2453871437735424,,,,,3.2234,9.9773,1.6451,0.0,0.2345,0.007059,0.0,0.0,8.0,,,,,,0.39764,PASS,
155,s06_yaw_pi_turn,g000019_c1,19,,,,,,,,,7.6402479417678935,4.5602518744387295,,,,,3.5139,10.526,3.9715,0.0,0.6755,0.007094,0.0,1.014,8.0,,,,,,0.58539,PASS,
156,s06_yaw_pi_turn,g000019_c2,19,,,,,,,,,2.668363345594456,2.1322936383425195,,,,,3.2231,9.9764,1.6448,0.0,0.2345,0.007059,0.0,0.0,8.0,,,,,,0.39761,PASS,
157,s06_yaw_pi_turn,g000019_c3,19,,,,,,,,,3.023695398867705,5.326245376809406,,,,,3.2232,9.9706,1.6452,0.0,0.2346,0.007059,0.0,0.0,8.0,,,,,,0.39762,PASS,
158,s06_yaw_pi_turn,g000019_c4,19,,,,,,,,,1.7517852707101966,3.1319859176947373,,,,,3.2235,9.974,1.6453,0.0,0.2346,0.007059,0.0,0.0,8.0,,,,,,0.39765,PASS,
159,s06_yaw_pi_turn,g000019_c5,19,,,,,,,,,0.9434899437737598,2.6264033226909134,,,,,3.2236,9.9781,1.6448,0.0,0.2346,0.007059,0.0,0.0,8.0,,,,,,0.39856,PASS,
160,s06_yaw_pi_turn,g000019_c6,19,,,,,,,,,2.8113809297159382,1.6012996308154872,,,,,3.2233,9.9758,1.6451,0.0,0.2345,0.007059,0.0,0.0,8.0,,,,,,0.39763,PASS,
161,s06_yaw_pi_turn,g000019_c7,19,,,,,,,,,6.348537884339319,2.9359755198749666,,,,,3.8269,10.2809,4.3554,0.0,0.7332,0.007093,0.0,6.572,8.0,,,,,,0.60349,PASS,
162,s06_yaw_pi_turn,g000020_c0,20,,,,,,,,,1.094995781481811,2.619657985313787,,,,,3.2231,9.972,1.645,0.0,0.2345,0.007059,0.0,0.0,8.0,,,,,,0.39821,PASS,
163,s06_yaw_pi_turn,g000020_c1,20,,,,,,,,,1.9459078879955654,3.727081545192933,,,,,3.2239,9.9748,1.6454,0.0,0.2346,0.007059,0.0,0.0,8.0,,,,,,0.39769,PASS,
164,s06_yaw_pi_turn,g000020_c2,20,,,,,,,,,2.7648528258782226,3.004831168525135,,,,,3.2236,9.9745,1.6453,0.0,0.2345,0.007059,0.0,0.0,8.0,,,,,,0.39766,PASS,
165,s06_yaw_pi_turn,g000020_c3,20,,,,,,,,,5.254375253019038,1.8031069921647294,,,,,3.5813,10.0417,4.1395,0.0,0.7266,0.007088,0.0,0.0,8.0,,,,,,0.57383,PASS,
166,s06_yaw_pi_turn,g000020_c4,20,,,,,,,,,2.4607592985557263,4.9922891554400515,,,,,3.2234,9.9735,1.6453,0.0,0.2346,0.007059,0.0,0.0,8.0,,,,,,0.39764,PASS,
167,s06_yaw_pi_turn,g000020_c5,20,,,,,,,,,1.403617327639021,7.982360175680949,,,,,3.223,9.9718,1.645,0.0,0.2345,0.007059,0.0,0.0,8.0,,,,,,0.3982,PASS,
168,s06_yaw_pi_turn,g000020_c6,20,,,,,,,,,4.500326778133667,5.957729735246279,,,,,3.2235,9.9766,1.6451,0.0,0.2345,0.007059,0.0,0.0,8.0,,,,,,0.39765,PASS,
169,s06_yaw_pi_turn,g000020_c7,20,,,,,,,,,0.8531463694927253,7.672938360318881,,,,,3.2232,9.9725,1.6449,0.0,0.2345,0.007059,0.0,0.0,8.0,,,,,,0.39942,PASS,
170,s06_yaw_pi_turn,g000021_c0,21,,,,,,,,,3.4261268810839183,7.416628935028155,,,,,3.2235,9.976,1.6452,0.0,0.2346,0.007059,0.0,0.0,8.0,,,,,,0.39765,PASS,
171,s06_yaw_pi_turn,g000021_c1,21,,,,,,,,,2.7837152993556336,2.572404962252968,,,,,3.2235,9.9772,1.6452,0.0,0.2346,0.007059,0.0,0.0,8.0,,,,,,0.39765,PASS,
172,s06_yaw_pi_turn,g000021_c2,21,,,,,,,,,3.6598054479959217,3.9209316240965975,,,,,3.2233,9.9768,1.645,0.0,0.2346,0.007059,0.0,0.0,8.0,,,,,,0.39763,PASS,
173,s06_yaw_pi_turn,g000021_c3,21,,,,,,,,,3.8412380078511137,6.972992456600763,,,,,3.2227,9.9679,1.6448,0.0,0.2345,0.007059,0.0,0.0,8.0,,,,,,0.39757,PASS,
174,s06_yaw_pi_turn,g000021_c4,21,,,,,,,,,3.0780168364700686,8.664847912332316,,,,,3.2233,9.9748,1.6452,0.0,0.2345,0.007059,0.0,0.0,8.0,,,,,,0.39793,PASS,
175,s06_yaw_pi_turn,g000021_c5,21,,,,,,,,,3.0230476796710577,3.886393949956279,,,,,3.2231,9.9739,1.6454,0.0,0.2346,0.007059,0.0,0.0,8.0,,,,,,0.39761,PASS,
176,s06_yaw_pi_turn,g000021_c6,21,,,,,,,,,4.23735707842672,3.6200383607578113,,,,,3.2232,9.9702,1.6449,0.0,0.2345,0.007059,0.0,0.0,8.0,,,,,,0.39762,PASS,
177,s06_yaw_pi_turn,g000021_c7,21,,,,,,,,,2.751876861589748,5.744506310397849,,,,,3.2232,9.9776,1.6448,0.0,0.2346,0.007059,0.0,0.0,8.0,,,,,,0.39762,PASS,
178,s06_yaw_pi_turn,g000022_c0,22,,,,,,,,,3.733013239211153,5.986717299108641,,,,,3.2236,9.9758,1.6452,0.0,0.2346,0.007059,0.0,0.0,8.0,,,,,,0.39766,PASS,
179,s06_yaw_pi_turn,g000022_c1,22,,,,,,,,,3.480764312496316,6.766008872800437,,,,,3.2236,9.9794,1.6453,0.0,0.2346,0.007059,0.0,0.0,8.0,,,,,,0.39766,PASS,
180,s06_yaw_pi_turn,g000022_c2,22,,,,,,,,,2.210161389554036,9.395128339409316,,,,,3.2236,9.978,1.645,0.0,0.2345,0.007059,0.0,0.0,8.0,,,,,,0.39796,PASS,
181,s06_yaw_pi_turn,g000022_c3,22,,,,,,,,,3.5258402443623074,6.071790478552598,,,,,3.223,9.9701,1.6451,0.0,0.2345,0.007059,0.0,0.0,8.0,,,,,,0.3976,PASS,
182,s06_yaw_pi_turn,g000022_c4,22,,,,,,,,,2.4784096799654884,7.032287331150787,,,,,3.2233,9.9712,1.6454,0.0,0.2346,0.007059,0.0,0.0,8.0,,,,,,0.39763,PASS,
183,s06_yaw_pi_turn,g000022_c5,22,,,,,,,,,6.116263806998205,7.104010255555125,,,,,3.7793,12.9975,3.9949,0.0,0.6837,0.0071,0.0,8.0,8.0,,,,,,0.59603,PASS,
184,s06_yaw_pi_turn,g000022_c6,22,,,,,,,,,5.966702106842443,7.04093273804736,,,,,3.8154,13.9196,4.5844,0.0,0.8095,0.007119,0.0,6.932,8.0,,,,,,0.60054,PASS,
185,s06_yaw_pi_turn,g000022_c7,22,,,,,,,,,2.129467756350288,6.788825634500102,,,,,3.2232,9.9728,1.6451,0.0,0.2346,0.007059,0.0,0.0,8.0,,,,,,0.39792,PASS,
186,s06_yaw_pi_turn,g000023_c0,23,,,,,,,,,3.6761198821515952,6.351865812894307,,,,,3.2231,9.9741,1.6448,0.0,0.2345,0.007059,0.0,0.0,8.0,,,,,,0.39761,PASS,
187,s06_yaw_pi_turn,g000023_c1,23,,,,,,,,,3.6930202119396407,5.012731536190879,,,,,3.2235,9.9756,1.6452,0.0,0.2346,0.007059,0.0,0.0,8.0,,,,,,0.39765,PASS,
188,s06_yaw_pi_turn,g000023_c2,23,,,,,,,,,3.0679770317031196,3.816153987402718,,,,,3.2235,9.9765,1.6451,0.0,0.2346,0.007059,0.0,0.0,8.0,,,,,,0.39765,PASS,
189,s06_yaw_pi_turn,g000023_c3,23,,,,,,,,,3.3257199274534646,7.954287974159176,,,,,3.2229,9.9742,1.6452,0.0,0.2345,0.007059,0.0,0.0,8.0,,,,,,0.39759,PASS,
190,s06_yaw_pi_turn,g000023_c4,23,,,,,,,,,3.8670999219838023,5.486022173955301,,,,,3.2233,9.9738,1.6451,0.0,0.2346,0.007059,0.0,0.0,8.0,,,,,,0.39763,PASS,
191,s06_yaw_pi_turn,g000023_c5,23,,,,,,,,,3.7639755992032233,6.796400521211113,,,,,3.223,9.9754,1.6449,0.0,0.2346,0.007059,0.0,0.0,8.0,,,,,,0.3976,PASS,
192,s06_yaw_pi_turn,g000023_c6,23,,,,,,,,,5.22082464384671,6.90063169227212,,,,,3.8003,9.2198,3.9941,0.0,0.7435,0.007083,0.0,0.0,8.0,,,,,,0.57353,PASS,
193,s06_yaw_pi_turn,g000023_c7,23,,,,,,,,,4.187655087311299,7.6560276301943775,,,,,3.2235,9.9733,1.6451,0.0,0.2346,0.007059,0.0,0.0,8.0,,,,,,0.39765,PASS,
194,s06_yaw_pi_turn,g000024_c0,24,,,,,,,,,2.696387275802949,7.46212865463711,,,,,3.2233,9.9773,1.6448,0.0,0.2346,0.007059,0.0,0.0,8.0,,,,,,0.39763,PASS,
195,s06_yaw_pi_turn,g000024_c1,24,,,,,,,,,4.199735510660298,9.486239063646423,,,,,3.2231,9.9744,1.6448,0.0,0.2345,0.007059,0.0,0.0,8.0,,,,,,0.39791,PASS,
196,s06_yaw_pi_turn,g000024_c2,24,,,,,,,,,5.8351965816307185,5.289995218315989,,,,,3.6387,11.0795,4.1713,0.0,0.727,0.007105,0.0,2.334,8.0,,,,,,0.58677,PASS,
197,s06_yaw_pi_turn,g000024_c3,24,,,,,,,,,3.733370940714762,5.683943050300432,,,,,3.2229,9.975,1.6447,0.0,0.2345,0.007059,0.0,0.0,8.0,,,,,,0.39759,PASS,
198,s06_yaw_pi_turn,g000024_c4,24,,,,,,,,,2.964809972648528,5.965910520340471,,,,,3.2235,9.9753,1.645,0.0,0.2346,0.007059,0.0,0.0,8.0,,,,,,0.39765,PASS,
199,s06_yaw_pi_turn,g000024_c5,24,,,,,,,,,3.343279398517858,6.736240401252464,,,,,3.2235,9.9785,1.6451,0.0,0.2346,0.007059,0.0,0.0,8.0,,,,,,0.39765,PASS,
200,s06_yaw_pi_turn,g000024_c6,24,,,,,,,,,3.2111330114551153,6.09337741235037,,,,,3.2236,9.9767,1.6451,0.0,0.2346,0.007059,0.0,0.0,8.0,,,,,,0.39766,PASS,
201,s06_yaw_pi_turn,g000024_c7,24,,,,,,,,,3.338480551612688,7.34157381672006,,,,,3.2232,9.9727,1.6452,0.0,0.2346,0.007059,0.0,0.0,8.0,,,,,,0.39762,PASS,
202,s06_yaw_pi_turn,g000025_c0,25,,,,,,,,,3.810436343162804,6.223203258844663,,,,,3.2232,9.9744,1.645,0.0,0.2346,0.007059,0.0,0.0,8.0,,,,,,0.39762,PASS,
203,s06_yaw_pi_turn,g000025_c1,25,,,,,,,,,5.9471865086357285,9.051086641161598,,,,,3.7568,13.661,4.4168,0.0,0.7616,0.007105,0.0,8.0,8.0,,,,,,0.58688,PASS,
204,s06_yaw_pi_turn,g000025_c2,25,,,,,,,,,3.834061916380301,8.700028296225355,,,,,3.2236,9.9788,1.6452,0.0,0.2346,0.007059,0.0,0.0,8.0,,,,,,0.39766,PASS,
205,s06_yaw_pi_turn,g000025_c3,25,,,,,,,,,3.253589945336876,6.747145258315394,,,,,3.2232,9.9745,1.6449,0.0,0.2345,0.007059,0.0,0.0,8.0,,,,,,0.39762,PASS,
206,s06_yaw_pi_turn,g000025_c4,25,,,,,,,,,3.6621195447432013,7.584408010675918,,,,,3.223,9.9715,1.6449,0.0,0.2346,0.007059,0.0,0.0,8.0,,,,,,0.3976,PASS,
207,s06_yaw_pi_turn,g000025_c5,25,,,,,,,,,4.570293580322328,5.148660827432969,,,,,3.2229,9.9718,1.6449,0.0,0.2345,0.007059,0.0,0.0,8.0,,,,,,0.39759,PASS,
208,s06_yaw_pi_turn,g000025_c6,25,,,,,,,,,4.916566157056545,7.36609130005017,,,,,3.2278,9.9602,1.6496,0.0,0.2659,0.007064,0.0,0.0,8.0,,,,,,0.41098,PASS,
209,s06_yaw_pi_turn,g000025_c7,25,,,,,,,,,3.785995514944076,8.276271916145793,,,,,3.2235,9.9762,1.6451,0.0,0.2346,0.007059,0.0,0.0,8.0,,,,,,0.39765,PASS,
210,s06_yaw_pi_turn,g000026_c0,26,,,,,,,,,4.350749168855747,7.280788298983181,,,,,3.2235,9.9789,1.6453,0.0,0.2346,0.007059,0.0,0.0,8.0,,,,,,0.39765,PASS,
211,s06_yaw_pi_turn,g000026_c1,26,,,,,,,,,4.267545152964589,6.597492853190572,,,,,3.2234,9.9775,1.645,0.0,0.2346,0.007059,0.0,0.0,8.0,,,,,,0.39764,PASS,
212,s06_yaw_pi_turn,g000026_c2,26,,,,,,,,,3.23736308634483,4.50496999940959,,,,,3.2233,9.9787,1.6452,0.0,0.2346,0.007059,0.0,0.0,8.0,,,,,,0.39763,PASS,
213,s06_yaw_pi_turn,g000026_c3,26,,,,,,,,,4.031948653936792,5.858877333362167,,,,,3.2233,9.9751,1.645,0.0,0.2346,0.007059,0.0,0.0,8.0,,,,,,0.39763,PASS,
214,s06_yaw_pi_turn,g000026_c4,26,,,,,,,,,3.2514797446541963,6.045658237769821,,,,,3.2237,9.981,1.6452,0.0,0.2345,0.007059,0.0,0.0,8.0,,,,,,0.39767,PASS,
215,s06_yaw_pi_turn,g000026_c5,26,,,,,,,,,4.270994886816742,7.682885900607964,,,,,3.2234,9.9742,1.6453,0.0,0.2346,0.007059,0.0,0.0,8.0,,,,,,0.39764,PASS,
216,s06_yaw_pi_turn,g000026_c6,26,,,,,,,,,3.0100124609970047,7.539418615536227,,,,,3.2238,9.9786,1.6455,0.0,0.2345,0.007059,0.0,0.0,8.0,,,,,,0.39768,PASS,
217,s06_yaw_pi_turn,g000026_c7,26,,,,,,,,,4.12065646830534,8.545955639549511,,,,,3.2235,9.976,1.6452,0.0,0.2346,0.007059,0.0,0.0,8.0,,,,,,0.39765,PASS,
218,s06_yaw_pi_turn,g000027_c0,27,,,,,,,,,4.072802227404689,8.053860838247937,,,,,3.2233,9.9783,1.6451,0.0,0.2345,0.007059,0.0,0.0,8.0,,,,,,0.39763,PASS,
219,s06_yaw_pi_turn,g000027_c1,27,,,,,,,,,3.6567724694539923,7.057870837374912,,,,,3.2237,9.9752,1.6451,0.0,0.2346,0.007059,0.0,0.0,8.0,,,,,,0.39767,PASS,
220,s06_yaw_pi_turn,g000027_c2,27,,,,,,,,,4.106751560314773,5.710941090257908,,,,,3.2234,9.9739,1.6449,0.0,0.2346,0.007059,0.0,0.0,8.0,,,,,,0.39764,PASS,
221,s06_yaw_pi_turn,g000027_c3,27,,,,,,,,,3.16865033219477,6.37843048560431,,,,,3.2234,9.9779,1.6453,0.0,0.2346,0.007059,0.0,0.0,8.0,,,,,,0.39764,PASS,
222,s06_yaw_pi_turn,g000027_c4,27,,,,,,,,,3.3576838547658125,6.888083551628249,,,,,3.2233,9.9764,1.6449,0.0,0.2346,0.007059,0.0,0.0,8.0,,,,,,0.39763,PASS,
223,s06_yaw_pi_turn,g000027_c5,27,,,,,,,,,4.342270918949024,6.791672541088167,,,,,3.223,9.9765,1.6449,0.0,0.2345,0.007059,0.0,0.0,8.0,,,,,,0.3976,PASS,
224,s06_yaw_pi_turn,g000027_c6,27,,,,,,,,,3.592674724037241,7.97269398220942,,,,,3.2233,9.9746,1.6453,0.0,0.2346,0.007059,0.0,0.0,8.0,,,,,,0.39763,PASS,
225,s06_yaw_pi_turn,g000027_c7,27,,,,,,,,,3.721210290820109,6.8679534837217995,,,,,3.2236,9.9776,1.6453,0.0,0.2345,0.007059,0.0,0.0,8.0,,,,,,0.39766,PASS,
226,s06_yaw_pi_turn,g000028_c0,28,,,,,,,,,3.565382075162255,6.603628556186862,,,,,3.2234,9.9758,1.6452,0.0,0.2346,0.007059,0.0,0.0,8.0,,,,,,0.39764,PASS,
227,s06_yaw_pi_turn,g000028_c1,28,,,,,,,,,4.144211149571048,6.068003690237967,,,,,3.2233,9.9737,1.645,0.0,0.2346,0.007059,0.0,0.0,8.0,,,,,,0.39763,PASS,
228,s06_yaw_pi_turn,g000028_c2,28,,,,,,,,,3.7084938099814093,6.929269742877521,,,,,3.2235,9.9766,1.6453,0.0,0.2346,0.007059,0.0,0.0,8.0,,,,,,0.39765,PASS,
229,s06_yaw_pi_turn,g000028_c3,28,,,,,,,,,3.7286037295688312,5.414750309016079,,,,,3.2233,9.9725,1.6453,0.0,0.2345,0.007059,0.0,0.0,8.0,,,,,,0.39763,PASS,
230,s06_yaw_pi_turn,g000028_c4,28,,,,,,,,,3.7973489195557963,7.1932619180276385,,,,,3.2232,9.9775,1.6451,0.0,0.2346,0.007059,0.0,0.0,8.0,,,,,,0.39762,PASS,
231,s06_yaw_pi_turn,g000028_c5,28,,,,,,,,,3.6390744835482995,6.044005337728505,,,,,3.223,9.9774,1.6452,0.0,0.2346,0.007059,0.0,0.0,8.0,,,,,,0.3976,PASS,
232,s06_yaw_pi_turn,g000028_c6,28,,,,,,,,,3.859966023626396,6.679403009823235,,,,,3.2232,9.974,1.6448,0.0,0.2346,0.007059,0.0,0.0,8.0,,,,,,0.39762,PASS,
233,s06_yaw_pi_turn,g000028_c7,28,,,,,,,,,3.3525947828908675,7.631686635862919,,,,,3.2231,9.9759,1.6447,0.0,0.2346,0.007059,0.0,0.0,8.0,,,,,,0.39761,PASS,
234,s06_yaw_pi_turn,g000029_c0,29,,,,,,,,,3.5612506642769244,6.021575320437197,,,,,3.2232,9.979,1.645,0.0,0.2345,0.007059,0.0,0.0,8.0,,,,,,0.39762,PASS,
235,s06_yaw_pi_turn,g000029_c1,29,,,,,,,,,3.2626403239636166,7.092278171487707,,,,,3.2234,9.9767,1.645,0.0,0.2345,0.007059,0.0,0.0,8.0,,,,,,0.39764,PASS,
236,s06_yaw_pi_turn,g000029_c2,29,,,,,,,,,4.323121619170088,7.308146820745709,,,,,3.2233,9.9744,1.6449,0.0,0.2345,0.007059,0.0,0.0,8.0,,,,,,0.39763,PASS,
237,s06_yaw_pi_turn,g000029_c3,29,,,,,,,,,3.487459174531392,6.643848381145576,,,,,3.2234,9.9792,1.6451,0.0,0.2346,0.007059,0.0,0.0,8.0,,,,,,0.39764,PASS,
238,s06_yaw_pi_turn,g000029_c4,29,,,,,,,,,3.920079223948539,7.623876297147182,,,,,3.2234,9.9771,1.6451,0.0,0.2346,0.007059,0.0,0.0,8.0,,,,,,0.39764,PASS,
239,s06_yaw_pi_turn,g000029_c5,29,,,,,,,,,4.085496650676992,6.268510654625436,,,,,3.2235,9.9774,1.6451,0.0,0.2345,0.007059,0.0,0.0,8.0,,,,,,0.39765,PASS,
240,s06_yaw_pi_turn,g000029_c6,29,,,,,,,,,4.009381787064967,6.502598240691538,,,,,3.2233,9.9735,1.645,0.0,0.2346,0.007059,0.0,0.0,8.0,,,,,,0.39763,PASS,
241,s06_yaw_pi_turn,g000029_c7,29,,,,,,,,,3.5159502173648067,6.965327482811421,,,,,3.2232,9.9718,1.6448,0.0,0.2345,0.007059,0.0,0.0,8.0,,,,,,0.39762,PASS,
242,s06_yaw_pi_turn,g000030_c0,30,,,,,,,,,3.547133187240351,6.52099131830282,,,,,3.2233,9.9714,1.6451,0.0,0.2345,0.007059,0.0,0.0,8.0,,,,,,0.39763,PASS,
243,s06_yaw_pi_turn,g000030_c1,30,,,,,,,,,3.8460441350248376,6.857371091869795,,,,,3.2238,9.9745,1.6454,0.0,0.2346,0.007059,0.0,0.0,8.0,,,,,,0.39768,PASS,
244,s06_yaw_pi_turn,g000030_c2,30,,,,,,,,,3.3087377239901694,6.8914260309543165,,,,,3.2236,9.9771,1.6452,0.0,0.2346,0.007059,0.0,0.0,8.0,,,,,,0.39766,PASS,
245,s06_yaw_pi_turn,g000030_c3,30,,,,,,,,,3.975631878852993,7.96558117176435,,,,,3.2231,9.9742,1.6452,0.0,0.2345,0.007059,0.0,0.0,8.0,,,,,,0.39761,PASS,
246,s06_yaw_pi_turn,g000030_c4,30,,,,,,,,,4.011794336887295,7.496428966572925,,,,,3.2236,9.9791,1.6453,0.0,0.2345,0.007059,0.0,0.0,8.0,,,,,,0.39766,PASS,
247,s06_yaw_pi_turn,g000030_c5,30,,,,,,,,,3.730333147695353,6.863002645989213,,,,,3.2235,9.9774,1.6451,0.0,0.2346,0.007059,0.0,0.0,8.0,,,,,,0.39765,PASS,
248,s06_yaw_pi_turn,g000030_c6,30,,,,,,,,,3.9574602833093984,6.408852652541708,,,,,3.2232,9.9766,1.645,0.0,0.2346,0.007059,0.0,0.0,8.0,,,,,,0.39762,PASS,
249,s06_yaw_pi_turn,g000030_c7,30,,,,,,,,,3.8940972683654813,7.866845424218889,,,,,3.2233,9.9783,1.6452,0.0,0.2346,0.007059,0.0,0.0,8.0,,,,,,0.39763,PASS,
250,s06_yaw_pi_turn,g000031_c0,31,,,,,,,,,4.115950789091569,6.71253694944806,,,,,3.2234,9.9781,1.6451,0.0,0.2346,0.007059,0.0,0.0,8.0,,,,,,0.39764,PASS,
251,s06_yaw_pi_turn,g000031_c1,31,,,,,,,,,3.91782929932792,6.640337280428776,,,,,3.2236,9.9762,1.6452,0.0,0.2345,0.007059,0.0,0.0,8.0,,,,,,0.39766,PASS,
252,s06_yaw_pi_turn,g000031_c2,31,,,,,,,,,3.9761539036863125,7.150880558902155,,,,,3.2235,9.978,1.645,0.0,0.2346,0.007059,0.0,0.0,8.0,,,,,,0.39765,PASS,
253,s06_yaw_pi_turn,g000031_c3,31,,,,,,,,,3.5940657847240907,6.645872601740026,,,,,3.2233,9.9761,1.6449,0.0,0.2346,0.007059,0.0,0.0,8.0,,,,,,0.39763,PASS,
254,s06_yaw_pi_turn,g000031_c4,31,,,,,,,,,3.869485711304182,7.24807484415151,,,,,3.2235,9.9754,1.6451,0.0,0.2346,0.007059,0.0,0.0,8.0,,,,,,0.39765,PASS,
255,s06_yaw_pi_turn,g000031_c5,31,,,,,,,,,3.846551387008741,7.360377063713608,,,,,3.2238,9.9772,1.6452,0.0,0.2346,0.007059,0.0,0.0,8.0,,,,,,0.39768,PASS,
256,s06_yaw_pi_turn,g000031_c6,31,,,,,,,,,3.8027486831641957,7.133569520876282,,,,,3.223,9.9726,1.6449,0.0,0.2346,0.007059,0.0,0.0,8.0,,,,,,0.3976,PASS,
257,s06_yaw_pi_turn,g000031_c7,31,,,,,,,,,4.021735483701643,6.325801536809723,,,,,3.2231,9.9732,1.6449,0.0,0.2345,0.007059,0.0,0.0,8.0,,,,,,0.39761,PASS,
258,s06_yaw_pi_turn,g000032_c0,32,,,,,,,,,3.986341105162137,6.82338044488693,,,,,3.2235,9.9781,1.6451,0.0,0.2345,0.007059,0.0,0.0,8.0,,,,,,0.39765,PASS,
259,s06_yaw_pi_turn,g000032_c1,32,,,,,,,,,3.9871390066133796,7.097727015654463,,,,,3.2237,9.9753,1.6454,0.0,0.2346,0.007059,0.0,0.0,8.0,,,,,,0.39767,PASS,
260,s06_yaw_pi_turn,g000032_c2,32,,,,,,,,,3.6556667275045114,7.01858167847622,,,,,3.2233,9.978,1.645,0.0,0.2346,0.007059,0.0,0.0,8.0,,,,,,0.39763,PASS,
261,s06_yaw_pi_turn,g000032_c3,32,,,,,,,,,3.919989439886668,7.334529770042688,,,,,3.2234,9.9774,1.6451,0.0,0.2346,0.007059,0.0,0.0,8.0,,,,,,0.39764,PASS,
262,s06_yaw_pi_turn,g000032_c4,32,,,,,,,,,3.690021812243763,6.908939376523246,,,,,3.2236,9.9757,1.6456,0.0,0.2346,0.007059,0.0,0.0,8.0,,,,,,0.39766,PASS,
263,s06_yaw_pi_turn,g000032_c5,32,,,,,,,,,3.832586743943116,7.183004468072148,,,,,3.2233,9.9728,1.645,0.0,0.2346,0.007059,0.0,0.0,8.0,,,,,,0.39763,PASS,
264,s06_yaw_pi_turn,g000032_c6,32,,,,,,,,,3.8077179355849413,6.624950117666253,,,,,3.2233,9.9752,1.6449,0.0,0.2345,0.007059,0.0,0.0,8.0,,,,,,0.39763,PASS,
265,s06_yaw_pi_turn,g000032_c7,32,,,,,,,,,3.6404370579924055,6.804747332973651,,,,,3.2231,9.9781,1.6448,0.0,0.2346,0.007059,0.0,0.0,8.0,,,,,,0.39761,PASS,
266,s06_yaw_pi_turn,g000033_c0,33,,,,,,,,,3.9396881767061074,6.797700310689574,,,,,3.2238,9.98,1.6449,0.0,0.2346,0.007059,0.0,0.0,8.0,,,,,,0.39768,PASS,
267,s06_yaw_pi_turn,g000033_c1,33,,,,,,,,,3.6912126584235136,6.834180173550842,,,,,3.2235,9.977,1.6452,0.0,0.2345,0.007059,0.0,0.0,8.0,,,,,,0.39765,PASS,
268,s06_yaw_pi_turn,g000033_c2,33,,,,,,,,,3.8814215802357577,7.131772432870301,,,,,3.2233,9.9736,1.645,0.0,0.2346,0.007059,0.0,0.0,8.0,,,,,,0.39763,PASS,
269,s06_yaw_pi_turn,g000033_c3,33,,,,,,,,,3.7012889477619493,6.7382307011888365,,,,,3.2234,9.9754,1.6452,0.0,0.2345,0.007059,0.0,0.0,8.0,,,,,,0.39764,PASS,
270,s06_yaw_pi_turn,g000033_c4,33,,,,,,,,,3.861329718683665,7.014013178931855,,,,,3.2234,9.9809,1.6449,0.0,0.2345,0.007059,0.0,0.0,8.0,,,,,,0.39764,PASS,
271,s06_yaw_pi_turn,g000033_c5,33,,,,,,,,,3.8752766146164053,7.284887517202118,,,,,3.2234,9.975,1.6453,0.0,0.2346,0.007059,0.0,0.0,8.0,,,,,,0.39764,PASS,
272,s06_yaw_pi_turn,g000033_c6,33,,,,,,,,,3.878403239154511,7.071424901201792,,,,,3.2238,9.9753,1.6452,0.0,0.2346,0.007059,0.0,0.0,8.0,,,,,,0.39768,PASS,
273,s06_yaw_pi_turn,g000033_c7,33,,,,,,,,,3.9695600962276423,6.705178349258393,,,,,3.2237,9.9796,1.6453,0.0,0.2346,0.007059,0.0,0.0,8.0,,,,,,0.39767,PASS,
274,s06_yaw_pi_turn,g000034_c0,34,,,,,,,,,3.8341033810171905,7.317594029291151,,,,,3.2235,9.9755,1.6449,0.0,0.2345,0.007059,0.0,0.0,8.0,,,,,,0.39765,PASS,
275,s06_yaw_pi_turn,g000034_c1,34,,,,,,,,,3.627323851905379,6.954784142944383,,,,,3.2236,9.981,1.6446,0.0,0.2346,0.007059,0.0,0.0,8.0,,,,,,0.39766,PASS,
276,s06_yaw_pi_turn,g000034_c2,34,,,,,,,,,3.86410521600678,6.683621365681632,,,,,3.2232,9.9739,1.6451,0.0,0.2345,0.007059,0.0,0.0,8.0,,,,,,0.39762,PASS,
277,s06_yaw_pi_turn,g000034_c3,34,,,,,,,,,3.7212406754978904,7.035898764767783,,,,,3.2238,9.9794,1.6452,0.0,0.2346,0.007059,0.0,0.0,8.0,,,,,,0.39768,PASS,
278,s06_yaw_pi_turn,g000034_c4,34,,,,,,,,,4.0055542832851865,7.498271087796906,,,,,3.2235,9.9729,1.6452,0.0,0.2346,0.007059,0.0,0.0,8.0,,,,,,0.39765,PASS,
279,s06_yaw_pi_turn,g000034_c5,34,,,,,,,,,3.801641567305024,7.2381729754763535,,,,,3.2236,9.9783,1.6451,0.0,0.2345,0.007059,0.0,0.0,8.0,,,,,,0.39766,PASS,
280,s06_yaw_pi_turn,g000034_c6,34,,,,,,,,,3.9148189440037924,7.11135089791201,,,,,3.223,9.9752,1.6448,0.0,0.2346,0.007059,0.0,0.0,8.0,,,,,,0.3976,PASS,
281,s06_yaw_pi_turn,g000034_c7,34,,,,,,,,,3.883732679115439,6.952203362661792,,,,,3.2234,9.9769,1.6453,0.0,0.2346,0.007059,0.0,0.0,8.0,,,,,,0.39764,PASS,
282,s06_yaw_pi_turn,g000035_c0,35,,,,,,,,,3.8450545313545215,7.024671925976398,,,,,3.223,9.9738,1.6453,0.0,0.2346,0.007059,0.0,0.0,8.0,,,,,,0.3976,PASS,
283,s06_yaw_pi_turn,g000035_c1,35,,,,,,,,,3.976326040794694,6.7021632591254825,,,,,3.2235,9.9787,1.6452,0.0,0.2346,0.007059,0.0,0.0,8.0,,,,,,0.39765,PASS,
284,s06_yaw_pi_turn,g000035_c2,35,,,,,,,,,3.755643491067078,7.1310246171428595,,,,,3.223,9.9755,1.6448,0.0,0.2345,0.007059,0.0,0.0,8.0,,,,,,0.3976,PASS,
285,s06_yaw_pi_turn,g000035_c3,35,,,,,,,,,3.800916179920041,6.860242387742066,,,,,3.2231,9.9761,1.6451,0.0,0.2346,0.007059,0.0,0.0,8.0,,,,,,0.39761,PASS,
286,s06_yaw_pi_turn,g000035_c4,35,,,,,,,,,3.8973054034891548,6.765760898818531,,,,,3.2235,9.9754,1.6454,0.0,0.2345,0.007059,0.0,0.0,8.0,,,,,,0.39765,PASS,
287,s06_yaw_pi_turn,g000035_c5,35,,,,,,,,,3.9172125109329543,6.9866485094742234,,,,,3.2234,9.98,1.6448,0.0,0.2345,0.007059,0.0,0.0,8.0,,,,,,0.39764,PASS,
288,s06_yaw_pi_turn,g000035_c6,35,,,,,,,,,3.731998663727614,7.20347445016868,,,,,3.2235,9.9754,1.6454,0.0,0.2346,0.007059,0.0,0.0,8.0,,,,,,0.39765,PASS,
289,s06_yaw_pi_turn,g000035_c7,35,,,,,,,,,3.8227249231789164,7.229897491118024,,,,,3.2236,9.9775,1.6453,0.0,0.2346,0.007059,0.0,0.0,8.0,,,,,,0.39766,PASS,
290,s06_yaw_pi_turn,g000036_c0,36,,,,,,,,,3.883486355939119,7.223950780936199,,,,,3.2236,9.9798,1.6451,0.0,0.2346,0.007059,0.0,0.0,8.0,,,,,,0.39766,PASS,
291,s06_yaw_pi_turn,g000036_c1,36,,,,,,,,,3.702691944562384,7.26459835513304,,,,,3.2233,9.9723,1.6449,0.0,0.2345,0.007059,0.0,0.0,8.0,,,,,,0.39763,PASS,
292,s06_yaw_pi_turn,g000036_c2,36,,,,,,,,,3.727634281446226,6.994917399863445,,,,,3.2235,9.9732,1.6453,0.0,0.2345,0.007059,0.0,0.0,8.0,,,,,,0.39765,PASS,
293,s06_yaw_pi_turn,g000036_c3,36,,,,,,,,,3.644945026793206,6.81498017170992,,,,,3.2236,9.9774,1.6451,0.0,0.2346,0.007059,0.0,0.0,8.0,,,,,,0.39766,PASS,
294,s06_yaw_pi_turn,g000036_c4,36,,,,,,,,,3.786533961878304,7.0222168075884515,,,,,3.2234,9.9731,1.6453,0.0,0.2346,0.007059,0.0,0.0,8.0,,,,,,0.39764,PASS,
295,s06_yaw_pi_turn,g000036_c5,36,,,,,,,,,3.982208675761273,7.254876487447965,,,,,3.2234,9.9754,1.6451,0.0,0.2346,0.007059,0.0,0.0,8.0,,,,,,0.39764,PASS,
296,s06_yaw_pi_turn,g000036_c6,36,,,,,,,,,3.885474714000386,7.039331627831334,,,,,3.2237,9.9786,1.6453,0.0,0.2346,0.007059,0.0,0.0,8.0,,,,,,0.39767,PASS,
297,s06_yaw_pi_turn,g000036_c7,36,,,,,,,,,3.8739829150445337,7.0256989843906865,,,,,3.2231,9.9699,1.6451,0.0,0.2346,0.007059,0.0,0.0,8.0,,,,,,0.39761,PASS,
298,s06_yaw_pi_turn,g000037_c0,37,,,,,,,,,3.894167622595904,6.742066397656033,,,,,3.2235,9.9771,1.6454,0.0,0.2346,0.007059,0.0,0.0,8.0,,,,,,0.39765,PASS,
299,s06_yaw_pi_turn,g000037_c1,37,,,,,,,,,3.830723028527211,6.855633329454316,,,,,3.2233,9.9778,1.6451,0.0,0.2346,0.007059,0.0,0.0,8.0,,,,,,0.39763,PASS,
300,s06_yaw_pi_turn,g000037_c2,37,,,,,,,,,3.8129381441200985,7.041393329928765,,,,,3.2234,9.9732,1.6451,0.0,0.2346,0.007059,0.0,0.0,8.0,,,,,,0.39764,PASS,
301,s06_yaw_pi_turn,g000037_c3,37,,,,,,,,,3.9783633996109162,6.909795021035029,,,,,3.2235,9.9751,1.645,0.0,0.2345,0.007059,0.0,0.0,8.0,,,,,,0.39765,PASS,
302,s06_yaw_pi_turn,g000037_c4,37,,,,,,,,,3.838723314946728,6.82973354642633,,,,,3.2232,9.9731,1.6451,0.0,0.2346,0.007059,0.0,0.0,8.0,,,,,,0.39762,PASS,
303,s06_yaw_pi_turn,g000037_c5,37,,,,,,,,,3.968995433942775,6.959880508044259,,,,,3.2237,9.9804,1.6451,0.0,0.2346,0.007059,0.0,0.0,8.0,,,,,,0.39767,PASS,
304,s06_yaw_pi_turn,g000037_c6,37,,,,,,,,,3.712599713609492,7.12603411731886,,,,,3.2235,9.979,1.6452,0.0,0.2346,0.007059,0.0,0.0,8.0,,,,,,0.39765,PASS,
305,s06_yaw_pi_turn,g000037_c7,37,,,,,,,,,3.8834465067075414,7.036017837412507,,,,,3.2232,9.9754,1.645,0.0,0.2346,0.007059,0.0,0.0,8.0,,,,,,0.39762,PASS,
306,s06_yaw_pi_turn,g000038_c0,38,,,,,,,,,3.925143204879844,7.17816710473214,,,,,3.2235,9.978,1.6452,0.0,0.2346,0.007059,0.0,0.0,8.0,,,,,,0.39765,PASS,
307,s06_yaw_pi_turn,g000038_c1,38,,,,,,,,,3.816506497370439,6.988584658261345,,,,,3.2237,9.9772,1.6452,0.0,0.2346,0.007059,0.0,0.0,8.0,,,,,,0.39767,PASS,
308,s06_yaw_pi_turn,g000038_c2,38,,,,,,,,,3.761955793297866,6.964408248604595,,,,,3.2237,9.9799,1.6453,0.0,0.2346,0.007059,0.0,0.0,8.0,,,,,,0.39767,PASS,
309,s06_yaw_pi_turn,g000038_c3,38,,,,,,,,,3.836763142371442,6.921330376205892,,,,,3.2236,9.9743,1.6453,0.0,0.2345,0.007059,0.0,0.0,8.0,,,,,,0.39766,PASS,
310,s06_yaw_pi_turn,g000038_c4,38,,,,,,,,,3.768465599387962,7.102718173252172,,,,,3.2231,9.9725,1.6451,0.0,0.2346,0.007059,0.0,0.0,8.0,,,,,,0.39761,PASS,
311,s06_yaw_pi_turn,g000038_c5,38,,,,,,,,,3.82790951091022,6.833672940743472,,,,,3.2231,9.9731,1.6448,0.0,0.2346,0.007059,0.0,0.0,8.0,,,,,,0.39761,PASS,
312,s06_yaw_pi_turn,g000038_c6,38,,,,,,,,,3.701667847107512,7.044918014402365,,,,,3.2238,9.976,1.6453,0.0,0.2346,0.007059,0.0,0.0,8.0,,,,,,0.39768,PASS,
313,s06_yaw_pi_turn,g000038_c7,38,,,,,,,,,3.918261369580101,7.368134496484507,,,,,3.2236,9.9744,1.6452,0.0,0.2345,0.007059,0.0,0.0,8.0,,,,,,0.39766,PASS,
314,s06_yaw_pi_turn,g000039_c0,39,,,,,,,,,3.792134358491454,6.964073482820279,,,,,3.2234,9.9777,1.6451,0.0,0.2346,0.007059,0.0,0.0,8.0,,,,,,0.39764,PASS,
315,s06_yaw_pi_turn,g000039_c1,39,,,,,,,,,3.872340532911581,7.096745812351128,,,,,3.2232,9.9722,1.645,0.0,0.2345,0.007059,0.0,0.0,8.0,,,,,,0.39762,PASS,
316,s06_yaw_pi_turn,g000039_c2,39,,,,,,,,,3.929499484897114,6.721741065440821,,,,,3.2235,9.9775,1.645,0.0,0.2346,0.007059,0.0,0.0,8.0,,,,,,0.39765,PASS,
317,s06_yaw_pi_turn,g000039_c3,39,,,,,,,,,3.867669417204642,6.794858473355108,,,,,3.2233,9.9738,1.6448,0.0,0.2346,0.007059,0.0,0.0,8.0,,,,,,0.39763,PASS,
318,s06_yaw_pi_turn,g000039_c4,39,,,,,,,,,3.7799713714179037,7.282960663522942,,,,,3.2233,9.9746,1.6452,0.0,0.2346,0.007059,0.0,0.0,8.0,,,,,,0.39763,PASS,
319,s06_yaw_pi_turn,g000039_c5,39,,,,,,,,,3.9328211168612826,7.101452738453771,,,,,3.2234,9.9772,1.645,0.0,0.2346,0.007059,0.0,0.0,8.0,,,,,,0.39764,PASS,
320,s06_yaw_pi_turn,g000039_c6,39,,,,,,,,,3.9618241542881716,7.106762744986988,,,,,3.2234,9.9729,1.6453,0.0,0.2345,0.007059,0.0,0.0,8.0,,,,,,0.39764,PASS,
321,s06_yaw_pi_turn,g000039_c7,39,,,,,,,,,3.8230152165475793,6.986641259098269,,,,,3.2229,9.9748,1.6449,0.0,0.2345,0.007059,0.0,0.0,8.0,,,,,,0.39759,PASS,
322,s06_yaw_pi_turn,g000040_c0,40,,,,,,,,,3.9616988629047243,7.076436828105076,,,,,3.2234,9.9742,1.6453,0.0,0.2346,0.007059,0.0,0.0,8.0,,,,,,0.39764,PASS,
323,s06_yaw_pi_turn,g000040_c1,40,,,,,,,,,3.7319691979669227,6.832644494085815,,,,,3.2235,9.9763,1.6451,0.0,0.2346,0.007059,0.0,0.0,8.0,,,,,,0.39765,PASS,
324,s06_yaw_pi_turn,g000040_c2,40,,,,,,,,,3.844572171403072,6.838398576018407,,,,,3.2235,9.9771,1.6451,0.0,0.2346,0.007059,0.0,0.0,8.0,,,,,,0.39765,PASS,
325,s06_yaw_pi_turn,g000040_c3,40,,,,,,,,,3.8274645762456796,7.090754790279604,,,,,3.2236,9.9738,1.6452,0.0,0.2346,0.007059,0.0,0.0,8.0,,,,,,0.39766,PASS,
326,s06_yaw_pi_turn,g000040_c4,40,,,,,,,,,3.7787253575208877,6.768750796487539,,,,,3.2234,9.9732,1.645,0.0,0.2345,0.007059,0.0,0.0,8.0,,,,,,0.39764,PASS,
327,s06_yaw_pi_turn,g000040_c5,40,,,,,,,,,3.719925246820097,6.69193019666655,,,,,3.2231,9.974,1.6451,0.0,0.2346,0.007059,0.0,0.0,8.0,,,,,,0.39761,PASS,
328,s06_yaw_pi_turn,g000040_c6,40,,,,,,,,,3.875712881130216,6.9056700541281195,,,,,3.2234,9.9765,1.645,0.0,0.2346,0.007059,0.0,0.0,8.0,,,,,,0.39764,PASS,
329,s06_yaw_pi_turn,g000040_c7,40,,,,,,,,,3.8868768058343255,7.214321590862746,,,,,3.2232,9.9773,1.645,0.0,0.2346,0.007059,0.0,0.0,8.0,,,,,,0.39762,PASS,
330,s06_yaw_pi_turn,g000041_c0,41,,,,,,,,,3.904793002001207,6.602105239776432,,,,,3.2235,9.9822,1.645,0.0,0.2346,0.007059,0.0,0.0,8.0,,,,,,0.39765,PASS,
331,s06_yaw_pi_turn,g000041_c1,41,,,,,,,,,3.9006936780232024,6.996864091635422,,,,,3.2236,9.9745,1.6451,0.0,0.2346,0.007059,0.0,0.0,8.0,,,,,,0.39766,PASS,
332,s06_yaw_pi_turn,g000041_c2,41,,,,,,,,,3.857223402172115,6.897812473281861,,,,,3.2235,9.9781,1.645,0.0,0.2346,0.007059,0.0,0.0,8.0,,,,,,0.39765,PASS,
333,s06_yaw_pi_turn,g000041_c3,41,,,,,,,,,3.9398087138012854,7.084774679074114,,,,,3.2236,9.9736,1.6455,0.0,0.2346,0.007059,0.0,0.0,8.0,,,,,,0.39766,PASS,
334,s06_yaw_pi_turn,g000041_c4,41,,,,,,,,,3.7817234851632597,6.914435570699183,,,,,3.2232,9.9743,1.6449,0.0,0.2346,0.007059,0.0,0.0,8.0,,,,,,0.39762,PASS,
335,s06_yaw_pi_turn,g000041_c5,41,,,,,,,,,3.7810553759773238,7.003162629067389,,,,,3.2237,9.9769,1.645,0.0,0.2346,0.007059,0.0,0.0,8.0,,,,,,0.39767,PASS,
336,s06_yaw_pi_turn,g000041_c6,41,,,,,,,,,3.582030770432239,6.907299895254288,,,,,3.2232,9.9735,1.6452,0.0,0.2346,0.007059,0.0,0.0,8.0,,,,,,0.39762,PASS,
337,s06_yaw_pi_turn,g000041_c7,41,,,,,,,,,3.847201319364487,7.007529881524656,,,,,3.2233,9.9744,1.6449,0.0,0.2346,0.007059,0.0,0.0,8.0,,,,,,0.39763,PASS,
338,s06_yaw_pi_turn,g000042_c0,42,,,,,,,,,3.8084424386453866,7.079594889819052,,,,,3.2235,9.9769,1.6451,0.0,0.2346,0.007059,0.0,0.0,8.0,,,,,,0.39765,PASS,
339,s06_yaw_pi_turn,g000042_c1,42,,,,,,,,,4.014948344602486,6.953003145422598,,,,,3.2233,9.9766,1.645,0.0,0.2345,0.007059,0.0,0.0,8.0,,,,,,0.39763,PASS,
340,s06_yaw_pi_turn,g000042_c2,42,,,,,,,,,3.923261139241782,7.032628999454588,,,,,3.2232,9.9783,1.6451,0.0,0.2345,0.007059,0.0,0.0,8.0,,,,,,0.39762,PASS,
341,s06_yaw_pi_turn,g000042_c3,42,,,,,,,,,3.834707330263208,7.225998943680753,,,,,3.2238,9.9771,1.6452,0.0,0.2345,0.007059,0.0,0.0,8.0,,,,,,0.39768,PASS,
342,s06_yaw_pi_turn,g000042_c4,42,,,,,,,,,3.786752205593785,6.90183352318377,,,,,3.2235,9.9755,1.6451,0.0,0.2345,0.007059,0.0,0.0,8.0,,,,,,0.39765,PASS,
343,s06_yaw_pi_turn,g000042_c5,42,,,,,,,,,3.7947739855055636,6.824883383209276,,,,,3.2233,9.9744,1.6452,0.0,0.2346,0.007059,0.0,0.0,8.0,,,,,,0.39763,PASS,
344,s06_yaw_pi_turn,g000042_c6,42,,,,,,,,,3.8502054207393344,7.270735612543287,,,,,3.2235,9.9756,1.6449,0.0,0.2346,0.007059,0.0,0.0,8.0,,,,,,0.39765,PASS,
345,s06_yaw_pi_turn,g000042_c7,42,,,,,,,,,3.9813261938321927,6.868939097345394,,,,,3.2235,9.9769,1.6451,0.0,0.2346,0.007059,0.0,0.0,8.0,,,,,,0.39765,PASS,
346,s06_yaw_pi_turn,g000043_c0,43,,,,,,,,,3.990653971660005,6.853044822536904,,,,,3.2235,9.9739,1.645,0.0,0.2346,0.007059,0.0,0.0,8.0,,,,,,0.39765,PASS,
347,s06_yaw_pi_turn,g000043_c1,43,,,,,,,,,3.771526177294911,7.086238406582389,,,,,3.2232,9.9754,1.645,0.0,0.2345,0.007059,0.0,0.0,8.0,,,,,,0.39762,PASS,
348,s06_yaw_pi_turn,g000043_c2,43,,,,,,,,,3.922452196230119,7.143695545170714,,,,,3.2235,9.9763,1.6452,0.0,0.2346,0.007059,0.0,0.0,8.0,,,,,,0.39765,PASS,
349,s06_yaw_pi_turn,g000043_c3,43,,,,,,,,,3.6874824008328746,6.896247593684896,,,,,3.2234,9.9799,1.645,0.0,0.2345,0.007059,0.0,0.0,8.0,,,,,,0.39764,PASS,
350,s06_yaw_pi_turn,g000043_c4,43,,,,,,,,,3.8512689224329186,7.156645224631478,,,,,3.2236,9.9722,1.6453,0.0,0.2346,0.007059,0.0,0.0,8.0,,,,,,0.39766,PASS,
351,s06_yaw_pi_turn,g000043_c5,43,,,,,,,,,3.9011582328205807,6.952846018834268,,,,,3.2233,9.975,1.645,0.0,0.2345,0.007059,0.0,0.0,8.0,,,,,,0.39763,PASS,
352,s06_yaw_pi_turn,g000043_c6,43,,,,,,,,,3.877062579116811,6.921321224056084,,,,,3.2234,9.9763,1.6453,0.0,0.2346,0.007059,0.0,0.0,8.0,,,,,,0.39764,PASS,
353,s06_yaw_pi_turn,g000043_c7,43,,,,,,,,,3.61013339093251,7.231227935917502,,,,,3.2237,9.9762,1.6453,0.0,0.2346,0.007059,0.0,0.0,8.0,,,,,,0.39767,PASS,
354,s06_yaw_pi_turn,g000044_c0,44,,,,,,,,,3.697956236317811,7.076345580604625,,,,,3.2236,9.9788,1.6453,0.0,0.2346,0.007059,0.0,0.0,8.0,,,,,,0.39766,PASS,
355,s06_yaw_pi_turn,g000044_c1,44,,,,,,,,,3.7758475050061184,6.92361851691172,,,,,3.2237,9.9795,1.6453,0.0,0.2346,0.007059,0.0,0.0,8.0,,,,,,0.39767,PASS,
356,s06_yaw_pi_turn,g000044_c2,44,,,,,,,,,3.899875271777307,7.118559080307635,,,,,3.2228,9.9738,1.6449,0.0,0.2345,0.007059,0.0,0.0,8.0,,,,,,0.39758,PASS,
357,s06_yaw_pi_turn,g000044_c3,44,,,,,,,,,3.7959910185737904,6.96453878881828,,,,,3.2233,9.9763,1.6449,0.0,0.2346,0.007059,0.0,0.0,8.0,,,,,,0.39763,PASS,
358,s06_yaw_pi_turn,g000044_c4,44,,,,,,,,,3.916142212006115,7.058231394496928,,,,,3.2234,9.9757,1.6449,0.0,0.2346,0.007059,0.0,0.0,8.0,,,,,,0.39764,PASS,
359,s06_yaw_pi_turn,g000044_c5,44,,,,,,,,,3.8170915192259725,7.276816570711676,,,,,3.2236,9.9734,1.6451,0.0,0.2346,0.007059,0.0,0.0,8.0,,,,,,0.39766,PASS,
360,s06_yaw_pi_turn,g000044_c6,44,,,,,,,,,3.8034181071259487,6.785263290690231,,,,,3.2232,9.9766,1.6451,0.0,0.2345,0.007059,0.0,0.0,8.0,,,,,,0.39762,PASS,
361,s06_yaw_pi_turn,g000044_c7,44,,,,,,,,,3.667520254709828,7.036884356558632,,,,,3.2235,9.9758,1.6452,0.0,0.2346,0.007059,0.0,0.0,8.0,,,,,,0.39765,PASS,
362,s06_yaw_pi_turn,g000045_c0,45,,,,,,,,,3.81074811232442,7.095554846381953,,,,,3.2235,9.9757,1.6453,0.0,0.2345,0.007059,0.0,0.0,8.0,,,,,,0.39765,PASS,
363,s06_yaw_pi_turn,g000045_c1,45,,,,,,,,,3.7597252093201163,7.11079862339519,,,,,3.2232,9.9784,1.6448,0.0,0.2346,0.007059,0.0,0.0,8.0,,,,,,0.39762,PASS,
364,s06_yaw_pi_turn,g000045_c2,45,,,,,,,,,3.8613541932066333,6.894096138152947,,,,,3.2237,9.977,1.6453,0.0,0.2346,0.007059,0.0,0.0,8.0,,,,,,0.39767,PASS,
365,s06_yaw_pi_turn,g000045_c3,45,,,,,,,,,3.7466102979839135,7.128761859166055,,,,,3.2237,9.9756,1.6454,0.0,0.2346,0.007059,0.0,0.0,8.0,,,,,,0.39767,PASS,
366,s06_yaw_pi_turn,g000045_c4,45,,,,,,,,,3.8107333351004327,7.068837946158595,,,,,3.2234,9.9787,1.6452,0.0,0.2345,0.007059,0.0,0.0,8.0,,,,,,0.39764,PASS,
367,s06_yaw_pi_turn,g000045_c5,45,,,,,,,,,3.9135570928259518,7.02262450971078,,,,,3.2233,9.9709,1.6452,0.0,0.2346,0.007059,0.0,0.0,8.0,,,,,,0.39763,PASS,
368,s06_yaw_pi_turn,g000045_c6,45,,,,,,,,,3.7232092107040438,6.973526873816611,,,,,3.2236,9.9754,1.6455,0.0,0.2346,0.007059,0.0,0.0,8.0,,,,,,0.39766,PASS,
369,s06_yaw_pi_turn,g000045_c7,45,,,,,,,,,3.6962776512469033,7.014097425556635,,,,,3.2231,9.9754,1.6452,0.0,0.2346,0.007059,0.0,0.0,8.0,,,,,,0.39761,PASS,
370,s06_yaw_pi_turn,g000046_c0,46,,,,,,,,,3.897881826826191,7.1380239964416425,,,,,3.223,9.9705,1.645,0.0,0.2346,0.007059,0.0,0.0,8.0,,,,,,0.3976,PASS,
371,s06_yaw_pi_turn,g000046_c1,46,,,,,,,,,3.7809910276280485,6.744435601621475,,,,,3.2237,9.9788,1.6451,0.0,0.2346,0.007059,0.0,0.0,8.0,,,,,,0.39767,PASS,
372,s06_yaw_pi_turn,g000046_c2,46,,,,,,,,,3.7547622638959437,6.922259666504046,,,,,3.2232,9.9735,1.6449,0.0,0.2346,0.007059,0.0,0.0,8.0,,,,,,0.39762,PASS,
373,s06_yaw_pi_turn,g000046_c3,46,,,,,,,,,3.987263683329808,7.112344509665645,,,,,3.2234,9.9726,1.6451,0.0,0.2345,0.007059,0.0,0.0,8.0,,,,,,0.39764,PASS,
374,s06_yaw_pi_turn,g000046_c4,46,,,,,,,,,3.8556242226501025,6.855279713666805,,,,,3.2235,9.9771,1.6451,0.0,0.2346,0.007059,0.0,0.0,8.0,,,,,,0.39765,PASS,
375,s06_yaw_pi_turn,g000046_c5,46,,,,,,,,,3.794438385932094,7.032639320627253,,,,,3.2232,9.9717,1.6452,0.0,0.2346,0.007059,0.0,0.0,8.0,,,,,,0.39762,PASS,
376,s06_yaw_pi_turn,g000046_c6,46,,,,,,,,,3.7948094970467734,6.793842639198566,,,,,3.2234,9.9763,1.6451,0.0,0.2346,0.007059,0.0,0.0,8.0,,,,,,0.39764,PASS,
377,s06_yaw_pi_turn,g000046_c7,46,,,,,,,,,3.8260925499509133,7.054338824757524,,,,,3.2236,9.9793,1.6453,0.0,0.2346,0.007059,0.0,0.0,8.0,,,,,,0.39766,PASS,
378,s06_yaw_pi_turn,g000047_c0,47,,,,,,,,,3.8816160272588434,6.9053069473586834,,,,,3.2233,9.9758,1.6452,0.0,0.2346,0.007059,0.0,0.0,8.0,,,,,,0.39763,PASS,
379,s06_yaw_pi_turn,g000047_c1,47,,,,,,,,,3.9059979564405465,6.842183503349214,,,,,3.2234,9.9749,1.6452,0.0,0.2346,0.007059,0.0,0.0,8.0,,,,,,0.39764,PASS,
380,s06_yaw_pi_turn,g000047_c2,47,,,,,,,,,3.7995375079811256,7.031165017347383,,,,,3.2233,9.9764,1.645,0.0,0.2346,0.007059,0.0,0.0,8.0,,,,,,0.39763,PASS,
381,s06_yaw_pi_turn,g000047_c3,47,,,,,,,,,3.85019149570318,6.942297007712423,,,,,3.2233,9.9779,1.6451,0.0,0.2346,0.007059,0.0,0.0,8.0,,,,,,0.39763,PASS,
382,s06_yaw_pi_turn,g000047_c4,47,,,,,,,,,3.7827559361688663,6.865226626722091,,,,,3.2232,9.9741,1.645,0.0,0.2346,0.007059,0.0,0.0,8.0,,,,,,0.39762,PASS,
383,s06_yaw_pi_turn,g000047_c5,47,,,,,,,,,3.7733848857839583,6.930673842008314,,,,,3.2231,9.9772,1.6452,0.0,0.2346,0.007059,0.0,0.0,8.0,,,,,,0.39761,PASS,
384,s06_yaw_pi_turn,g000047_c6,47,,,,,,,,,3.9513265706219127,7.142510273110823,,,,,3.2234,9.9749,1.6451,0.0,0.2346,0.007059,0.0,0.0,8.0,,,,,,0.39764,PASS,
385,s06_yaw_pi_turn,g000047_c7,47,,,,,,,,,3.9121176013406838,6.827904973085261,,,,,3.2238,9.9727,1.6456,0.0,0.2346,0.007059,0.0,0.0,8.0,,,,,,0.39768,PASS,
386,s06_yaw_pi_turn,g000048_c0,48,,,,,,,,,3.883145133251476,7.0279307919394896,,,,,3.2231,9.9734,1.6449,0.0,0.2346,0.007059,0.0,0.0,8.0,,,,,,0.39761,PASS,
387,s06_yaw_pi_turn,g000048_c1,48,,,,,,,,,3.7632579732375664,6.922490721901565,,,,,3.2233,9.9774,1.645,0.0,0.2346,0.007059,0.0,0.0,8.0,,,,,,0.39763,PASS,
