run_id,scenario,label,gen,timestamp,Q_PITCH,Q_PITCH_RATE,Q_VEL,R,KP_V,KI_V,KFF_V,KP_YAW,KI_YAW,LEG_K_S,LEG_B_S,LEG_K_ROLL,LEG_D_ROLL,rms_pitch_deg,max_pitch_deg,wheel_travel_m,wheel_liftoff_s,vel_track_rms_ms,hip_track_rms_rad,hip_cmd_rate_rms,settle_time_s,survived_s,fitness_balance,fitness_disturbance,fitness_drive_slow,fitness_drive_med,fitness_obstacle,fitness,status,fail_reason
1,s02_leg_height_gain_sched,evo_seed,0,,0.051630065,0.038574435,9.0556519e-07,100.0,,,,,,,,,,1.0076,2.1914,18.9589,0.0,1.8843,0.005911,0.3579,0.0,12.0,,,,,,4.72398,PASS,
2,s02_leg_height_gain_sched,g000000_c0,0,,0.01,0.03488906155193306,2.104146906975744e-07,100.0,,,,,,,,,,1.008,2.196,19.0248,0.0,1.8916,0.005911,0.3579,0.0,12.0,,,,,,4.68418,PASS,
3,s02_leg_height_gain_sched,g000000_c1,0,,0.01,0.003396220208848934,6.803976485048384e-07,33.679025725823735,,,,,,,,,,1.005,2.1884,18.7675,0.0,1.8674,0.005912,0.3579,0.0,12.0,,,,,,4.69682,PASS,
4,s02_leg_height_gain_sched,g000000_c2,0,,0.02072955087674713,0.01590748664606296,3.3770552707489647e-06,47.376869045479886,,,,,,,,,,1.0011,2.1734,18.7779,0.0,1.8674,0.005912,0.3579,0.0,12.0,,,,,,4.71255,PASS,
5,s02_leg_height_gain_sched,g000000_c3,0,,2.912026522280624,0.07219150202933654,3.039571577134519e-06,100.0,,,,,,,,,,1.0041,2.1814,18.7612,0.0,1.8649,0.005912,0.3579,0.0,12.0,,,,,,4.67275,PASS,
6,s02_leg_height_gain_sched,g000000_c4,0,,0.46159588465540574,0.1669784944239764,0.00017091530195115996,80.52151302220362,,,,,,,,,,0.9921,2.0661,17.8442,0.0,1.7673,0.005914,0.3579,0.0,12.0,,,,,,4.52604,PASS,
7,s02_leg_height_gain_sched,g000000_c5,0,,0.01,0.14105451244116965,3.6727366757118344e-05,37.30971962269384,,,,,,,,,,0.9906,2.1099,18.3153,0.0,1.8171,0.005913,0.3579,0.0,12.0,,,,,,4.68502,PASS,
8,s02_leg_height_gain_sched,g000000_c6,0,,0.01,1.1099674073622414,2.1399874598765586e-07,100.0,,,,,,,,,,1.0112,2.1981,18.9905,0.0,1.8927,0.005911,0.3579,0.0,12.0,,,,,,4.76101,PASS,
9,s02_leg_height_gain_sched,g000000_c7,0,,0.01,0.006418434674739316,8.141831910708973e-06,4.762310492032659,,,,,,,,,,0.9901,2.0783,17.7889,0.0,1.7589,0.005914,0.3579,0.0,12.0,,,,,,4.52531,PASS,
10,s02_leg_height_gain_sched,g000001_c0,1,,0.012967101486057073,0.002761024096677033,3.1689307177670796e-06,5.620277203554933,,,,,,,,,,0.991,2.128,18.3682,0.0,1.8189,0.005913,0.3579,0.0,12.0,,,,,,4.72891,PASS,
11,s02_leg_height_gain_sched,g000001_c1,1,,0.01,0.004287777678113084,9.176789909681332e-06,48.4975318907091,,,,,,,,,,0.9965,2.1615,18.6913,0.0,1.8559,0.005912,0.3579,0.0,12.0,,,,,,4.6725,PASS,
12,s02_leg_height_gain_sched,g000001_c2,1,,0.01,0.006770933820936346,0.0017725296959997662,8.205865518828087,,,,,,,,,,1.7128,3.4007,10.9463,0.0,1.0977,0.005946,0.3579,0.0,12.0,,,,,,4.96309,PASS,
13,s02_leg_height_gain_sched,g000001_c3,1,,0.37117514985529443,0.001,0.003204238354933963,50.040081315377606,,,,,,,,,,1.3434,2.9098,13.4899,0.0,1.3176,0.005924,0.3579,0.0,12.0,,,,,,4.35124,PASS,
14,s02_leg_height_gain_sched,g000001_c4,1,,0.11115257415617359,0.0049104679958835275,4.257639832232111e-06,0.4111611655375387,,,,,,,,,,1.0497,2.1298,16.3306,0.0,1.6066,0.005917,0.3579,0.0,12.0,,,,,,4.36258,PASS,
15,s02_leg_height_gain_sched,g000001_c5,1,,0.01,0.001,6.157765829385122e-05,10.617620124899736,,,,,,,,,,1.0164,1.977,17.0716,0.0,1.6885,0.005917,0.3579,0.0,12.0,,,,,,4.55217,PASS,
16,s02_leg_height_gain_sched,g000001_c6,1,,0.023589911629940424,0.026289687080785506,1.5094157921920436e-06,6.113744769790912,,,,,,,,,,0.995,2.1531,18.4956,0.0,1.8342,0.005913,0.3579,0.0,12.0,,,,,,4.68813,PASS,
17,s02_leg_height_gain_sched,g000001_c7,1,,0.01,0.11175907194588044,6.1328573757423586e-06,9.281844548772339,,,,,,,,,,0.993,2.1273,18.2315,0.0,1.8062,0.005913,0.3579,0.0,12.0,,,,,,4.5226,PASS,
18,s02_leg_height_gain_sched,g000002_c0,2,,0.3218004488597418,0.03480599676699514,0.00027774554844018604,2.990417219512304,,,,,,,,,,1.4319,3.0796,12.5702,0.0,1.2221,0.005925,0.3579,0.0,12.0,,,,,,4.28526,PASS,
19,s02_leg_height_gain_sched,g000002_c1,2,,0.34469412326627297,0.001,0.0001333015713865266,100.0,,,,,,,,,,0.9893,2.093,17.9459,0.0,1.7738,0.005913,0.3579,0.0,12.0,,,,,,4.54369,PASS,
20,s02_leg_height_gain_sched,g000002_c2,2,,0.1701585798243751,0.001,0.0004083386741239055,100.0,,,,,,,,,,1.0046,2.0138,17.4139,0.0,1.7193,0.005914,0.3579,0.0,12.0,,,,,,4.52152,PASS,
21,s02_leg_height_gain_sched,g000002_c3,2,,0.04406886757481713,0.0018623167467235581,1.6093664219755478e-05,18.909052232375494,,,,,,,,,,0.9894,2.109,18.1837,0.0,1.7991,0.005913,0.3579,0.0,12.0,,,,,,4.63651,PASS,
22,s02_leg_height_gain_sched,g000002_c4,2,,3.6303493560952043,0.001,0.004548743844961574,50.37637007657585,,,,,,,,,,1.4255,3.0689,12.6724,0.0,1.2339,0.005926,0.3579,0.0,12.0,,,,,,4.28526,PASS,
23,s02_leg_height_gain_sched,g000002_c5,2,,0.7405812420762419,0.001,0.022542189899676112,100.0,,,,,,,,,,1.7176,3.4374,10.8589,0.0,1.0999,0.005948,0.3579,0.0,12.0,,,,,,5.16859,PASS,
24,s02_leg_height_gain_sched,g000002_c6,2,,0.11034756289757539,0.0010393623390254447,0.0070515580646358066,100.0,,,,,,,,,,1.3794,2.9437,13.558,0.0,1.3363,0.005929,0.3579,0.0,12.0,,,,,,4.61448,PASS,
25,s02_leg_height_gain_sched,g000002_c7,2,,0.01,0.001,0.02737720544615962,100.0,,,,,,,,,,1.7476,3.4948,10.4249,0.0,1.067,0.005955,0.3579,0.0,12.0,,,,,,5.37102,PASS,
26,s02_leg_height_gain_sched,g000003_c0,3,,0.32252933680613255,0.05219576386811723,0.00023637638005433037,0.8637367454263918,,,,,,,,,,1.727,3.5353,10.0992,0.0,1.0182,0.005945,0.3579,0.0,12.0,,,,,,5.05538,PASS,
27,s02_leg_height_gain_sched,g000003_c1,3,,0.04243590266942205,0.02019973367625277,0.0002751407552281616,3.378449972532573,,,,,,,,,,1.4074,3.019,13.1271,0.0,1.2976,0.00593,0.3579,0.0,12.0,,,,,,4.47174,PASS,
28,s02_leg_height_gain_sched,g000003_c2,3,,0.2871979573446859,0.27510948380022066,7.926435987270259e-05,18.39783887416086,,,,,,,,,,1.009,2.0103,17.2624,0.0,1.7044,0.005915,0.3579,0.0,12.0,,,,,,4.43511,PASS,
29,s02_leg_height_gain_sched,g000003_c3,3,,0.9483854179416086,0.0010012123894015744,4.278821257260959e-05,3.665288422335351,,,,,,,,,,1.0555,2.1692,16.0683,0.0,1.5765,0.005917,0.3579,0.0,12.0,,,,,,4.3969,PASS,
30,s02_leg_height_gain_sched,g000003_c4,3,,0.28501331654307455,0.05902900156383414,0.0008826401743637309,0.19370565086660246,,,,,,,,,,7.6213,25.5621,22.6941,0.0,4.0906,0.006981,0.3579,0.0,12.0,,,,,,289.90126,PASS,
31,s02_leg_height_gain_sched,g000003_c5,3,,0.7263528251245331,1.4633859353128598,1.2134841839530202e-05,87.51385798188694,,,,,,,,,,1.002,2.1664,18.7302,0.0,1.8568,0.005912,0.3579,0.0,12.0,,,,,,4.68596,PASS,
32,s02_leg_height_gain_sched,g000003_c6,3,,0.691370467880254,0.41142611978913646,0.001851014388235389,100.0,,,,,,,,,,1.1102,2.3528,15.5847,0.0,1.5257,0.00592,0.3579,0.0,12.0,,,,,,4.39368,PASS,
33,s02_leg_height_gain_sched,g000003_c7,3,,0.26858306256240216,0.20968434850214435,0.0001419798245106444,8.878511692191978,,,,,,,,,,1.0988,2.3037,15.9075,0.0,1.5699,0.005919,0.3579,0.0,12.0,,,,,,4.50817,PASS,
34,s02_leg_height_gain_sched,g000004_c0,4,,0.5453292040791698,0.0030611108943485545,0.00021246155347965943,54.229132674827156,,,,,,,,,,1.0017,2.0139,17.3023,0.0,1.7054,0.005915,0.3579,0.0,12.0,,,,,,4.45269,PASS,
35,s02_leg_height_gain_sched,g000004_c1,4,,0.99956405637164,0.0015840946982806831,0.0008792565483806864,3.5099835473258594,,,,,,,,,,1.6908,3.5081,10.2257,0.0,1.0045,0.005939,0.3579,0.0,12.0,,,,,,4.54451,PASS,
36,s02_leg_height_gain_sched,g000004_c2,4,,0.2215246211335306,0.4530952987579766,0.01750879609956716,0.8434148907986053,,,,,,,,,,15.244,49.8311,18.4432,0.238,8.6966,0.009209,0.3586,0.0,4.014,,,,,,851.5983,FAIL,fell over
37,s02_leg_height_gain_sched,g000004_c3,4,,0.021592052159148632,0.036980662699242085,0.0015204753006265207,1.0787502246514034,,,,,,,,,,2.7181,10.9018,10.3477,0.728,1.5821,0.006241,0.3579,0.0,12.0,,,,,,24.47911,PASS,
38,s02_leg_height_gain_sched,g000004_c4,4,,0.06287060660176226,0.8350873859535898,0.00016460576048015225,1.8092504360797543,,,,,,,,,,1.8528,5.8396,16.3686,1.242,2.0296,0.00639,0.3579,0.0,12.0,,,,,,12.11067,PASS,
39,s02_leg_height_gain_sched,g000004_c5,4,,3.346238169093803,0.00433051033187523,4.4619693916124206e-07,6.384631399578139,,,,,,,,,,0.9971,2.1647,18.7429,0.0,1.8637,0.005913,0.3579,0.0,12.0,,,,,,4.66865,PASS,
40,s02_leg_height_gain_sched,g000004_c6,4,,0.06285183040771666,0.3563300803820298,0.000823951583311356,0.27188013557122687,,,,,,,,,,10.2456,33.7979,13.946,1.078,7.1466,0.007986,0.3564,0.0,3.966,,,,,,295.58015,FAIL,fell over
41,s02_leg_height_gain_sched,g000004_c7,4,,0.045462607136954714,0.08939744441983973,0.002923202081718543,0.24954703165279668,,,,,,,,,,12.8669,39.3055,23.4269,0.068,8.9135,0.009962,0.37,0.0,4.568,,,,,,897.2342,FAIL,fell over
42,s02_leg_height_gain_sched,g000005_c0,5,,0.4517867622279905,0.28174018483191704,0.0063916109229634095,0.01084884906150388,,,,,,,,,,25.5918,59.1367,2.3463,0.134,0.0,0.008638,0.4972,12.0,0.21,,,,,,283.82327,FAIL,fell over
43,s02_leg_height_gain_sched,g000005_c1,5,,0.34960891071771993,0.03354898245807238,1.99326767546233e-05,0.6817667891235855,,,,,,,,,,1.1793,2.5559,14.9131,0.0,1.4646,0.005924,0.3579,0.0,12.0,,,,,,4.58638,PASS,
44,s02_leg_height_gain_sched,g000005_c2,5,,0.1254961255489965,0.4671273467506476,5.9252490920081734e-05,53.81147625185934,,,,,,,,,,0.9919,2.1055,18.1591,0.0,1.7995,0.005913,0.3579,0.0,12.0,,,,,,4.70563,PASS,
45,s02_leg_height_gain_sched,g000005_c3,5,,2.6139641457642857,0.07641261636121327,6.293594299542889e-05,100.0,,,,,,,,,,0.991,2.125,18.2833,0.0,1.8093,0.005913,0.3579,0.0,12.0,,,,,,4.5515,PASS,
46,s02_leg_height_gain_sched,g000005_c4,5,,8.055322918217904,0.006146001127669819,0.0038126513023641843,2.162384653954746,,,,,,,,,,5.4078,19.3081,15.6833,1.008,2.8562,0.006542,0.3579,0.0,12.0,,,,,,66.65582,PASS,
47,s02_leg_height_gain_sched,g000005_c5,5,,49.99999999999999,0.001,0.00914286883739738,100.0,,,,,,,,,,1.4176,3.0601,12.6299,0.0,1.2278,0.005925,0.3579,0.0,12.0,,,,,,4.25069,PASS,
48,s02_leg_height_gain_sched,g000005_c6,5,,0.13845282331801673,0.014414251246844582,0.004246817165853157,0.18164545031247897,,,,,,,,,,10.5229,38.3554,13.957,0.062,8.3923,0.0102,0.3413,0.0,3.454,,,,,,747.57231,FAIL,fell over
49,s02_leg_height_gain_sched,g000005_c7,5,,0.5354467844286761,0.06734613182514591,0.0009303628419225738,11.673086127398504,,,,,,,,,,1.3957,3.0045,13.0017,0.0,1.2731,0.005927,0.3579,0.0,12.0,,,,,,4.46863,PASS,
50,s02_leg_height_gain_sched,g000006_c0,6,,49.99999999999999,0.001,0.003711803119197732,100.0,,,,,,,,,,1.2186,2.6409,14.6721,0.0,1.4378,0.005923,0.3579,0.0,12.0,,,,,,4.53713,PASS,
51,s02_leg_height_gain_sched,g000006_c1,6,,49.99999999999999,0.001,0.002367985850803735,17.29656662477819,,,,,,,,,,1.4994,3.187,12.2147,0.0,1.2068,0.005946,0.3579,0.0,12.0,,,,,,4.95006,PASS,
52,s02_leg_height_gain_sched,g000006_c2,6,,49.99999999999999,0.001,0.004840995676931924,13.561121673129437,,,,,,,,,,1.891,4.8062,11.2499,0.0,1.2906,0.005997,0.3579,0.0,12.0,,,,,,8.11733,PASS,
53,s02_leg_height_gain_sched,g000006_c3,6,,2.0668029725278587,0.017523366308300006,0.008479338604881493,30.00570338495073,,,,,,,,,,1.8036,3.464,10.4963,0.0,1.0929,0.00596,0.3579,0.0,12.0,,,,,,5.6503,PASS,
54,s02_leg_height_gain_sched,g000006_c4,6,,0.0204684242021493,0.005282542802492041,0.0011979533306052973,44.04377565062468,,,,,,,,,,1.1698,2.5222,15.1232,0.0,1.482,0.005919,0.3579,0.0,12.0,,,,,,4.38166,PASS,
55,s02_leg_height_gain_sched,g000006_c5,6,,5.568668925058884,0.001,1.0,100.0,,,,,,,,,,8.6201,37.257,10.7272,0.0,6.8049,0.008424,0.3418,0.0,3.556,,,,,,492.383,FAIL,fell over
56,s02_leg_height_gain_sched,g000006_c6,6,,3.68290643273512,0.004536563626199935,0.013682120175455396,29.033998854941164,,,,,,,,,,1.9604,3.8081,9.5707,0.0,1.0505,0.005986,0.3579,0.0,12.0,,,,,,6.8022,PASS,
57,s02_leg_height_gain_sched,g000006_c7,6,,49.99999999999999,0.006223179549774139,0.005319536180598342,12.570092299285417,,,,,,,,,,1.859,4.2214,10.6609,0.222,1.1849,0.006044,0.3579,0.0,12.0,,,,,,8.07611,PASS,
58,s02_leg_height_gain_sched,g000007_c0,7,,0.015979172105095054,0.12105197270575371,0.007708750395172897,100.0,,,,,,,,,,1.3831,2.9915,13.037,0.0,1.2711,0.005926,0.3579,0.0,12.0,,,,,,4.37268,PASS,
59,s02_leg_height_gain_sched,g000007_c1,7,,3.7754278911743406,0.001,0.16727252335587237,100.0,,,,,,,,,,3.7198,17.1246,11.3773,0.662,2.2276,0.006388,0.3579,0.0,12.0,,,,,,50.7632,PASS,
60,s02_leg_height_gain_sched,g000007_c2,7,,36.46147286855663,1.386807618563098,0.47181927022816866,100.0,,,,,,,,,,6.5132,31.8538,16.4263,0.0,3.4275,0.006706,0.3579,0.0,12.0,,,,,,216.24303,PASS,
61,s02_leg_height_gain_sched,g000007_c3,7,,49.99999999999999,0.0013895753466043187,0.042491894370663634,100.0,,,,,,,,,,1.8794,3.6263,9.5328,0.0,1.0097,0.005969,0.3579,0.0,12.0,,,,,,6.09265,PASS,
62,s02_leg_height_gain_sched,g000007_c4,7,,3.9810515491101093,0.01832458271276715,0.004851327840096615,100.0,,,,,,,,,,1.2748,2.7765,14.0554,0.0,1.3732,0.005923,0.3579,0.0,12.0,,,,,,4.35817,PASS,
63,s02_leg_height_gain_sched,g000007_c5,7,,35.05883740463669,0.0011015158904052196,0.00512811496759246,100.0,,,,,,,,,,1.278,2.7999,13.8801,0.0,1.3535,0.005923,0.3579,0.0,12.0,,,,,,4.32194,PASS,
64,s02_leg_height_gain_sched,g000007_c6,7,,44.70996507983931,0.028323041309743467,0.011903438955958563,43.33226546620777,,,,,,,,,,1.7487,3.4698,10.5339,0.0,1.0748,0.005953,0.3579,0.0,12.0,,,,,,5.2721,PASS,
65,s02_leg_height_gain_sched,g000007_c7,7,,0.3366090567171196,0.001,0.21043411741087184,6.871119638277087,,,,,,,,,,4.1373,36.0762,1.5937,0.0,3.5855,0.004601,0.3782,0.0,2.322,,,,,,261.88015,FAIL,fell over
66,s02_leg_height_gain_sched,g000008_c0,8,,49.99999999999999,0.004774430700640286,0.0003328502356649365,100.0,,,,,,,,,,0.9946,2.0263,17.53,0.0,1.7335,0.005916,0.3579,0.0,12.0,,,,,,4.5631,PASS,
67,s02_leg_height_gain_sched,g000008_c1,8,,49.99999999999999,0.06090929140319326,0.0006550775686011904,39.08707264980062,,,,,,,,,,1.0862,2.2876,15.9162,0.0,1.5706,0.00592,0.3579,0.0,12.0,,,,,,4.48388,PASS,
68,s02_leg_height_gain_sched,g000008_c2,8,,5.795187725675451,0.001,0.0026973391156304505,12.558961251680849,,,,,,,,,,1.6529,3.4213,10.6934,0.0,1.056,0.00594,0.3579,0.0,12.0,,,,,,4.72052,PASS,
69,s02_leg_height_gain_sched,g000008_c3,8,,42.71830279391331,0.01698496417380708,0.00372128576688431,60.75752454218944,,,,,,,,,,1.3191,2.8691,13.5902,0.0,1.3307,0.005926,0.3579,0.0,12.0,,,,,,4.39208,PASS,
70,s02_leg_height_gain_sched,g000008_c4,8,,2.272007632108722,0.001,0.18807093829411342,100.0,,,,,,,,,,3.3405,16.5089,11.999,0.714,2.0481,0.006302,0.3579,0.0,12.0,,,,,,49.82413,PASS,
71,s02_leg_height_gain_sched,g000008_c5,8,,49.99999999999999,0.0019319571034863467,0.05470591102388259,62.883451144207086,,,,,,,,,,2.1715,7.3669,9.5915,0.21,1.2882,0.006071,0.3579,0.0,12.0,,,,,,12.98091,PASS,
72,s02_leg_height_gain_sched,g000008_c6,8,,49.99999999999999,0.001,0.3087600451565115,12.838714030831216,,,,,,,,,,4.1806,36.3326,1.614,0.0,3.5443,0.004769,0.3785,0.0,2.334,,,,,,260.83889,FAIL,fell over
73,s02_leg_height_gain_sched,g000008_c7,8,,49.99999999999999,0.001,0.1652771789033476,100.0,,,,,,,,,,4.1418,17.8233,9.9871,0.734,2.037,0.006372,0.3579,0.0,12.0,,,,,,40.69164,PASS,
74,s02_leg_height_gain_sched,g000009_c0,9,,49.99999999999999,0.001,0.09337200283440429,63.46424740561915,,,,,,,,,,3.6177,14.8328,11.7648,0.804,2.2541,0.006429,0.3579,0.0,12.0,,,,,,49.02352,PASS,
75,s02_leg_height_gain_sched,g000009_c1,9,,49.99999999999999,0.001,0.002364076861504886,100.0,,,,,,,,,,1.1378,2.4509,15.2964,0.0,1.5026,0.00592,0.3579,0.0,12.0,,,,,,4.32516,PASS,
76,s02_leg_height_gain_sched,g000009_c2,9,,49.99999999999999,0.02376606215995061,0.06740383110581072,3.0958631412658892,,,,,,,,,,10.5449,39.0381,12.896,0.064,8.2831,0.009857,0.3431,0.0,3.324,,,,,,659.86556,FAIL,fell over
77,s02_leg_height_gain_sched,g000009_c3,9,,49.99999999999999,0.001,0.040720768155278704,100.0,,,,,,,,,,1.9617,4.1247,10.2138,0.0,1.1505,0.005999,0.3579,0.0,12.0,,,,,,7.37697,PASS,
78,s02_leg_height_gain_sched,g000009_c4,9,,24.744299146620936,0.001,0.010878308010213531,100.0,,,,,,,,,,1.4659,3.15,12.3111,0.0,1.2064,0.005929,0.3579,0.0,12.0,,,,,,4.39416,PASS,
79,s02_leg_height_gain_sched,g000009_c5,9,,49.99999999999999,0.009089440600087985,0.001901934422822431,100.0,,,,,,,,,,1.1075,2.3526,15.6941,0.0,1.5384,0.00592,0.3579,0.0,12.0,,,,,,4.40398,PASS,
80,s02_leg_height_gain_sched,g000009_c6,9,,49.99999999999999,0.001,0.0006196730579330148,100.0,,,,,,,,,,1.0144,1.962,16.9548,0.0,1.68,0.005918,0.3579,0.0,12.0,,,,,,4.63004,PASS,
81,s02_leg_height_gain_sched,g000009_c7,9,,2.389614211092611,0.004437515708233517,0.009964643582122065,100.0,,,,,,,,,,1.459,3.0971,12.6404,0.0,1.2415,0.005931,0.3579,0.0,12.0,,,,,,4.50873,PASS,
82,s02_leg_height_gain_sched,g000010_c0,10,,49.99999999999999,0.001,0.1009439577040575,100.0,,,,,,,,,,2.4909,8.0903,9.6865,0.238,1.4627,0.006108,0.3579,0.0,12.0,,,,,,17.79718,PASS,
83,s02_leg_height_gain_sched,g000010_c1,10,,49.99999999999999,0.001,0.03525354202678214,36.014261247884235,,,,,,,,,,2.7056,8.3918,10.2367,0.546,1.4745,0.006172,0.3579,0.0,12.0,,,,,,17.2029,PASS,
84,s02_leg_height_gain_sched,g000010_c2,10,,44.05260065955257,0.003256198794578771,0.004218233562981699,100.0,,,,,,,,,,1.2416,2.7062,14.2534,0.0,1.388,0.005921,0.3579,0.0,12.0,,,,,,4.36778,PASS,
85,s02_leg_height_gain_sched,g000010_c3,10,,4.9630949831509605,0.001,0.0022731872881887353,100.0,,,,,,,,,,1.1383,2.4403,15.3334,0.0,1.5001,0.005918,0.3579,0.0,12.0,,,,,,4.33091,PASS,
86,s02_leg_height_gain_sched,g000010_c4,10,,3.603367324438764,0.007933886263109568,0.0025282896066665976,95.73937638256884,,,,,,,,,,1.1602,2.5061,15.0819,0.0,1.4813,0.00592,0.3579,0.0,12.0,,,,,,4.3146,PASS,
87,s02_leg_height_gain_sched,g000010_c5,10,,2.1822327814472104,0.0021031821889990255,0.033932151524533286,100.0,,,,,,,,,,1.8786,4.1378,10.1497,0.004,1.0826,0.005974,0.3579,0.0,12.0,,,,,,5.94082,PASS,
88,s02_leg_height_gain_sched,g000010_c6,10,,23.605684703367313,0.09265772974283888,0.0032287373906281654,100.0,,,,,,,,,,1.191,2.5919,14.6872,0.0,1.4319,0.00592,0.3579,0.0,12.0,,,,,,4.33302,PASS,
89,s02_leg_height_gain_sched,g000010_c7,10,,49.99999999999999,0.001,0.006915987000478408,65.88723458763027,,,,,,,,,,1.4489,3.1086,12.4161,0.0,1.2201,0.005934,0.3579,0.0,12.0,,,,,,4.54307,PASS,
90,s02_leg_height_gain_sched,g000011_c0,11,,3.9247214136923145,0.001,0.017141279129924344,96.37229599511606,,,,,,,,,,1.6214,3.34,11.1741,0.0,1.1065,0.005939,0.3579,0.0,12.0,,,,,,4.6544,PASS,
91,s02_leg_height_gain_sched,g000011_c1,11,,49.99999999999999,0.001,0.043395329462866714,15.007610536019726,,,,,,,,,,8.3718,29.6316,20.7966,0.522,3.5405,0.006907,0.3579,0.0,12.0,,,,,,157.37723,PASS,
92,s02_leg_height_gain_sched,g000011_c2,11,,1.9057416842895898,0.001,0.00028336208301517124,100.0,,,,,,,,,,0.9952,2.0429,17.553,0.0,1.7294,0.005914,0.3579,0.0,12.0,,,,,,4.49237,PASS,
93,s02_leg_height_gain_sched,g000011_c3,11,,49.99999999999999,0.001,0.002409453517964147,100.0,,,,,,,,,,1.1402,2.4524,15.2726,0.0,1.4974,0.005921,0.3579,0.0,12.0,,,,,,4.40706,PASS,
94,s02_leg_height_gain_sched,g000011_c4,11,,49.99999999999999,0.001,0.00012659997537621821,100.0,,,,,,,,,,0.984,2.08,17.9187,0.0,1.7726,0.005914,0.3579,0.0,12.0,,,,,,4.66372,PASS,
95,s02_leg_height_gain_sched,g000011_c5,11,,49.99999999999999,0.001,0.005850235531652024,100.0,,,,,,,,,,1.3075,2.8556,13.6879,0.0,1.3368,0.005924,0.3579,0.0,12.0,,,,,,4.36105,PASS,
96,s02_leg_height_gain_sched,g000011_c6,11,,4.319361249552595,0.009294435526436311,0.4283137836556291,100.0,,,,,,,,,,5.8433,22.814,13.3953,0.0,2.83,0.006561,0.3579,0.0,12.0,,,,,,157.46021,PASS,
97,s02_leg_height_gain_sched,g000011_c7,11,,49.99999999999999,0.001,0.0010479586672209266,40.138150860718035,,,,,,,,,,1.1387,2.4691,15.1328,0.0,1.4866,0.005923,0.3579,0.0,12.0,,,,,,4.43575,PASS,
98,s02_leg_height_gain_sched,g000012_c0,12,,22.946848861961435,0.09420962928354405,0.006921571169843002,100.0,,,,,,,,,,1.3543,2.9371,13.326,0.0,1.3036,0.005927,0.3579,0.0,12.0,,,,,,4.33618,PASS,
99,s02_leg_height_gain_sched,g000012_c1,12,,8.367888976615783,0.006175749973942407,0.21220882766198856,82.22074731755939,,,,,,,,,,5.082,18.5023,13.823,0.3,2.8075,0.006526,0.3579,0.0,12.0,,,,,,107.5834,PASS,
100,s02_leg_height_gain_sched,g000012_c2,12,,49.99999999999999,0.001,0.035737234585987335,100.0,,,,,,,,,,1.9012,4.116,10.1464,0.0,1.0893,0.005967,0.3579,0.0,12.0,,,,,,5.97383,PASS,
101,s02_leg_height_gain_sched,g000012_c3,12,,49.99999999999999,0.001,0.003509648447213763,100.0,,,,,,,,,,1.2028,2.6167,14.6495,0.0,1.436,0.005922,0.3579,0.0,12.0,,,,,,4.43428,PASS,
102,s02_leg_height_gain_sched,g000012_c4,12,,2.8647969630233314,0.001,0.015999959179548242,100.0,,,,,,,,,,1.5733,3.3086,11.4032,0.0,1.1116,0.005933,0.3579,0.0,12.0,,,,,,4.37707,PASS,
103,s02_leg_height_gain_sched,g000012_c5,12,,49.99999999999999,0.026707142797226413,0.015466970127988323,2.3406722683739765,,,,,,,,,,12.5025,30.1097,88.9726,0.104,9.7198,0.01275,0.3579,0.0,12.0,,,,,,1776.11877,PASS,
104,s02_leg_height_gain_sched,g000012_c6,12,,22.04591164710887,0.0050542292546769015,0.01569878328282373,2.864891050178681,,,,,,,,,,8.0796,37.7989,19.9807,0.054,3.6961,0.006871,0.3579,0.0,12.0,,,,,,272.58394,PASS,
105,s02_leg_height_gain_sched,g000012_c7,12,,49.99999999999999,0.009135308526949439,0.0024036871899855736,22.370950001074597,,,,,,,,,,1.4309,3.0967,12.6275,0.0,1.2404,0.005934,0.3579,0.0,12.0,,,,,,4.62756,PASS,
106,s02_leg_height_gain_sched,g000013_c0,13,,49.99999999999999,0.001,0.0011088080714600115,9.95813795382408,,,,,,,,,,1.4056,3.0493,13.2116,0.0,1.3512,0.005971,0.3579,0.0,12.0,,,,,,5.65395,PASS,
107,s02_leg_height_gain_sched,g000013_c1,13,,49.99999999999999,0.0019213940852142522,0.02160648827505695,45.47877851089038,,,,,,,,,,1.8621,3.7341,9.366,0.0,0.952,0.005978,0.3579,0.0,12.0,,,,,,5.97392,PASS,
108,s02_leg_height_gain_sched,g000013_c2,13,,42.06174656658508,0.001,0.1618753974222221,14.151771138152679,,,,,,,,,,9.6828,34.8058,24.5364,0.722,9.0705,0.009151,0.3699,0.0,4.576,,,,,,637.41599,FAIL,fell over
109,s02_leg_height_gain_sched,g000013_c3,13,,49.99999999999999,0.001,0.004840356315956325,64.07685004197614,,,,,,,,,,1.3652,2.9565,13.1474,0.0,1.2821,0.005927,0.3579,0.0,12.0,,,,,,4.30793,PASS,
110,s02_leg_height_gain_sched,g000013_c4,13,,49.99999999999999,0.012669015285598237,0.006881140573441102,43.099333615154286,,,,,,,,,,1.5496,3.3,11.727,0.0,1.1542,0.005938,0.3579,0.0,12.0,,,,,,4.78179,PASS,
111,s02_leg_height_gain_sched,g000013_c5,13,,49.99999999999999,0.001,0.15238050804268702,57.974264861448816,,,,,,,,,,5.6986,26.5306,17.3401,0.536,3.3192,0.006885,0.3579,0.0,12.0,,,,,,149.99103,PASS,
112,s02_leg_height_gain_sched,g000013_c6,13,,16.430966281855262,0.09557476979118802,0.006224155907961174,100.0,,,,,,,,,,1.345,2.8893,13.7552,0.0,1.3528,0.005926,0.3579,0.0,12.0,,,,,,4.47074,PASS,
113,s02_leg_height_gain_sched,g000013_c7,13,,2.7273822293646126,0.001,0.005041237388099281,4.416864670350349,,,,,,,,,,2.9293,11.8633,9.8887,0.682,1.5539,0.006224,0.3579,0.0,12.0,,,,,,21.36826,PASS,
114,s02_leg_height_gain_sched,g000014_c0,14,,49.99999999999999,0.001,0.015009823818161645,8.415468708002084,,,,,,,,,,4.1052,15.449,15.1032,0.998,2.9097,0.006579,0.3579,0.0,12.0,,,,,,80.33066,PASS,
115,s02_leg_height_gain_sched,g000014_c1,14,,22.33047021214874,0.0012746595160523784,0.006523309354083593,23.336190903728156,,,,,,,,,,1.718,3.5435,10.172,0.0,1.0181,0.005944,0.3579,0.0,12.0,,,,,,4.94438,PASS,
116,s02_leg_height_gain_sched,g000014_c2,14,,49.99999999999999,0.001,0.009014918582797718,100.0,,,,,,,,,,1.4236,3.0508,12.7932,0.0,1.2483,0.005927,0.3579,0.0,12.0,,,,,,4.36475,PASS,
117,s02_leg_height_gain_sched,g000014_c3,14,,9.970219259156975,0.0010076722516560994,0.022686628793988323,100.0,,,,,,,,,,1.7012,3.418,10.8494,0.0,1.0883,0.005943,0.3579,0.0,12.0,,,,,,5.04254,PASS,
118,s02_leg_height_gain_sched,g000014_c4,14,,41.11238967643883,0.001,0.013173790059535145,100.0,,,,,,,,,,1.5316,3.2368,11.941,0.0,1.1733,0.00593,0.3579,0.0,12.0,,,,,,4.41469,PASS,
119,s02_leg_height_gain_sched,g000014_c5,14,,49.99999999999999,0.00118095317880653,0.025706512499848996,51.61408507487128,,,,,,,,,,2.0165,4.3683,9.2556,0.0,0.9982,0.005995,0.3579,0.0,12.0,,,,,,6.39971,PASS,
120,s02_leg_height_gain_sched,g000014_c6,14,,49.99999999999999,0.0027311945141845224,0.03139790145789154,45.46219718956735,,,,,,,,,,2.1636,4.6545,9.6921,0.194,1.1262,0.006053,0.3579,0.0,12.0,,,,,,9.24263,PASS,
121,s02_leg_height_gain_sched,g000014_c7,14,,49.99999999999999,0.0021850375959341665,0.004198329932047602,32.29705199523922,,,,,,,,,,1.4973,3.1857,12.1562,0.0,1.1986,0.005939,0.3579,0.0,12.0,,,,,,4.67811,PASS,
122,s02_leg_height_gain_sched,g000015_c0,15,,23.655750864885242,0.001,0.026444513999141325,93.97336364695605,,,,,,,,,,1.7339,3.5324,10.1137,0.0,1.0196,0.005946,0.3579,0.0,12.0,,,,,,5.01693,PASS,
123,s02_leg_height_gain_sched,g000015_c1,15,,43.50689326484687,0.001,0.004916951000962574,100.0,,,,,,,,,,1.2824,2.7675,14.2107,0.0,1.3957,0.005925,0.3579,0.0,12.0,,,,,,4.52139,PASS,
124,s02_leg_height_gain_sched,g000015_c2,15,,20.203310859449918,0.001,0.006474314807401425,79.2635579397291,,,,,,,,,,1.3983,3.005,13.0307,0.0,1.2794,0.005928,0.3579,0.0,12.0,,,,,,4.46998,PASS,
125,s02_leg_height_gain_sched,g000015_c3,15,,49.99999999999999,0.002937251098969642,0.001403104898513755,79.58972444666375,,,,,,,,,,1.0962,2.3191,15.7192,0.0,1.5466,0.00592,0.3579,0.0,12.0,,,,,,4.4467,PASS,
126,s02_leg_height_gain_sched,g000015_c4,15,,49.99999999999999,0.0010255081683792121,0.04163347756426652,100.0,,,,,,,,,,1.8369,3.7085,9.0232,0.0,0.9045,0.005948,0.3579,0.0,12.0,,,,,,4.97851,PASS,
127,s02_leg_height_gain_sched,g000015_c5,15,,49.99999999999999,0.001,0.18714086165563276,100.0,,,,,,,,,,4.2552,14.1258,13.9439,0.678,2.8008,0.006495,0.3579,0.0,12.0,,,,,,78.37379,PASS,
128,s02_leg_height_gain_sched,g000015_c6,15,,20.771316403129887,0.001,0.004530497048176891,100.0,,,,,,,,,,1.2616,2.7404,14.2165,0.0,1.3913,0.005923,0.3579,0.0,12.0,,,,,,4.28105,PASS,
129,s02_leg_height_gain_sched,g000015_c7,15,,49.99999999999999,0.001470713633905603,0.00807891378509064,38.993230282423355,,,,,,,,,,1.6313,3.3891,10.7592,0.0,1.0691,0.005941,0.3579,0.0,12.0,,,,,,4.71903,PASS,
130,s02_leg_height_gain_sched,g000016_c0,16,,32.02600561620025,0.001,0.023797562125098447,50.77902150672779,,,,,,,,,,1.9432,4.2282,9.6487,0.0,1.0442,0.005968,0.3579,0.0,12.0,,,,,,6.42193,PASS,
131,s02_leg_height_gain_sched,g000016_c1,16,,12.255068070060073,0.0015936375649936343,0.0089766602952098,100.0,,,,,,,,,,1.4245,3.0536,12.6987,0.0,1.236,0.005925,0.3579,0.0,12.0,,,,,,4.35729,PASS,
132,s02_leg_height_gain_sched,g000016_c2,16,,26.41279801128075,0.0016609991787385513,0.014704852214897849,30.46197170856934,,,,,,,,,,1.9051,3.7116,9.5922,0.0,1.0212,0.005969,0.3579,0.0,12.0,,,,,,6.44594,PASS,
133,s02_leg_height_gain_sched,g000016_c3,16,,21.252646905342132,0.006352208723754555,0.004148840333328362,100.0,,,,,,,,,,1.2438,2.698,14.407,0.0,1.4125,0.005922,0.3579,0.0,12.0,,,,,,4.32584,PASS,
134,s02_leg_height_gain_sched,g000016_c4,16,,4.201543873914557,0.001,0.038962767596126754,99.8467355463226,,,,,,,,,,1.8721,3.8801,9.5963,0.0,1.0009,0.005957,0.3579,0.0,12.0,,,,,,5.52261,PASS,
135,s02_leg_height_gain_sched,g000016_c5,16,,49.99999999999999,0.0016545433753807548,0.004583830618800456,18.452485344774924,,,,,,,,,,1.7411,3.4036,11.7736,0.0,1.2226,0.005967,0.3579,0.0,12.0,,,,,,6.1657,PASS,
136,s02_leg_height_gain_sched,g000016_c6,16,,49.99999999999999,0.001,0.019160510289412878,77.76533344780968,,,,,,,,,,1.7214,3.4654,10.8673,0.0,1.1027,0.005952,0.3579,0.0,12.0,,,,,,5.30699,PASS,
137,s02_leg_height_gain_sched,g000016_c7,16,,49.99999999999999,0.001,0.015662257419314998,100.0,,,,,,,,,,1.5737,3.2831,11.5234,0.0,1.1335,0.005932,0.3579,0.0,12.0,,,,,,4.48735,PASS,
138,s02_leg_height_gain_sched,g000017_c0,17,,29.20825055087999,0.005347849675246204,0.010620782615992563,40.85725188375752,,,,,,,,,,1.7151,3.4886,10.5704,0.0,1.0613,0.005944,0.3579,0.0,12.0,,,,,,5.02751,PASS,
139,s02_leg_height_gain_sched,g000017_c1,17,,49.99999999999999,0.002025669827248297,0.019151381605752672,100.0,,,,,,,,,,1.6319,3.3699,11.0876,0.0,1.0923,0.00594,0.3579,0.0,12.0,,,,,,4.75107,PASS,
140,s02_leg_height_gain_sched,g000017_c2,17,,49.99999999999999,0.001,0.011836530108730873,37.23780427747017,,,,,,,,,,1.7549,3.5512,10.0375,0.0,1.0159,0.005954,0.3579,0.0,12.0,,,,,,5.26013,PASS,
141,s02_leg_height_gain_sched,g000017_c3,17,,21.197972131394454,0.001,0.005889699036643038,98.62837589554032,,,,,,,,,,1.323,2.8619,13.6992,0.0,1.3384,0.005925,0.3579,0.0,12.0,,,,,,4.3177,PASS,
142,s02_leg_height_gain_sched,g000017_c4,17,,49.99999999999999,0.001,0.004579001744035108,100.0,,,,,,,,,,1.2556,2.7451,14.0669,0.0,1.3733,0.005921,0.3579,0.0,12.0,,,,,,4.21902,PASS,
143,s02_leg_height_gain_sched,g000017_c5,17,,49.99999999999999,0.001,0.00412005945985936,72.02600300379025,,,,,,,,,,1.2977,2.8391,13.668,0.0,1.3347,0.005924,0.3579,0.0,12.0,,,,,,4.26515,PASS,
144,s02_leg_height_gain_sched,g000017_c6,17,,49.99999999999999,0.00324134011375407,0.0029675718366776187,100.0,,,,,,,,,,1.1731,2.5448,14.9397,0.0,1.4626,0.005922,0.3579,0.0,12.0,,,,,,4.3748,PASS,
145,s02_leg_height_gain_sched,g000017_c7,17,,29.578566338467294,0.001,0.00767949405900262,100.0,,,,,,,,,,1.3795,2.9779,13.0795,0.0,1.2741,0.005926,0.3579,0.0,12.0,,,,,,4.34477,PASS,
146,s02_leg_height_gain_sched,g000018_c0,18,,49.99999999999999,0.0013045602963304551,0.009036449665216212,97.01716034507245,,,,,,,,,,1.43,3.0574,12.7902,0.0,1.2601,0.005933,0.3579,0.0,12.0,,,,,,4.53016,PASS,
147,s02_leg_height_gain_sched,g000018_c1,18,,49.99999999999999,0.0013564498595529514,0.0063001504514956135,71.51788293773888,,,,,,,,,,1.431,3.0215,13.1317,0.0,1.2995,0.005933,0.3579,0.0,12.0,,,,,,4.68198,PASS,
148,s02_leg_height_gain_sched,g000018_c2,18,,24.501662496698625,0.001518333813915445,0.004721257662770656,78.87151285713084,,,,,,,,,,1.3204,2.8661,13.59,0.0,1.3253,0.005925,0.3579,0.0,12.0,,,,,,4.34683,PASS,
149,s02_leg_height_gain_sched,g000018_c3,18,,32.648583464181854,0.001,0.01569662940749728,67.222814032101,,,,,,,,,,1.6734,3.4606,10.6707,0.0,1.0836,0.005952,0.3579,0.0,12.0,,,,,,5.16518,PASS,
150,s02_leg_height_gain_sched,g000018_c4,18,,40.25595497938833,0.001,0.0029438690845805865,100.0,,,,,,,,,,1.1727,2.5371,14.9013,0.0,1.4555,0.00592,0.3579,0.0,12.0,,,,,,4.29624,PASS,
151,s02_leg_height_gain_sched,g000018_c5,18,,49.99999999999999,0.0014129805175143043,0.0029584740059923295,54.7747905989155,,,,,,,,,,1.2812,2.8044,13.8238,0.0,1.3529,0.005925,0.3579,0.0,12.0,,,,,,4.32088,PASS,
152,s02_leg_height_gain_sched,g000018_c6,18,,43.26336816435587,0.001,0.003850218233312747,100.0,,,,,,,,,,1.215,2.6672,14.2731,0.0,1.3935,0.005921,0.3579,0.0,12.0,,,,,,4.2064,PASS,
153,s02_leg_height_gain_sched,g000018_c7,18,,49.99999999999999,0.00234089045815829,0.0032871950927790532,100.0,,,,,,,,,,1.1942,2.5847,14.8323,0.0,1.4524,0.005923,0.3579,0.0,12.0,,,,,,4.43765,PASS,
154,s02_leg_height_gain_sched,g000019_c0,19,,28.030532637596735,0.001,0.003238927702958541,64.35875303626408,,,,,,,,,,1.2765,2.7883,13.9498,0.0,1.3649,0.005922,0.3579,0.0,12.0,,,,,,4.26687,PASS,
155,s02_leg_height_gain_sched,g000019_c1,19,,34.21350067848305,0.001,0.003819949882531979,64.59765197419463,,,,,,,,,,1.3112,2.8593,13.5395,0.0,1.3189,0.005922,0.3579,0.0,12.0,,,,,,4.29483,PASS,
156,s02_leg_height_gain_sched,g000019_c2,19,,41.79678637580472,0.001,0.0018485859900128157,100.0,,,,,,,,,,1.1068,2.3477,15.6949,0.0,1.5384,0.005919,0.3579,0.0,12.0,,,,,,4.41986,PASS,
157,s02_leg_height_gain_sched,g000019_c3,19,,49.99999999999999,0.001,0.011007882081726896,100.0,,,,,,,,,,1.4756,3.1394,12.3764,0.0,1.2094,0.005928,0.3579,0.0,12.0,,,,,,4.36046,PASS,
158,s02_leg_height_gain_sched,g000019_c4,19,,19.100096496822395,0.001361978886875097,0.006650872573086597,100.0,,,,,,,,,,1.3527,2.9214,13.5049,0.0,1.3233,0.005926,0.3579,0.0,12.0,,,,,,4.37806,PASS,
159,s02_leg_height_gain_sched,g000019_c5,19,,49.99999999999999,0.0016241960415691783,0.001910858348994329,91.17528496195824,,,,,,,,,,1.1197,2.3925,15.4201,0.0,1.5093,0.00592,0.3579,0.0,12.0,,,,,,4.36116,PASS,
160,s02_leg_height_gain_sched,g000019_c6,19,,24.291360933113467,0.001,0.0046738497804528515,96.34418484947854,,,,,,,,,,1.2757,2.771,14.0721,0.0,1.3729,0.005923,0.3579,0.0,12.0,,,,,,4.30928,PASS,
161,s02_leg_height_gain_sched,g000019_c7,19,,49.99999999999999,0.001,0.006518040081999397,22.2024752787009,,,,,,,,,,1.7649,3.4787,11.0998,0.0,1.1863,0.005986,0.3579,0.0,12.0,,,,,,6.46608,PASS,
162,s02_leg_height_gain_sched,g000020_c0,20,,49.99999999999999,0.001168197206951194,0.0027138221749969005,51.266653002776906,,,,,,,,,,1.276,2.7988,13.8386,0.0,1.3494,0.005924,0.3579,0.0,12.0,,,,,,4.35924,PASS,
163,s02_leg_height_gain_sched,g000020_c1,20,,49.99999999999999,0.001,0.00578138886394874,85.74268563530161,,,,,,,,,,1.3384,2.9175,13.3569,0.0,1.3002,0.005925,0.3579,0.0,12.0,,,,,,4.32845,PASS,
164,s02_leg_height_gain_sched,g000020_c2,20,,46.73532469767779,0.0013067047168185402,0.006084592897949111,100.0,,,,,,,,,,1.3189,2.8713,13.5768,0.0,1.3286,0.005925,0.3579,0.0,12.0,,,,,,4.34678,PASS,
165,s02_leg_height_gain_sched,g000020_c3,20,,49.99999999999999,0.0011784102644388816,0.003954187531239372,94.969044290934,,,,,,,,,,1.2329,2.6978,14.2219,0.0,1.3882,0.005923,0.3579,0.0,12.0,,,,,,4.29088,PASS,
166,s02_leg_height_gain_sched,g000020_c4,20,,49.99999999999999,0.001,0.00311694773606769,90.1863158916584,,,,,,,,,,1.2041,2.6073,14.7818,0.0,1.4554,0.005922,0.3579,0.0,12.0,,,,,,4.50073,PASS,
167,s02_leg_height_gain_sched,g000020_c5,20,,22.58458524360988,0.001,0.004035340509123914,43.392395205886444,,,,,,,,,,1.4312,3.0626,12.9776,0.0,1.2782,0.005935,0.3579,0.0,12.0,,,,,,4.70234,PASS,
168,s02_leg_height_gain_sched,g000020_c6,20,,49.99999999999999,0.001,0.0034514483278941274,73.43828913886301,,,,,,,,,,1.2578,2.7481,14.0923,0.0,1.3752,0.005923,0.3579,0.0,12.0,,,,,,4.23839,PASS,
169,s02_leg_height_gain_sched,g000020_c7,20,,29.93513540720111,0.001,0.0056479079350324314,100.0,,,,,,,,,,1.3047,2.8417,13.7112,0.0,1.3393,0.005924,0.3579,0.0,12.0,,,,,,4.31461,PASS,
170,s02_leg_height_gain_sched,g000021_c0,21,,49.99999999999999,0.001,0.004554748871154167,93.99636602731088,,,,,,,,,,1.269,2.7662,14.0375,0.0,1.3729,0.005924,0.3579,0.0,12.0,,,,,,4.3285,PASS,
171,s02_leg_height_gain_sched,g000021_c1,21,,26.887795459687595,0.0010530527989499683,0.0035977379819242183,59.58632058646729,,,,,,,,,,1.317,2.8736,13.5848,0.0,1.3286,0.005924,0.3579,0.0,12.0,,,,,,4.30324,PASS,
172,s02_leg_height_gain_sched,g000021_c2,21,,49.99999999999999,0.001,0.002711509875402179,82.6181612030261,,,,,,,,,,1.1857,2.5918,14.6735,0.0,1.4365,0.005922,0.3579,0.0,12.0,,,,,,4.42979,PASS,
173,s02_leg_height_gain_sched,g000021_c3,21,,46.72451878771711,0.0012081018895087072,0.004671913955074014,100.0,,,,,,,,,,1.2572,2.7536,14.0025,0.0,1.366,0.005924,0.3579,0.0,12.0,,,,,,4.32963,PASS,
174,s02_leg_height_gain_sched,g000021_c4,21,,45.385708888620115,0.001060290039394246,0.0037229000465447784,100.0,,,,,,,,,,1.2121,2.6497,14.4397,0.0,1.411,0.005921,0.3579,0.0,12.0,,,,,,4.32862,PASS,
175,s02_leg_height_gain_sched,g000021_c5,21,,32.91142051966752,0.001,0.003131589021293182,100.0,,,,,,,,,,1.1896,2.5709,14.9243,0.0,1.4616,0.005921,0.3579,0.0,12.0,,,,,,4.41196,PASS,
176,s02_leg_height_gain_sched,g000021_c6,21,,39.77976719711347,0.001,0.00941189809000111,100.0,,,,,,,,,,1.4263,3.0752,12.6127,0.0,1.2324,0.005928,0.3579,0.0,12.0,,,,,,4.34225,PASS,
177,s02_leg_height_gain_sched,g000021_c7,21,,30.972930152703015,0.0011403792241515298,0.002850750163386202,100.0,,,,,,,,,,1.1626,2.5343,14.8076,0.0,1.4506,0.00592,0.3579,0.0,12.0,,,,,,4.29763,PASS,
178,s02_leg_height_gain_sched,g000022_c0,22,,38.04984201907741,0.0012043072281642327,0.0041650748740623515,95.488363436697,,,,,,,,,,1.2443,2.7196,14.2272,0.0,1.3887,0.005923,0.3579,0.0,12.0,,,,,,4.4401,PASS,
179,s02_leg_height_gain_sched,g000022_c1,22,,48.9400799201044,0.0011336197949754496,0.0034949194586172986,77.73504267129532,,,,,,,,,,1.2485,2.7323,14.1731,0.0,1.391,0.005925,0.3579,0.0,12.0,,,,,,4.46684,PASS,
180,s02_leg_height_gain_sched,g000022_c2,22,,49.99999999999999,0.001,0.0034968108059193347,100.0,,,,,,,,,,1.2043,2.6147,14.7333,0.0,1.4439,0.005922,0.3579,0.0,12.0,,,,,,4.40026,PASS,
181,s02_leg_height_gain_sched,g000022_c3,22,,35.84370707171538,0.001,0.004351202810950818,62.764282717035954,,,,,,,,,,1.3504,2.9346,13.219,0.0,1.2847,0.005924,0.3579,0.0,12.0,,,,,,4.21449,PASS,
182,s02_leg_height_gain_sched,g000022_c4,22,,37.712577445764296,0.001,0.003353270587269884,100.0,,,,,,,,,,1.197,2.6046,14.6704,0.0,1.4314,0.005922,0.3579,0.0,12.0,,,,,,4.32932,PASS,
183,s02_leg_height_gain_sched,g000022_c5,22,,49.99999999999999,0.00186455268166838,0.0034285277597441337,93.30316673131968,,,,,,,,,,1.2127,2.6408,14.5254,0.0,1.418,0.005922,0.3579,0.0,12.0,,,,,,4.30288,PASS,
184,s02_leg_height_gain_sched,g000022_c6,22,,33.338988618700355,0.001,0.003655496659593674,96.11379825934324,,,,,,,,,,1.2219,2.6587,14.4937,0.0,1.4204,0.005923,0.3579,0.0,12.0,,,,,,4.43793,PASS,
185,s02_leg_height_gain_sched,g000022_c7,22,,31.614467667124792,0.001,0.0030207395422203707,52.576595435518875,,,,,,,,,,1.3076,2.8413,13.8087,0.0,1.3568,0.005927,0.3579,0.0,12.0,,,,,,4.52695,PASS,
186,s02_leg_height_gain_sched,g000023_c0,23,,45.68853255690122,0.001,0.0024186471737974663,100.0,,,,,,,,,,1.1441,2.4573,15.2938,0.0,1.4961,0.005921,0.3579,0.0,12.0,,,,,,4.45603,PASS,
187,s02_leg_height_gain_sched,g000023_c1,23,,49.99999999999999,0.0014647642564051112,0.004210031639798904,87.76484053277946,,,,,,,,,,1.2646,2.76,14.0479,0.0,1.3696,0.005923,0.3579,0.0,12.0,,,,,,4.28334,PASS,
188,s02_leg_height_gain_sched,g000023_c2,23,,31.27070304844532,0.001,0.0032300695427581894,100.0,,,,,,,,,,1.188,2.5877,14.7507,0.0,1.4423,0.005921,0.3579,0.0,12.0,,,,,,4.36728,PASS,
189,s02_leg_height_gain_sched,g000023_c3,23,,28.34950380358804,0.001,0.004013150003038812,75.92967052318832,,,,,,,,,,1.2943,2.8111,13.9272,0.0,1.3609,0.005925,0.3579,0.0,12.0,,,,,,4.32759,PASS,
190,s02_leg_height_gain_sched,g000023_c4,23,,49.99999999999999,0.001,0.0032004954049927223,100.0,,,,,,,,,,1.1891,2.578,14.8468,0.0,1.4498,0.005922,0.3579,0.0,12.0,,,,,,4.39543,PASS,
191,s02_leg_height_gain_sched,g000023_c5,23,,42.16916399849616,0.001,0.0033193254607918276,97.62768092649907,,,,,,,,,,1.1974,2.6065,14.6315,0.0,1.4296,0.005921,0.3579,0.0,12.0,,,,,,4.29492,PASS,
192,s02_leg_height_gain_sched,g000023_c6,23,,49.99999999999999,0.001,0.0035229516455092206,89.4928155192641,,,,,,,,,,1.2219,2.6716,14.3595,0.0,1.4004,0.005922,0.3579,0.0,12.0,,,,,,4.37427,PASS,
193,s02_leg_height_gain_sched,g000023_c7,23,,32.18703986766717,0.001418283817084544,0.0035080545371638794,100.0,,,,,,,,,,1.2037,2.6268,14.5567,0.0,1.421,0.00592,0.3579,0.0,12.0,,,,,,4.2722,PASS,
194,s02_leg_height_gain_sched,g000024_c0,24,,42.98192139648949,0.001177619282716509,0.0038215790409489884,75.05841873158495,,,,,,,,,,1.2722,2.7905,13.8493,0.0,1.3496,0.005923,0.3579,0.0,12.0,,,,,,4.22663,PASS,
195,s02_leg_height_gain_sched,g000024_c1,24,,49.99999999999999,0.001,0.003288732171095974,75.50402941174437,,,,,,,,,,1.2354,2.7197,14.1901,0.0,1.3929,0.005926,0.3579,0.0,12.0,,,,,,4.43442,PASS,
196,s02_leg_height_gain_sched,g000024_c2,24,,40.048192605887614,0.001,0.0031262762552429677,100.0,,,,,,,,,,1.1855,2.5712,14.9008,0.0,1.4621,0.005923,0.3579,0.0,12.0,,,,,,4.4426,PASS,
197,s02_leg_height_gain_sched,g000024_c3,24,,46.71629391254009,0.001007645731800093,0.004127073373225912,64.736313360134,,,,,,,,,,1.3218,2.8892,13.4745,0.0,1.3122,0.005926,0.3579,0.0,12.0,,,,,,4.35233,PASS,
198,s02_leg_height_gain_sched,g000024_c4,24,,42.32969777366257,0.001,0.003907487750402729,77.93525586386401,,,,,,,,,,1.2766,2.7841,13.9752,0.0,1.3637,0.005924,0.3579,0.0,12.0,,,,,,4.42624,PASS,
199,s02_leg_height_gain_sched,g000024_c5,24,,32.49945943958754,0.001,0.0033556990329809086,100.0,,,,,,,,,,1.1971,2.6057,14.6471,0.0,1.4309,0.00592,0.3579,0.0,12.0,,,,,,4.33998,PASS,
200,s02_leg_height_gain_sched,g000024_c6,24,,49.99999999999999,0.001,0.003742258274942164,100.0,,,,,,,,,,1.2157,2.6526,14.5313,0.0,1.4224,0.005921,0.3579,0.0,12.0,,,,,,4.34106,PASS,
201,s02_leg_height_gain_sched,g000024_c7,24,,49.99999999999999,0.001,0.004576278538626504,94.41420731500662,,,,,,,,,,1.2626,2.7687,13.9567,0.0,1.3668,0.005925,0.3579,0.0,12.0,,,,,,4.3624,PASS,
202,s02_leg_height_gain_sched,g000025_c0,25,,37.469315076805316,0.0012989816131786752,0.0033394683879991462,100.0,,,,,,,,,,1.205,2.6026,14.9144,0.0,1.4704,0.005923,0.3579,0.0,12.0,,,,,,4.47189,PASS,
203,s02_leg_height_gain_sched,g000025_c1,25,,44.751132349469266,0.0010082840893687252,0.0031892416684282648,82.17074904098719,,,,,,,,,,1.2256,2.6599,14.5384,0.0,1.4226,0.005922,0.3579,0.0,12.0,,,,,,4.43219,PASS,
204,s02_leg_height_gain_sched,g000025_c2,25,,49.99999999999999,0.001,0.00375140939238577,100.0,,,,,,,,,,1.2199,2.65,14.6236,0.0,1.4353,0.005923,0.3579,0.0,12.0,,,,,,4.34163,PASS,
205,s02_leg_height_gain_sched,g000025_c3,25,,43.44905567797316,0.001103983715886399,0.004437102714512247,86.68008390149379,,,,,,,,,,1.2769,2.7976,13.883,0.0,1.3597,0.005925,0.3579,0.0,12.0,,,,,,4.37599,PASS,
206,s02_leg_height_gain_sched,g000025_c4,25,,35.08175657322842,0.0010852605671043498,0.0025829866973955,100.0,,,,,,,,,,1.1484,2.49,14.9943,0.0,1.4683,0.00592,0.3579,0.0,12.0,,,,,,4.30337,PASS,
207,s02_leg_height_gain_sched,g000025_c5,25,,45.73999725704772,0.001,0.0037854056419688595,98.01499122856286,,,,,,,,,,1.2227,2.6609,14.5472,0.0,1.4258,0.005923,0.3579,0.0,12.0,,,,,,4.39705,PASS,
208,s02_leg_height_gain_sched,g000025_c6,25,,39.29638330994132,0.001,0.004434445051710633,100.0,,,,,,,,,,1.2558,2.7266,14.3457,0.0,1.4077,0.005924,0.3579,0.0,12.0,,,,,,4.44912,PASS,
209,s02_leg_height_gain_sched,g000025_c7,25,,47.13420016804096,0.0010467406084832538,0.0037477693710139463,99.43156436645833,,,,,,,,,,1.2136,2.6505,14.4668,0.0,1.4112,0.005922,0.3579,0.0,12.0,,,,,,4.29842,PASS,
210,s02_leg_height_gain_sched,g000026_c0,26,,38.92136588925511,0.001441501820910622,0.004521992823908155,100.0,,,,,,,,,,1.2616,2.737,14.2512,0.0,1.3938,0.005923,0.3579,0.0,12.0,,,,,,4.4163,PASS,
211,s02_leg_height_gain_sched,g000026_c1,26,,39.089809217247094,0.001,0.0035839134367537683,96.31400452694291,,,,,,,,,,1.2209,2.6501,14.6479,0.0,1.44,0.005924,0.3579,0.0,12.0,,,,,,4.43947,PASS,
212,s02_leg_height_gain_sched,g000026_c2,26,,43.023081716353346,0.001,0.0037526901398553837,97.84824147079368,,,,,,,,,,1.2182,2.6629,14.4282,0.0,1.4097,0.005922,0.3579,0.0,12.0,,,,,,4.35662,PASS,
213,s02_leg_height_gain_sched,g000026_c3,26,,41.32734229031296,0.001,0.0037864946697625445,90.4241068461623,,,,,,,,,,1.2437,2.703,14.3907,0.0,1.4104,0.005922,0.3579,0.0,12.0,,,,,,4.34605,PASS,
214,s02_leg_height_gain_sched,g000026_c4,26,,47.13969724455959,0.0011666711727535309,0.003935900987351095,95.04304211505014,,,,,,,,,,1.2335,2.6999,14.3439,0.0,1.4083,0.005925,0.3579,0.0,12.0,,,,,,4.37785,PASS,
215,s02_leg_height_gain_sched,g000026_c5,26,,44.13892514220099,0.0010585276873922086,0.0034791006797167037,100.0,,,,,,,,,,1.2077,2.6167,14.7487,0.0,1.4465,0.005922,0.3579,0.0,12.0,,,,,,4.40315,PASS,
216,s02_leg_height_gain_sched,g000026_c6,26,,36.23478359824357,0.0010330880553232143,0.0039031231069154,100.0,,,,,,,,,,1.2279,2.6671,14.5396,0.0,1.4286,0.005924,0.3579,0.0,12.0,,,,,,4.45765,PASS,
217,s02_leg_height_gain_sched,g000026_c7,26,,38.494803221019524,0.0010632217269463359,0.004233099668117101,84.80139663469657,,,,,,,,,,1.2783,2.7826,13.981,0.0,1.3653,0.005923,0.3579,0.0,12.0,,,,,,4.38439,PASS,
218,s02_leg_height_gain_sched,g000027_c0,27,,46.69949234100442,0.0011390930296647135,0.0032470514330552843,100.0,,,,,,,,,,1.1909,2.587,14.7814,0.0,1.448,0.005921,0.3579,0.0,12.0,,,,,,4.37512,PASS,
219,s02_leg_height_gain_sched,g000027_c1,27,,49.99999999999999,0.0010531347725289421,0.0034022076436080947,90.0115855378818,,,,,,,,,,1.2151,2.6511,14.5811,0.0,1.4339,0.005926,0.3579,0.0,12.0,,,,,,4.45878,PASS,
220,s02_leg_height_gain_sched,g000027_c2,27,,47.74862978078922,0.001,0.004393812811067285,96.76642081113282,,,,,,,,,,1.2521,2.736,14.1306,0.0,1.3797,0.005923,0.3579,0.0,12.0,,,,,,4.32772,PASS,
221,s02_leg_height_gain_sched,g000027_c3,27,,42.00374333808674,0.0010766547066975362,0.0037930795976941238,100.0,,,,,,,,,,1.2149,2.6573,14.4125,0.0,1.4048,0.005922,0.3579,0.0,12.0,,,,,,4.26008,PASS,
222,s02_leg_height_gain_sched,g000027_c4,27,,44.16944639777086,0.00102847758602352,0.004117974274225186,100.0,,,,,,,,,,1.2378,2.6926,14.471,0.0,1.4255,0.005925,0.3579,0.0,12.0,,,,,,4.49421,PASS,
223,s02_leg_height_gain_sched,g000027_c5,27,,37.759380089755545,0.001024853150310997,0.003845645571938072,98.13097979482511,,,,,,,,,,1.2297,2.6725,14.5585,0.0,1.4235,0.005923,0.3579,0.0,12.0,,,,,,4.38603,PASS,
224,s02_leg_height_gain_sched,g000027_c6,27,,42.02311544227557,0.0011564793551546875,0.0038134507222708797,100.0,,,,,,,,,,1.2127,2.6601,14.3024,0.0,1.3984,0.005923,0.3579,0.0,12.0,,,,,,4.33243,PASS,
225,s02_leg_height_gain_sched,g000027_c7,27,,42.06930675020022,0.0011661616960059872,0.0043749538628711756,98.1557613127019,,,,,,,,,,1.2559,2.7286,14.2743,0.0,1.3969,0.005923,0.3579,0.0,12.0,,,,,,4.3687,PASS,
226,s02_leg_height_gain_sched,g000028_c0,28,,44.32189923316474,0.001059629582167591,0.0034445971590132667,98.16309059700937,,,,,,,,,,1.2103,2.6195,14.7756,0.0,1.4456,0.005921,0.3579,0.0,12.0,,,,,,4.39135,PASS,
227,s02_leg_height_gain_sched,g000028_c1,28,,44.75533428461023,0.0010583964073141484,0.0036783189559587985,100.0,,,,,,,,,,1.2176,2.6474,14.6388,0.0,1.4362,0.005923,0.3579,0.0,12.0,,,,,,4.41515,PASS,
228,s02_leg_height_gain_sched,g000028_c2,28,,45.10144848564322,0.0010104307405294016,0.0037949754761583705,100.0,,,,,,,,,,1.2163,2.6619,14.4421,0.0,1.4177,0.005923,0.3579,0.0,12.0,,,,,,4.36991,PASS,
229,s02_leg_height_gain_sched,g000028_c3,28,,43.72323182984875,0.001,0.003963426189573876,98.33317200280725,,,,,,,,,,1.2284,2.6852,14.2733,0.0,1.3914,0.00592,0.3579,0.0,12.0,,,,,,4.3536,PASS,
230,s02_leg_height_gain_sched,g000028_c4,28,,45.65227330148472,0.0010052625316731808,0.004049054907098451,100.0,,,,,,,,,,1.2285,2.6853,14.304,0.0,1.3936,0.005922,0.3579,0.0,12.0,,,,,,4.30032,PASS,
231,s02_leg_height_gain_sched,g000028_c5,28,,49.137861202586556,0.001,0.0038479526052097573,91.07600141252844,,,,,,,,,,1.2433,2.7038,14.3604,0.0,1.4006,0.005921,0.3579,0.0,12.0,,,,,,4.26494,PASS,
232,s02_leg_height_gain_sched,g000028_c6,28,,47.558025381028166,0.001083177672034156,0.00418457217098921,92.56261749642616,,,,,,,,,,1.2561,2.7311,14.2524,0.0,1.3968,0.005924,0.3579,0.0,12.0,,,,,,4.42884,PASS,
233,s02_leg_height_gain_sched,g000028_c7,28,,44.32718308947347,0.001202627786779056,0.0033592076044032253,100.0,,,,,,,,,,1.2037,2.599,14.9197,0.0,1.4699,0.005922,0.3579,0.0,12.0,,,,,,4.59456,PASS,
234,s02_leg_height_gain_sched,g000029_c0,29,,44.20606685853378,0.0010263693131127617,0.004117936473677333,94.18698298941018,,,,,,,,,,1.2489,2.7212,14.2842,0.0,1.3991,0.005922,0.3579,0.0,12.0,,,,,,4.2504,PASS,
235,s02_leg_height_gain_sched,g000029_c1,29,,41.735467751631056,0.001,0.0040790858218663646,100.0,,,,,,,,,,1.2384,2.6866,14.4423,0.0,1.4133,0.005923,0.3579,0.0,12.0,,,,,,4.37534,PASS,
236,s02_leg_height_gain_sched,g000029_c2,29,,45.1865855998415,0.0010007860584992701,0.004034647498528663,88.15459707498398,,,,,,,,,,1.2564,2.7431,14.1454,0.0,1.3874,0.005923,0.3579,0.0,12.0,,,,,,4.35607,PASS,
237,s02_leg_height_gain_sched,g000029_c3,29,,43.684748650120305,0.0010553862433394104,0.004018365742308182,100.0,,,,,,,,,,1.231,2.6832,14.3282,0.0,1.3982,0.005921,0.3579,0.0,12.0,,,,,,4.23367,PASS,
238,s02_leg_height_gain_sched,g000029_c4,29,,42.284947313433904,0.0010311773027110967,0.0038755045501528834,100.0,,,,,,,,,,1.22,2.6701,14.3712,0.0,1.4065,0.005923,0.3579,0.0,12.0,,,,,,4.37528,PASS,
239,s02_leg_height_gain_sched,g000029_c5,29,,43.09779412692256,0.0010443653525895632,0.0036146481077638693,100.0,,,,,,,,,,1.2087,2.6355,14.4778,0.0,1.4089,0.00592,0.3579,0.0,12.0,,,,,,4.26628,PASS,
240,s02_leg_height_gain_sched,g000029_c6,29,,45.33385367705119,0.0010424402662483174,0.003507916141969199,100.0,,,,,,,,,,1.2053,2.6165,14.7192,0.0,1.4386,0.005922,0.3579,0.0,12.0,,,,,,4.36954,PASS,
241,s02_leg_height_gain_sched,g000029_c7,29,,43.93598446270392,0.00106086854756964,0.003602235732103672,100.0,,,,,,,,,,1.2093,2.6297,14.5626,0.0,1.4234,0.005921,0.3579,0.0,12.0,,,,,,4.36826,PASS,
242,s02_leg_height_gain_sched,g000030_c0,30,,45.750981466658516,0.001,0.003999917414312182,100.0,,,,,,,,,,1.2325,2.6786,14.5098,0.0,1.4295,0.005924,0.3579,0.0,12.0,,,,,,4.47361,PASS,
243,s02_leg_height_gain_sched,g000030_c1,30,,45.6144695885233,0.001,0.003803663024356454,99.31187852161437,,,,,,,,,,1.2192,2.6605,14.3637,0.0,1.3986,0.00592,0.3579,0.0,12.0,,,,,,4.21829,PASS,
244,s02_leg_height_gain_sched,g000030_c2,30,,42.71472929319893,0.001,0.0038945739236986455,97.66666692753681,,,,,,,,,,1.2257,2.6802,14.3182,0.0,1.3987,0.005922,0.3579,0.0,12.0,,,,,,4.41085,PASS,
245,s02_leg_height_gain_sched,g000030_c3,30,,44.54435145377602,0.0010633621341982796,0.004453521562725629,100.0,,,,,,,,,,1.2488,2.7287,14.118,0.0,1.3773,0.005922,0.3579,0.0,12.0,,,,,,4.29582,PASS,
246,s02_leg_height_gain_sched,g000030_c4,30,,40.33208213580886,0.0010221152774792348,0.003761330643615485,100.0,,,,,,,,,,1.2194,2.654,14.5396,0.0,1.4209,0.005921,0.3579,0.0,12.0,,,,,,4.35495,PASS,
247,s02_leg_height_gain_sched,g000030_c5,30,,43.256820853120075,0.0010455855632194107,0.00357580169453297,92.66895146502694,,,,,,,,,,1.2233,2.6673,14.4389,0.0,1.4174,0.005922,0.3579,0.0,12.0,,,,,,4.35581,PASS,
248,s02_leg_height_gain_sched,g000030_c6,30,,43.50648738541536,0.0010728107371230189,0.003879848038946548,100.0,,,,,,,,,,1.2185,2.6694,14.3387,0.0,1.3993,0.005921,0.3579,0.0,12.0,,,,,,4.35671,PASS,
249,s02_leg_height_gain_sched,g000030_c7,30,,45.13586142461992,0.001,0.0038446997435286566,98.4873426694855,,,,,,,,,,1.2246,2.6695,14.4405,0.0,1.4075,0.005922,0.3579,0.0,12.0,,,,,,4.35562,PASS,
250,s02_leg_height_gain_sched,g000031_c0,31,,42.40208837687319,0.001033429705150558,0.0038878939645273134,94.61722675032938,,,,,,,,,,1.2318,2.6952,14.2864,0.0,1.3982,0.005922,0.3579,0.0,12.0,,,,,,4.3275,PASS,
251,s02_leg_height_gain_sched,g000031_c1,31,,44.605099417234364,0.001003262630321132,0.0036976519758683884,95.90465401267984,,,,,,,,,,1.22,2.669,14.4599,0.0,1.4099,0.005922,0.3579,0.0,12.0,,,,,,4.32288,PASS,
252,s02_leg_height_gain_sched,g000031_c2,31,,42.266589451654596,0.0010104272724279584,0.0038202155931717605,100.0,,,,,,,,,,1.219,2.6629,14.4453,0.0,1.4151,0.005923,0.3579,0.0,12.0,,,,,,4.32418,PASS,
253,s02_leg_height_gain_sched,g000031_c3,31,,44.34786748319017,0.0010755357427203692,0.003739294436577621,97.8512985746481,,,,,,,,,,1.2235,2.6611,14.5675,0.0,1.4329,0.005922,0.3579,0.0,12.0,,,,,,4.48931,PASS,
254,s02_leg_height_gain_sched,g000031_c4,31,,42.83056090811263,0.001,0.004065492807460941,100.0,,,,,,,,,,1.2316,2.6883,14.3959,0.0,1.408,0.005923,0.3579,0.0,12.0,,,,,,4.33606,PASS,
255,s02_leg_height_gain_sched,g000031_c5,31,,49.99999999999999,0.0010575314736795444,0.003798664104104841,100.0,,,,,,,,,,1.2178,2.6548,14.4758,0.0,1.4166,0.005922,0.3579,0.0,12.0,,,,,,4.33633,PASS,
256,s02_leg_height_gain_sched,g000031_c6,31,,42.23921852489351,0.0010810431301411922,0.003638777755692092,100.0,,,,,,,,,,1.2074,2.6382,14.4622,0.0,1.413,0.005921,0.3579,0.0,12.0,,,,,,4.28964,PASS,
257,s02_leg_height_gain_sched,g000031_c7,31,,46.14731952216512,0.0010393725974702183,0.003941628193445979,100.0,,,,,,,,,,1.2242,2.6772,14.3301,0.0,1.4016,0.005921,0.3579,0.0,12.0,,,,,,4.3381,PASS,
258,s02_leg_height_gain_sched,g000032_c0,32,,40.77472019704082,0.0010196170186422071,0.004091252714966431,100.0,,,,,,,,,,1.2334,2.6909,14.3329,0.0,1.4058,0.005924,0.3579,0.0,12.0,,,,,,4.43976,PASS,
259,s02_leg_height_gain_sched,g000032_c1,32,,43.750182260822214,0.001,0.0038313919932282904,99.15941033501284,,,,,,,,,,1.223,2.6659,14.4133,0.0,1.4091,0.005921,0.3579,0.0,12.0,,,,,,4.36675,PASS,
260,s02_leg_height_gain_sched,g000032_c2,32,,43.51682937241777,0.0010066439675345748,0.0038255700261096886,100.0,,,,,,,,,,1.2252,2.6605,14.5799,0.0,1.4342,0.005922,0.3579,0.0,12.0,,,,,,4.48803,PASS,
261,s02_leg_height_gain_sched,g000032_c3,32,,40.93403452471597,0.0010236137822669598,0.003985068966787886,97.75901232247143,,,,,,,,,,1.2305,2.6879,14.2856,0.0,1.3939,0.005922,0.3579,0.0,12.0,,,,,,4.32266,PASS,
262,s02_leg_height_gain_sched,g000032_c4,32,,43.13397360434657,0.001,0.003747786644152154,98.99288804261374,,,,,,,,,,1.2171,2.6539,14.4557,0.0,1.4089,0.005921,0.3579,0.0,12.0,,,,,,4.2993,PASS,
263,s02_leg_height_gain_sched,g000032_c5,32,,43.6732516846892,0.001,0.003697835052231874,98.0558553893904,,,,,,,,,,1.2173,2.659,14.4638,0.0,1.4163,0.005923,0.3579,0.0,12.0,,,,,,4.35196,PASS,
264,s02_leg_height_gain_sched,g000032_c6,32,,42.38606536850568,0.001065233460707517,0.0038298331463745535,96.37957717043359,,,,,,,,,,1.2243,2.6828,14.2816,0.0,1.3961,0.005922,0.3579,0.0,12.0,,,,,,4.27617,PASS,
265,s02_leg_height_gain_sched,g000032_c7,32,,45.300709790232204,0.0010815539219759618,0.0040508203220028125,97.72300433243065,,,,,,,,,,1.2357,2.7037,14.2803,0.0,1.3942,0.005921,0.3579,0.0,12.0,,,,,,4.34119,PASS,
266,s02_leg_height_gain_sched,g000033_c0,33,,44.123516282011295,0.0010202334211704195,0.003923630526302245,98.56985333140535,,,,,,,,,,1.2255,2.6835,14.3385,0.0,1.406,0.005923,0.3579,0.0,12.0,,,,,,4.32692,PASS,
267,s02_leg_height_gain_sched,g000033_c1,33,,41.31293736032004,0.0010400098199483134,0.003945462477886484,98.42801054399297,,,,,,,,,,1.2332,2.685,14.4548,0.0,1.4182,0.005923,0.3579,0.0,12.0,,,,,,4.47457,PASS,
268,s02_leg_height_gain_sched,g000033_c2,33,,42.562173794849166,0.001,0.003710367982368358,100.0,,,,,,,,,,1.2147,2.6522,14.4989,0.0,1.4126,0.00592,0.3579,0.0,12.0,,,,,,4.32745,PASS,
269,s02_leg_height_gain_sched,g000033_c3,33,,44.034949374331376,0.001012230739900393,0.00392294013146648,94.92018259583224,,,,,,,,,,1.2377,2.693,14.3591,0.0,1.4037,0.005924,0.3579,0.0,12.0,,,,,,4.34679,PASS,
270,s02_leg_height_gain_sched,g000033_c4,33,,42.2581360233182,0.0010356453021168823,0.003903094179744861,100.0,,,,,,,,,,1.2224,2.6745,14.3313,0.0,1.4018,0.005921,0.3579,0.0,12.0,,,,,,4.27213,PASS,
271,s02_leg_height_gain_sched,g000033_c5,33,,41.67401992270243,0.001053599239547811,0.004051564071176054,96.80613507494773,,,,,,,,,,1.2343,2.7045,14.1576,0.0,1.3815,0.005922,0.3579,0.0,12.0,,,,,,4.2725,PASS,
272,s02_leg_height_gain_sched,g000033_c6,33,,41.78542627775506,0.0010378572000759247,0.003921601094058818,99.09511732687415,,,,,,,,,,1.2255,2.6781,14.3736,0.0,1.4081,0.005923,0.3579,0.0,12.0,,,,,,4.31289,PASS,
273,s02_leg_height_gain_sched,g000033_c7,33,,44.85163271957436,0.001,0.0040491777660546305,100.0,,,,,,,,,,1.2394,2.6836,14.5527,0.0,1.4363,0.005927,0.3579,0.0,12.0,,,,,,4.5155,PASS,
274,s02_leg_height_gain_sched,g000034_c0,34,,42.63067525837582,0.001,0.003961612596071758,95.89784808298012,,,,,,,,,,1.2374,2.6948,14.4306,0.0,1.4129,0.005923,0.3579,0.0,12.0,,,,,,4.48116,PASS,
275,s02_leg_height_gain_sched,g000034_c1,34,,42.92445660577385,0.0010215003537971648,0.0038477005976577834,100.0,,,,,,,,,,1.2207,2.6625,14.4589,0.0,1.411,0.005922,0.3579,0.0,12.0,,,,,,4.27353,PASS,
276,s02_leg_height_gain_sched,g000034_c2,34,,43.91804514910655,0.001,0.003726107345369883,100.0,,,,,,,,,,1.216,2.6475,14.5736,0.0,1.4312,0.005922,0.3579,0.0,12.0,,,,,,4.38484,PASS,
277,s02_leg_height_gain_sched,g000034_c3,34,,42.043226024820086,0.001,0.0038821536140295305,100.0,,,,,,,,,,1.2198,2.6704,14.3166,0.0,1.396,0.005921,0.3579,0.0,12.0,,,,,,4.31639,PASS,
278,s02_leg_height_gain_sched,g000034_c4,34,,41.33358353566308,0.001,0.003890613631641714,100.0,,,,,,,,,,1.2195,2.6673,14.3293,0.0,1.4005,0.005921,0.3579,0.0,12.0,,,,,,4.26552,PASS,
279,s02_leg_height_gain_sched,g000034_c5,34,,43.74077768514376,0.001,0.0038463138713390015,96.4171084211536,,,,,,,,,,1.2262,2.683,14.3699,0.0,1.4075,0.005923,0.3579,0.0,12.0,,,,,,4.42821,PASS,
280,s02_leg_height_gain_sched,g000034_c6,34,,44.18272960653183,0.001020406486561439,0.003834096947733898,100.0,,,,,,,,,,1.221,2.6557,14.5569,0.0,1.4338,0.005926,0.3579,0.0,12.0,,,,,,4.52481,PASS,
281,s02_leg_height_gain_sched,g000034_c7,34,,41.807727470860776,0.0010211636604688112,0.003774577120536684,98.1912628722967,,,,,,,,,,1.2212,2.6687,14.5106,0.0,1.4255,0.005923,0.3579,0.0,12.0,,,,,,4.45632,PASS,
282,s02_leg_height_gain_sched,g000035_c0,35,,43.480703689387376,0.001,0.003919806467005921,99.4088519627089,,,,,,,,,,1.2249,2.6738,14.3759,0.0,1.4017,0.005922,0.3579,0.0,12.0,,,,,,4.32615,PASS,
283,s02_leg_height_gain_sched,g000035_c1,35,,43.98072233524789,0.001,0.00395029787989902,100.0,,,,,,,,,,1.2261,2.678,14.4189,0.0,1.4159,0.005922,0.3579,0.0,12.0,,,,,,4.38224,PASS,
284,s02_leg_height_gain_sched,g000035_c2,35,,41.326708942789296,0.001,0.003943698641315792,100.0,,,,,,,,,,1.2278,2.6729,14.4528,0.0,1.4162,0.005923,0.3579,0.0,12.0,,,,,,4.37443,PASS,
285,s02_leg_height_gain_sched,g000035_c3,35,,43.569664849815,0.0010185654252717175,0.003972878962207928,100.0,,,,,,,,,,1.23,2.6746,14.5604,0.0,1.433,0.005926,0.3579,0.0,12.0,,,,,,4.48456,PASS,
286,s02_leg_height_gain_sched,g000035_c4,35,,41.78016763836596,0.0010071286263525175,0.0038782448736906887,96.6048046144551,,,,,,,,,,1.2259,2.6843,14.2846,0.0,1.3967,0.005922,0.3579,0.0,12.0,,,,,,4.38546,PASS,
287,s02_leg_height_gain_sched,g000035_c5,35,,42.61003026763386,0.001003424403844059,0.003805087763876517,100.0,,,,,,,,,,1.2211,2.6546,14.5107,0.0,1.4187,0.005923,0.3579,0.0,12.0,,,,,,4.3535,PASS,
288,s02_leg_height_gain_sched,g000035_c6,35,,41.46201697196203,0.0010312162963304347,0.0038085801942502047,98.33604109826676,,,,,,,,,,1.2232,2.6656,14.4698,0.0,1.418,0.005923,0.3579,0.0,12.0,,,,,,4.42427,PASS,
289,s02_leg_height_gain_sched,g000035_c7,35,,44.28742452565197,0.001,0.003770675128525321,99.82401776574528,,,,,,,,,,1.2144,2.6543,14.543,0.0,1.4242,0.005924,0.3579,0.0,12.0,,,,,,4.45696,PASS,
290,s02_leg_height_gain_sched,g000036_c0,36,,44.0012782799817,0.0010116604844822338,0.003749870496901392,98.73878666702267,,,,,,,,,,1.2177,2.6602,14.4236,0.0,1.4065,0.005921,0.3579,0.0,12.0,,,,,,4.20321,PASS,
291,s02_leg_height_gain_sched,g000036_c1,36,,41.27969304793741,0.0010028926684377986,0.0037065757213590638,98.45420404031918,,,,,,,,,,1.2173,2.6514,14.4774,0.0,1.4133,0.005922,0.3579,0.0,12.0,,,,,,4.35225,PASS,
292,s02_leg_height_gain_sched,g000036_c2,36,,43.90484478565874,0.001,0.0037427781609596115,100.0,,,,,,,,,,1.2225,2.6455,14.6503,0.0,1.4361,0.005923,0.3579,0.0,12.0,,,,,,4.47421,PASS,
293,s02_leg_height_gain_sched,g000036_c3,36,,42.89680411893342,0.0010004138401988921,0.003889687172697425,97.06568275502211,,,,,,,,,,1.233,2.6795,14.4932,0.0,1.4134,0.005923,0.3579,0.0,12.0,,,,,,4.3941,PASS,
294,s02_leg_height_gain_sched,g000036_c4,36,,42.854170676669334,0.001,0.0038192939591387047,98.71659795264915,,,,,,,,,,1.2174,2.6669,14.3127,0.0,1.3967,0.005921,0.3579,0.0,12.0,,,,,,4.18976,PASS,
295,s02_leg_height_gain_sched,g000036_c5,36,,42.661121582007404,0.001,0.0037473910512976017,100.0,,,,,,,,,,1.2145,2.6476,14.5094,0.0,1.4211,0.005923,0.3579,0.0,12.0,,,,,,4.48081,PASS,
296,s02_leg_height_gain_sched,g000036_c6,36,,43.11186822214196,0.001,0.0038420203225367888,98.06828836771973,,,,,,,,,,1.2191,2.6713,14.2614,0.0,1.3903,0.005922,0.3579,0.0,12.0,,,,,,4.35738,PASS,
297,s02_leg_height_gain_sched,g000036_c7,36,,42.245832336226215,0.0010130433318835282,0.003892767348023871,98.01159355564327,,,,,,,,,,1.232,2.6768,14.4247,0.0,1.4132,0.005922,0.3579,0.0,12.0,,,,,,4.35089,PASS,
298,s02_leg_height_gain_sched,g000037_c0,37,,43.25675612412128,0.0010201257685790676,0.003803779645977839,100.0,,,,,,,,,,1.2207,2.6549,14.53,0.0,1.4227,0.005923,0.3579,0.0,12.0,,,,,,4.39889,PASS,
299,s02_leg_height_gain_sched,g000037_c1,37,,44.01393583687,0.001,0.003741558176470831,95.17096180842155,,,,,,,,,,1.2359,2.6752,14.6551,0.0,1.4407,0.005923,0.3579,0.0,12.0,,,,,,4.47103,PASS,
300,s02_leg_height_gain_sched,g000037_c2,37,,44.34200538932579,0.0010352098606704484,0.003715292466102557,98.5220282472818,,,,,,,,,,1.2206,2.6546,14.6054,0.0,1.4327,0.005923,0.3579,0.0,12.0,,,,,,4.44342,PASS,
301,s02_leg_height_gain_sched,g000037_c3,37,,42.51641683713656,0.001,0.0038965299859039693,96.06647135645412,,,,,,,,,,1.2242,2.691,14.1312,0.0,1.3793,0.005921,0.3579,0.0,12.0,,,,,,4.28808,PASS,
302,s02_leg_height_gain_sched,g000037_c4,37,,41.42366686712718,0.0010177920391188072,0.003873676602732411,100.0,,,,,,,,,,1.2214,2.67,14.4147,0.0,1.4077,0.005921,0.3579,0.0,12.0,,,,,,4.35867,PASS,
