run_id,scenario,label,gen,timestamp,Q_PITCH,Q_PITCH_RATE,Q_VEL,R,KP_V,KI_V,KFF_V,KP_YAW,KI_YAW,LEG_K_S,LEG_B_S,LEG_K_ROLL,LEG_D_ROLL,rms_pitch_deg,max_pitch_deg,wheel_travel_m,wheel_liftoff_s,vel_track_rms_ms,hip_track_rms_rad,hip_cmd_rate_rms,settle_time_s,survived_s,fitness_balance,fitness_disturbance,fitness_drive_slow,fitness_drive_med,fitness_obstacle,fitness,status,fail_reason
1,s02_leg_height_gain_sched,evo_seed,0,,0.096017194,0.021127727,2.3406758e-06,98.982255,,,,,,,,,,1.0443,2.167,18.3491,0.0,1.8374,0.00938,0.3579,0.192,12.0,,,,,,4.75975,PASS,
2,s02_leg_height_gain_sched,g000000_c0,0,,0.5144158606367992,0.0020295087046629623,0.00018113395700120348,100.0,,,,,,,,,,1.0337,2.0743,17.2632,0.0,1.719,0.009381,0.3579,0.192,12.0,,,,,,4.55295,PASS,
3,s02_leg_height_gain_sched,g000000_c1,0,,0.6817141593976711,0.013741689058373132,1.6667858201451483e-06,100.0,,,,,,,,,,1.0454,2.1724,18.1723,0.0,1.8223,0.009381,0.3579,0.192,12.0,,,,,,4.80892,PASS,
4,s02_leg_height_gain_sched,g000000_c2,0,,0.01,0.0040225193110410605,7.848185704361009e-07,100.0,,,,,,,,,,1.0465,2.1758,18.1781,0.0,1.8177,0.00938,0.3579,0.192,12.0,,,,,,4.75379,PASS,
5,s02_leg_height_gain_sched,g000000_c3,0,,0.14468370133318437,0.015476050513692713,4.2954601784050825e-06,100.0,,,,,,,,,,1.0429,2.1636,18.2195,0.0,1.8198,0.00938,0.3579,0.19,12.0,,,,,,4.64824,PASS,
6,s02_leg_height_gain_sched,g000000_c4,0,,0.01,0.00510156732105753,5.502311587431903e-06,100.0,,,,,,,,,,1.0428,2.1616,18.2968,0.0,1.8308,0.00938,0.3579,0.192,12.0,,,,,,4.78169,PASS,
7,s02_leg_height_gain_sched,g000000_c5,0,,1.5382169095804938,0.0016643293669503048,1.72700270625702e-06,100.0,,,,,,,,,,1.0453,2.1688,18.2905,0.0,1.8272,0.00938,0.3579,0.192,12.0,,,,,,4.81973,PASS,
8,s02_leg_height_gain_sched,g000000_c6,0,,19.02560564915378,0.01419213735169739,4.4943258938926023e-07,20.176272748356737,,,,,,,,,,1.0362,2.1517,18.1217,0.0,1.8183,0.009382,0.3579,0.186,12.0,,,,,,4.91331,PASS,
9,s02_leg_height_gain_sched,g000000_c7,0,,0.07514651103681762,0.012229073811387782,4.464980888101407e-07,100.0,,,,,,,,,,1.0476,2.1761,18.2316,0.0,1.8282,0.00938,0.3579,0.19,12.0,,,,,,4.71587,PASS,
10,s02_leg_height_gain_sched,g000001_c0,1,,1.4535251531878357,0.001,3.229285551600767e-05,35.47896493502479,,,,,,,,,,1.0324,2.0992,17.6675,0.0,1.7655,0.009381,0.3579,0.192,12.0,,,,,,4.72921,PASS,
11,s02_leg_height_gain_sched,g000001_c1,1,,0.04765412285139942,0.001,0.0005093585081050836,100.0,,,,,,,,,,1.0525,2.0754,16.4552,0.0,1.6295,0.009382,0.3579,0.194,12.0,,,,,,4.42558,PASS,
12,s02_leg_height_gain_sched,g000001_c2,1,,0.07028990226578323,0.0014268471041504862,5.2400564734708934e-05,100.0,,,,,,,,,,1.0338,2.1196,17.7476,0.0,1.768,0.009381,0.3579,0.19,12.0,,,,,,4.61182,PASS,
13,s02_leg_height_gain_sched,g000001_c3,1,,2.322509656925897,0.001,1.3336438591564512e-06,100.0,,,,,,,,,,1.0457,2.1694,18.2958,0.0,1.8326,0.00938,0.3579,0.192,12.0,,,,,,4.77533,PASS,
14,s02_leg_height_gain_sched,g000001_c4,1,,0.3743756411292347,0.0034280024876018485,0.0002863056116328778,15.652420644806782,,,,,,,,,,1.1452,2.3423,15.1746,0.0,1.4986,0.009385,0.3579,0.192,12.0,,,,,,4.44759,PASS,
15,s02_leg_height_gain_sched,g000001_c5,1,,10.268339616413732,0.0014069438153453617,0.0014525496389048746,100.0,,,,,,,,,,1.1189,2.2501,15.502,0.0,1.5363,0.009384,0.3579,0.192,12.0,,,,,,4.4894,PASS,
16,s02_leg_height_gain_sched,g000001_c6,1,,1.421472064179817,0.001,0.0002033527652398805,16.18582605088668,,,,,,,,,,1.1052,2.1951,15.6017,0.0,1.5424,0.009385,0.3579,0.19,12.0,,,,,,4.50212,PASS,
17,s02_leg_height_gain_sched,g000001_c7,1,,0.2759907358041361,0.001,3.569697278572339e-05,100.0,,,,,,,,,,1.0356,2.1307,17.9733,0.0,1.7911,0.009381,0.3579,0.19,12.0,,,,,,4.73018,PASS,
18,s02_leg_height_gain_sched,g000002_c0,2,,0.34311450335935895,0.001,0.0005455977650947496,100.0,,,,,,,,,,1.0562,2.0768,16.5283,0.0,1.6391,0.009383,0.3579,0.192,12.0,,,,,,4.50985,PASS,
19,s02_leg_height_gain_sched,g000002_c1,2,,2.1205952005687037,0.011093851955849495,0.0007927817508348264,27.088640434218405,,,,,,,,,,1.2095,2.5387,14.4908,0.0,1.4221,0.009386,0.3579,0.192,12.0,,,,,,4.40755,PASS,
20,s02_leg_height_gain_sched,g000002_c2,2,,0.06365132294673996,0.001549231237882612,0.0019852494103111515,4.756028150580777,,,,,,,,,,1.8476,3.6924,8.9328,0.0,0.923,0.00941,0.3579,0.196,12.0,,,,,,5.4264,PASS,
21,s02_leg_height_gain_sched,g000002_c3,2,,0.01,0.06416947462813352,0.0028661294974491004,100.0,,,,,,,,,,1.2072,2.5337,14.5098,0.0,1.4308,0.009387,0.3579,0.194,12.0,,,,,,4.4128,PASS,
22,s02_leg_height_gain_sched,g000002_c4,2,,0.49137001080359366,0.001,0.003107274735990208,10.776008630353532,,,,,,,,,,1.8815,3.8184,10.4159,0.0,1.1049,0.009413,0.3579,0.196,12.0,,,,,,5.84637,PASS,
23,s02_leg_height_gain_sched,g000002_c5,2,,0.6123312072913357,0.07627863392051988,0.0031829114390447897,100.0,,,,,,,,,,1.2252,2.5856,14.3807,0.0,1.4197,0.009386,0.3579,0.194,12.0,,,,,,4.39731,PASS,
24,s02_leg_height_gain_sched,g000002_c6,2,,0.2295091139130824,0.001,2.588501963373955e-05,89.14068591155417,,,,,,,,,,1.0361,2.1335,17.8785,0.0,1.7855,0.009381,0.3579,0.192,12.0,,,,,,4.78923,PASS,
25,s02_leg_height_gain_sched,g000002_c7,2,,0.012408525177085006,0.001,6.76796768290295e-06,61.59922902177099,,,,,,,,,,1.0402,2.1562,18.0874,0.0,1.8138,0.00938,0.3579,0.192,12.0,,,,,,4.81016,PASS,
26,s02_leg_height_gain_sched,g000003_c0,3,,10.182979240502602,0.05712363013472987,0.0005513750758833329,33.61779823161873,,,,,,,,,,1.1292,2.2944,15.2765,0.0,1.5045,0.009384,0.3579,0.19,12.0,,,,,,4.40829,PASS,
27,s02_leg_height_gain_sched,g000003_c1,3,,0.22408923248337442,0.48378929487055505,0.002591936598418947,100.0,,,,,,,,,,1.1945,2.4898,14.7123,0.0,1.453,0.009386,0.3579,0.194,12.0,,,,,,4.51128,PASS,
28,s02_leg_height_gain_sched,g000003_c2,3,,0.1820632459796072,0.006418271769509183,0.0006539038538217651,100.0,,,,,,,,,,1.0633,2.0747,16.3064,0.0,1.6128,0.009383,0.3579,0.192,12.0,,,,,,4.44341,PASS,
29,s02_leg_height_gain_sched,g000003_c3,3,,2.783348013137772,0.9317687850274916,0.0028865744137476896,7.566064180612862,,,,,,,,,,1.9082,3.7459,10.2637,0.256,1.2198,0.009476,0.3579,0.206,12.0,,,,,,8.61478,PASS,
30,s02_leg_height_gain_sched,g000003_c4,3,,1.0591453618673274,0.019585576194214586,0.00013954579000927537,100.0,,,,,,,,,,1.0328,2.0792,17.4193,0.0,1.739,0.009382,0.3579,0.192,12.0,,,,,,4.66077,PASS,
31,s02_leg_height_gain_sched,g000003_c5,3,,0.03921084061465864,0.03430078606661261,0.0009806046022879092,3.8652020699425313,,,,,,,,,,1.715,3.4922,10.2598,0.0,1.0385,0.009402,0.3579,0.196,12.0,,,,,,5.15182,PASS,
32,s02_leg_height_gain_sched,g000003_c6,3,,3.709779030107958,0.012556460320284249,0.0020439052973249203,100.0,,,,,,,,,,1.1552,2.3884,14.957,0.0,1.4775,0.009385,0.3579,0.192,12.0,,,,,,4.43414,PASS,
33,s02_leg_height_gain_sched,g000003_c7,3,,0.8715164976118509,1.0398208116978607,0.0007280504860914913,86.7129554065812,,,,,,,,,,1.08,2.0794,16.0832,0.0,1.5949,0.009383,0.3579,0.194,12.0,,,,,,4.52217,PASS,
34,s02_leg_height_gain_sched,g000004_c0,4,,0.5192726748066339,0.06966971163163312,0.002256519250108314,100.0,,,,,,,,,,1.1687,2.4312,14.8087,0.0,1.4557,0.009384,0.3579,0.192,12.0,,,,,,4.39669,PASS,
35,s02_leg_height_gain_sched,g000004_c1,4,,0.05202830756617301,0.16664602794802516,0.0040255162068643865,88.00045592930465,,,,,,,,,,1.2883,2.7439,13.6638,0.0,1.3399,0.009387,0.3579,0.194,12.0,,,,,,4.38763,PASS,
36,s02_leg_height_gain_sched,g000004_c2,4,,0.5356284980725006,0.016293780263205215,1.0,2.5123061653698935,,,,,,,,,,30.946,57.7791,1.7511,0.0,0.0,0.065499,0.5013,12.0,0.154,,,,,,270.23246,FAIL,fell over
37,s02_leg_height_gain_sched,g000004_c3,4,,0.11973156811883391,0.6030323811655764,0.1499153927211575,32.30080339695815,,,,,,,,,,7.8135,31.0926,17.182,0.078,3.3121,0.00991,0.3579,0.22,12.0,,,,,,191.70383,PASS,
38,s02_leg_height_gain_sched,g000004_c4,4,,0.41173516358550927,0.16223396807544374,0.0010928656163264742,78.07445422153816,,,,,,,,,,1.1151,2.2388,15.538,0.0,1.5356,0.009384,0.3579,0.192,12.0,,,,,,4.45825,PASS,
39,s02_leg_height_gain_sched,g000004_c5,4,,0.24724509517774879,0.0979019201078005,0.0014423524848258895,3.281995836483607,,,,,,,,,,1.9107,3.6919,9.5173,0.0,1.0426,0.009425,0.3579,0.196,12.0,,,,,,6.89675,PASS,
40,s02_leg_height_gain_sched,g000004_c6,4,,2.6939755500018188,0.002644386716796607,0.001453175272504074,81.49647323101668,,,,,,,,,,1.1407,2.3367,15.161,0.0,1.4946,0.009385,0.3579,0.192,12.0,,,,,,4.43334,PASS,
41,s02_leg_height_gain_sched,g000004_c7,4,,1.5616667639010187,0.07874881289543124,0.04178664121479158,100.0,,,,,,,,,,2.0154,4.4085,9.9102,0.0,1.1059,0.009428,0.3579,0.196,12.0,,,,,,7.18724,PASS,
42,s02_leg_height_gain_sched,g000005_c0,5,,0.09550299085559275,0.3899582698282615,0.0011759556391519154,3.7020311419797642,,,,,,,,,,1.8581,3.5397,9.8024,0.0,1.0278,0.009424,0.3579,0.214,12.0,,,,,,5.85663,PASS,
43,s02_leg_height_gain_sched,g000005_c1,5,,0.01,0.001,0.009746797677915147,32.836036916228274,,,,,,,,,,1.7707,3.5482,10.0346,0.0,1.0367,0.009408,0.3579,0.196,12.0,,,,,,5.50188,PASS,
44,s02_leg_height_gain_sched,g000005_c2,5,,0.027396708706004906,0.13978685521601433,0.5873261086705965,14.380789170891987,,,,,,,,,,16.0144,33.1461,1.3416,0.0,0.0,0.064331,0.5028,12.0,0.128,,,,,,240.33696,FAIL,fell over
45,s02_leg_height_gain_sched,g000005_c3,5,,0.01,1.1916582666386857,0.0060850636809643525,2.1433626043399983,,,,,,,,,,7.4609,34.7738,29.3562,1.796,4.734,0.010858,0.3579,0.332,12.0,,,,,,252.11604,PASS,
46,s02_leg_height_gain_sched,g000005_c4,5,,0.01,0.15635925421029076,0.0008915484035816386,100.0,,,,,,,,,,1.082,2.0817,16.047,0.0,1.584,0.009383,0.3579,0.192,12.0,,,,,,4.51226,PASS,
47,s02_leg_height_gain_sched,g000005_c5,5,,4.6079669262428435,0.08450157985413359,0.01429160562122838,100.0,,,,,,,,,,1.5644,3.2619,11.289,0.0,1.1065,0.009391,0.3579,0.194,12.0,,,,,,4.34836,PASS,
48,s02_leg_height_gain_sched,g000005_c6,5,,0.06036503737179455,0.005733335737914624,0.0014467863376670211,38.095848758162205,,,,,,,,,,1.256,2.6626,14.0897,0.0,1.3931,0.009387,0.3579,0.194,12.0,,,,,,4.43313,PASS,
49,s02_leg_height_gain_sched,g000005_c7,5,,2.1222583992558848,0.19785103036599874,0.008114937415786774,100.0,,,,,,,,,,1.4157,3.0025,12.6221,0.0,1.2416,0.00939,0.3579,0.194,12.0,,,,,,4.37853,PASS,
50,s02_leg_height_gain_sched,g000006_c0,6,,33.278430247159164,0.001,0.5758777005665286,100.0,,,,,,,,,,8.4607,31.5507,28.4927,0.0,6.1289,0.011627,0.363,0.246,8.718,,,,,,776.06442,FAIL,fell over
51,s02_leg_height_gain_sched,g000006_c1,6,,0.28066249106227864,0.006478888103483233,0.030193880235999136,51.16049500400187,,,,,,,,,,2.1199,6.0325,9.7974,0.12,1.2188,0.00946,0.3579,0.196,12.0,,,,,,9.7426,PASS,
52,s02_leg_height_gain_sched,g000006_c2,6,,0.6938864161885415,0.0013772927326961323,0.0015594250807736785,1.5268144162800625,,,,,,,,,,2.8669,11.5929,11.318,0.444,1.7022,0.00955,0.3579,0.192,12.0,,,,,,22.23616,PASS,
53,s02_leg_height_gain_sched,g000006_c3,6,,0.01,2.3270629360848156,0.015154801506450204,47.10186520026126,,,,,,,,,,1.8746,4.1099,10.0406,0.0,1.0536,0.009415,0.3579,0.2,12.0,,,,,,5.84321,PASS,
54,s02_leg_height_gain_sched,g000006_c4,6,,3.967582914785523,0.039124006006518816,0.00739000119303468,53.45442676380653,,,,,,,,,,1.5561,3.2328,11.5732,0.0,1.1571,0.009395,0.3579,0.194,12.0,,,,,,4.63938,PASS,
55,s02_leg_height_gain_sched,g000006_c5,6,,17.938429316610385,0.46117949976088235,1.0,100.0,,,,,,,,,,23.4359,40.0566,3.9252,0.0,0.0,0.043363,0.4808,12.0,0.356,,,,,,330.94355,FAIL,fell over
56,s02_leg_height_gain_sched,g000006_c6,6,,43.490926285364836,0.26111703914772877,0.0008747622706955822,100.0,,,,,,,,,,1.0752,2.0741,16.0459,0.0,1.5877,0.009383,0.3579,0.19,12.0,,,,,,4.53254,PASS,
57,s02_leg_height_gain_sched,g000006_c7,6,,49.99999999999999,0.02574139639679146,0.004583143612809097,100.0,,,,,,,,,,1.2837,2.7392,13.7567,0.0,1.3556,0.009388,0.3579,0.19,12.0,,,,,,4.42817,PASS,
58,s02_leg_height_gain_sched,g000007_c0,7,,35.40328006113146,0.019546848751729868,0.06956011610277753,5.79720316320176,,,,,,,,,,24.7117,41.867,4.0888,0.0,0.0,0.042164,0.478,12.0,0.376,,,,,,335.5473,FAIL,fell over
59,s02_leg_height_gain_sched,g000007_c1,7,,21.03339170508021,0.01734962642355713,0.031119790973581207,42.48649658733761,,,,,,,,,,2.2845,6.9029,8.9164,0.118,1.1513,0.009464,0.3579,0.2,12.0,,,,,,9.90915,PASS,
60,s02_leg_height_gain_sched,g000007_c2,7,,49.99999999999999,0.02866026522812722,0.03721615928827375,5.504389710159832,,,,,,,,,,14.6667,31.4716,9.1444,0.0,0.0,0.031268,0.388,12.0,0.846,,,,,,430.31253,FAIL,fell over
61,s02_leg_height_gain_sched,g000007_c3,7,,35.42185731714096,0.026792194841212227,0.19947039141986414,100.0,,,,,,,,,,3.8878,15.6036,13.767,0.504,2.2403,0.009625,0.3579,0.0,12.0,,,,,,61.88985,PASS,
62,s02_leg_height_gain_sched,g000007_c4,7,,3.298979438662099,7.5789555055400575,0.019853403008406937,100.0,,,,,,,,,,1.669,3.4136,10.6862,0.0,1.0811,0.009407,0.3579,0.202,12.0,,,,,,5.30532,PASS,
63,s02_leg_height_gain_sched,g000007_c5,7,,2.69209240199495,3.250948559542943,0.006848719316805044,100.0,,,,,,,,,,1.3923,2.9291,13.1612,0.0,1.307,0.009392,0.3579,0.196,12.0,,,,,,4.76986,PASS,
64,s02_leg_height_gain_sched,g000007_c6,7,,3.9204550450293634,0.001,0.5622101943680896,100.0,,,,,,,,,,5.1151,17.6215,26.725,0.0,4.7304,0.010183,0.3579,0.246,12.0,,,,,,482.74317,PASS,
65,s02_leg_height_gain_sched,g000007_c7,7,,0.42678436333018477,0.007563954320353631,0.0451443544002385,100.0,,,,,,,,,,1.9409,3.7161,9.3099,0.0,0.998,0.009414,0.3579,0.198,12.0,,,,,,6.14294,PASS,
66,s02_leg_height_gain_sched,g000008_c0,8,,3.715470920447023,1.6261151683294528,0.0014484510221121356,100.0,,,,,,,,,,1.1194,2.2608,15.2812,0.0,1.5071,0.009384,0.3579,0.194,12.0,,,,,,4.40152,PASS,
67,s02_leg_height_gain_sched,g000008_c1,8,,9.566774743566162,2.071295281964408,0.11676830086640677,98.63900272516041,,,,,,,,,,2.5606,6.632,10.8916,0.572,1.5481,0.009572,0.3579,0.176,12.0,,,,,,22.98123,PASS,
68,s02_leg_height_gain_sched,g000008_c2,8,,0.8885820962221744,0.7937212735574783,0.23376044577517166,100.0,,,,,,,,,,6.3601,23.3814,19.685,1.144,3.5089,0.01012,0.3579,0.0,12.0,,,,,,142.99399,PASS,
69,s02_leg_height_gain_sched,g000008_c3,8,,49.99999999999999,1.3135224658309017,0.007031483580457604,78.58843310024761,,,,,,,,,,1.4341,3.036,12.4166,0.0,1.23,0.009393,0.3579,0.192,12.0,,,,,,4.65746,PASS,
70,s02_leg_height_gain_sched,g000008_c4,8,,1.0634843181678468,6.685601172120673,0.00350600980284726,100.0,,,,,,,,,,1.2545,2.6467,14.2311,0.0,1.4113,0.009388,0.3579,0.202,12.0,,,,,,4.69769,PASS,
71,s02_leg_height_gain_sched,g000008_c5,8,,4.718768891934432,0.03870407267960466,0.010958333070431543,1.888330827347606,,,,,,,,,,11.4428,34.0454,52.2492,0.0,7.2694,0.012692,0.3579,0.272,12.0,,,,,,1102.15788,PASS,
72,s02_leg_height_gain_sched,g000008_c6,8,,5.376593046122366,0.2892209317763513,0.17139403947267287,100.0,,,,,,,,,,3.9787,13.5892,14.0623,0.836,2.1658,0.009644,0.3579,0.0,12.0,,,,,,47.50744,PASS,
73,s02_leg_height_gain_sched,g000008_c7,8,,1.2347136694634635,0.8383077124370721,0.06725725148627504,100.0,,,,,,,,,,2.3685,6.5501,10.1432,0.124,1.3296,0.009468,0.3579,0.208,12.0,,,,,,11.70385,PASS,
74,s02_leg_height_gain_sched,g000009_c0,9,,0.1028020767780167,0.0514648449190464,0.0009864252739332302,13.803650949126137,,,,,,,,,,1.3848,2.9504,12.7512,0.0,1.2489,0.009388,0.3579,0.194,12.0,,,,,,4.37169,PASS,
75,s02_leg_height_gain_sched,g000009_c1,9,,42.63932735961502,0.040364408744207,0.12785999184042984,1.4310669397518496,,,,,,,,,,15.9834,32.7886,1.4128,0.0,0.0,0.064201,0.5028,12.0,0.128,,,,,,238.8129,FAIL,fell over
76,s02_leg_height_gain_sched,g000009_c2,9,,12.84695787073876,0.4933928031507518,0.010120196928329408,7.913539353425827,,,,,,,,,,4.7966,20.2905,15.2336,1.03,2.5069,0.009728,0.3579,0.0,12.0,,,,,,42.91573,PASS,
77,s02_leg_height_gain_sched,g000009_c3,9,,6.011117191536876,0.001,0.3151403773405725,8.414149407059371,,,,,,,,,,16.0162,33.2701,1.329,0.0,0.0,0.064446,0.5028,12.0,0.128,,,,,,240.8394,FAIL,fell over
78,s02_leg_height_gain_sched,g000009_c4,9,,0.129012268920446,0.33861691932636206,0.0025097631220951737,40.93436644629661,,,,,,,,,,1.3522,2.8846,13.1099,0.0,1.293,0.009388,0.3579,0.194,12.0,,,,,,4.43066,PASS,
79,s02_leg_height_gain_sched,g000009_c5,9,,15.823562269081767,0.10110954261645617,0.0017196505111766243,100.0,,,,,,,,,,1.1356,2.3114,15.2708,0.0,1.505,0.009385,0.3579,0.19,12.0,,,,,,4.47596,PASS,
80,s02_leg_height_gain_sched,g000009_c6,9,,3.216557400272862,0.21684213710921946,0.21245305601527517,100.0,,,,,,,,,,5.9811,22.4056,13.7743,0.968,2.71,0.009813,0.3579,0.0,12.0,,,,,,78.61078,PASS,
81,s02_leg_height_gain_sched,g000009_c7,9,,2.7997316936734116,0.3016906319034394,0.038025547906275485,3.9208238449786794,,,,,,,,,,20.369,35.079,3.3838,0.0,0.0,0.045222,0.485,12.0,0.324,,,,,,317.52199,FAIL,fell over
82,s02_leg_height_gain_sched,g000010_c0,10,,0.13925064594438916,0.5077168108254997,0.03254675962546143,27.66851118641969,,,,,,,,,,3.0191,10.0399,10.482,0.706,1.6531,0.009606,0.3579,0.21,12.0,,,,,,23.98017,PASS,
83,s02_leg_height_gain_sched,g000010_c1,10,,15.307572927721937,10.0,0.08016494082679555,84.0270703332735,,,,,,,,,,2.8571,11.2002,10.5637,0.548,1.5656,0.009549,0.3579,0.18,12.0,,,,,,18.72283,PASS,
84,s02_leg_height_gain_sched,g000010_c2,10,,0.01,0.15933530157590003,0.11803935237324818,100.0,,,,,,,,,,3.0671,13.2604,9.8662,0.58,1.5759,0.00957,0.3579,0.19,12.0,,,,,,21.21982,PASS,
85,s02_leg_height_gain_sched,g000010_c3,10,,0.8630659579251391,0.010125385945742651,0.0022003044771591084,19.006745646595068,,,,,,,,,,1.5092,3.1592,11.8708,0.0,1.1725,0.009393,0.3579,0.194,12.0,,,,,,4.60409,PASS,
86,s02_leg_height_gain_sched,g000010_c4,10,,49.99999999999999,0.008091366714920485,0.0007968556012091453,100.0,,,,,,,,,,1.0688,2.0765,16.1862,0.0,1.6016,0.009383,0.3579,0.19,12.0,,,,,,4.46391,PASS,
87,s02_leg_height_gain_sched,g000010_c5,10,,0.7113758949619721,0.02790962052399375,0.00010475245181280328,2.3856906321621243,,,,,,,,,,1.2764,2.7208,13.7763,0.0,1.3565,0.009388,0.3579,0.192,12.0,,,,,,4.42988,PASS,
88,s02_leg_height_gain_sched,g000010_c6,10,,2.8361056126874287,0.2776973068173264,0.0034062105598179804,100.0,,,,,,,,,,1.2339,2.6081,14.1584,0.0,1.3896,0.009386,0.3579,0.192,12.0,,,,,,4.38311,PASS,
89,s02_leg_height_gain_sched,g000010_c7,10,,43.42511130904977,0.21192129780291064,0.04166597867169842,17.464432855720553,,,,,,,,,,5.5851,22.6384,18.6193,0.628,3.3178,0.009847,0.3579,0.0,12.0,,,,,,136.86403,PASS,
90,s02_leg_height_gain_sched,g000011_c0,11,,25.31107813442612,0.9235966252893743,0.05783945465679078,13.911947594641305,,,,,,,,,,6.1669,35.3479,13.2013,0.0,2.794,0.009764,0.3579,0.218,12.0,,,,,,144.59364,PASS,
91,s02_leg_height_gain_sched,g000011_c1,11,,1.389319819078481,0.2582943722563855,0.05948228389879424,5.6843036210913995,,,,,,,,,,23.0843,39.3951,3.8949,0.0,0.0,0.04357,0.4814,12.0,0.352,,,,,,328.8109,FAIL,fell over
92,s02_leg_height_gain_sched,g000011_c2,11,,49.99999999999999,0.38333800331756207,0.020223730847386677,3.5157720669562273,,,,,,,,,,10.9527,30.5239,53.6578,0.0,7.2864,0.01258,0.3579,0.288,12.0,,,,,,981.19663,PASS,
93,s02_leg_height_gain_sched,g000011_c3,11,,49.99999999999999,0.011571035202379985,0.28601450522464217,100.0,,,,,,,,,,5.2513,27.0437,12.5078,0.356,2.6627,0.009682,0.3579,0.0,12.0,,,,,,102.91976,PASS,
94,s02_leg_height_gain_sched,g000011_c4,11,,15.792946772068282,0.14146699438485197,0.004853465898511129,57.95847790989585,,,,,,,,,,1.4209,3.0138,12.5195,0.0,1.2366,0.009391,0.3579,0.194,12.0,,,,,,4.44994,PASS,
95,s02_leg_height_gain_sched,g000011_c5,11,,49.99999999999999,0.6192260171813765,0.016925541449159885,55.30650204438336,,,,,,,,,,1.7629,3.552,9.5983,0.0,0.9581,0.009408,0.3579,0.194,12.0,,,,,,5.12364,PASS,
96,s02_leg_height_gain_sched,g000011_c6,11,,0.3621006861805196,0.3673329262973431,0.2584109001502923,100.0,,,,,,,,,,4.6017,24.9653,12.3473,0.124,2.655,0.009701,0.3579,0.0,12.0,,,,,,98.32081,PASS,
97,s02_leg_height_gain_sched,g000011_c7,11,,0.4563307023661531,0.007758305753851299,0.0007636014521050631,100.0,,,,,,,,,,1.0712,2.0764,16.2159,0.0,1.611,0.009383,0.3579,0.192,12.0,,,,,,4.55006,PASS,
98,s02_leg_height_gain_sched,g000012_c0,12,,1.3338451802632796,0.001,0.45275650019592556,28.505831396381254,,,,,,,,,,11.2187,36.4702,19.9498,0.078,8.8825,0.015973,0.3631,0.196,4.122,,,,,,883.29217,FAIL,fell over
99,s02_leg_height_gain_sched,g000012_c1,12,,0.480767849071664,0.03550760576106618,0.018581587371080264,4.680430158197287,,,,,,,,,,6.5336,29.6955,14.6166,0.182,3.0404,0.009836,0.3579,0.192,12.0,,,,,,152.64568,PASS,
100,s02_leg_height_gain_sched,g000012_c2,12,,4.56224234570192,0.07947383995898759,0.32533280986411334,10.869791839836862,,,,,,,,,,15.7039,32.732,1.2965,0.0,0.0,0.064593,0.5028,12.0,0.128,,,,,,240.12258,FAIL,fell over
101,s02_leg_height_gain_sched,g000012_c3,12,,42.219023302592475,0.4264301487604482,0.018683915025616844,13.250570604384023,,,,,,,,,,3.336,9.6661,12.6936,0.878,1.9779,0.009714,0.3579,0.0,12.0,,,,,,37.11761,PASS,
102,s02_leg_height_gain_sched,g000012_c4,12,,17.832159581641097,0.0056843847184987195,0.21246816245506173,100.0,,,,,,,,,,4.1955,15.8188,13.3285,0.734,2.3622,0.009746,0.3579,0.0,12.0,,,,,,70.31396,PASS,
103,s02_leg_height_gain_sched,g000012_c5,12,,49.99999999999999,0.1153943002493067,0.006429351143583414,100.0,,,,,,,,,,1.3641,2.8874,13.1766,0.0,1.2998,0.009389,0.3579,0.192,12.0,,,,,,4.47406,PASS,
104,s02_leg_height_gain_sched,g000012_c6,12,,0.3974580540460346,0.18477799687960333,0.028892531676129027,1.2686008751553872,,,,,,,,,,28.4558,58.053,1.9308,0.0,0.0,0.059639,0.4991,12.0,0.186,,,,,,269.18555,FAIL,fell over
105,s02_leg_height_gain_sched,g000012_c7,12,,2.5460214005355994,0.004496024007133778,0.14897447927156512,2.1699731273116076,,,,,,,,,,15.8364,32.5435,1.3726,0.0,0.0,0.064639,0.5029,12.0,0.126,,,,,,238.92359,FAIL,fell over
106,s02_leg_height_gain_sched,g000013_c0,13,,16.74523352900895,0.20362131230205102,0.04077656801353745,35.29024894438322,,,,,,,,,,2.9138,11.6305,9.5568,0.436,1.4258,0.009502,0.3579,0.178,12.0,,,,,,17.33588,PASS,
107,s02_leg_height_gain_sched,g000013_c1,13,,0.819056483384737,0.2013022131456981,0.007162901051293738,2.838151433920242,,,,,,,,,,8.251,29.6227,19.2519,0.918,3.579,0.0099,0.3579,0.0,12.0,,,,,,132.06698,PASS,
108,s02_leg_height_gain_sched,g000013_c2,13,,6.106858507603088,0.006969300822959675,0.022245667273929726,100.0,,,,,,,,,,1.6834,3.4366,10.4476,0.0,1.0349,0.009396,0.3579,0.194,12.0,,,,,,4.71961,PASS,
109,s02_leg_height_gain_sched,g000013_c3,13,,0.8301596379025106,0.020923270547672533,0.0062368067561571665,10.832598156163684,,,,,,,,,,2.2526,6.203,9.7155,0.072,1.1649,0.009449,0.3579,0.198,12.0,,,,,,8.51704,PASS,
110,s02_leg_height_gain_sched,g000013_c4,13,,4.938663211239929,0.05968980294567424,0.016011001690623534,22.5180626590019,,,,,,,,,,1.9934,3.7783,8.3313,0.03,0.948,0.00944,0.3579,0.202,12.0,,,,,,7.76566,PASS,
111,s02_leg_height_gain_sched,g000013_c5,13,,14.579524744688928,0.42197319141907264,0.15123841118184705,1.7752852263010954,,,,,,,,,,16.2015,33.1759,1.405,0.0,0.0,0.064091,0.5028,12.0,0.128,,,,,,239.54163,FAIL,fell over
112,s02_leg_height_gain_sched,g000013_c6,13,,6.490179722324841,0.00848664835089492,0.0035629729125922173,100.0,,,,,,,,,,1.2426,2.6317,14.1306,0.0,1.3946,0.009386,0.3579,0.194,12.0,,,,,,4.37201,PASS,
113,s02_leg_height_gain_sched,g000013_c7,13,,1.9357313616733356,0.20346552369083598,0.009323607066877357,21.24934777631279,,,,,,,,,,1.9934,3.8879,9.8463,0.024,1.0886,0.009427,0.3579,0.198,12.0,,,,,,7.03032,PASS,
114,s02_leg_height_gain_sched,g000014_c0,14,,49.99999999999999,0.2801895117510423,0.006648561046737813,9.285192058803,,,,,,,,,,2.6372,8.9606,12.9121,0.652,1.6736,0.009544,0.3579,0.0,12.0,,,,,,16.75963,PASS,
115,s02_leg_height_gain_sched,g000014_c1,14,,18.05017779302024,0.8492332403147022,0.050820617545550104,70.92208789789284,,,,,,,,,,2.6834,10.4371,10.2093,0.186,1.4857,0.009486,0.3579,0.206,12.0,,,,,,13.6858,PASS,
116,s02_leg_height_gain_sched,g000014_c2,14,,35.34210865585073,0.5033471305085148,0.011755121002613021,42.113686478856636,,,,,,,,,,1.7434,3.5223,10.0635,0.0,1.0032,0.009401,0.3579,0.194,12.0,,,,,,4.949,PASS,
117,s02_leg_height_gain_sched,g000014_c3,14,,5.873512167222235,0.015978356826557672,0.03285271471685723,100.0,,,,,,,,,,1.8409,3.5068,9.7424,0.0,1.0047,0.009408,0.3579,0.196,12.0,,,,,,5.44859,PASS,
118,s02_leg_height_gain_sched,g000014_c4,14,,0.9627914623998042,0.03378198332239459,0.02455962436167311,100.0,,,,,,,,,,1.7134,3.4614,10.3857,0.0,1.0544,0.009403,0.3579,0.194,12.0,,,,,,5.23179,PASS,
119,s02_leg_height_gain_sched,g000014_c5,14,,3.793855868874259,0.11583142086891446,0.016490384661840312,27.54725977252209,,,,,,,,,,2.0711,4.1954,10.0685,0.048,1.2004,0.009458,0.3579,0.204,12.0,,,,,,9.729,PASS,
120,s02_leg_height_gain_sched,g000014_c6,14,,1.7400512503889247,0.1923050464000701,0.05725233643884116,100.0,,,,,,,,,,1.9591,4.0225,9.0256,0.0,1.0224,0.009434,0.3579,0.196,12.0,,,,,,7.56178,PASS,
121,s02_leg_height_gain_sched,g000014_c7,14,,4.13094338598866,0.2901672856014763,0.09101111978970132,5.009817876792703,,,,,,,,,,15.6027,50.5224,24.8823,0.422,9.49,0.015037,0.3704,0.0,4.454,,,,,,838.93149,FAIL,fell over
122,s02_leg_height_gain_sched,g000015_c0,15,,3.3434851159229897,0.007413679651975556,0.02926470786189358,18.048761464976483,,,,,,,,,,2.8867,12.229,11.1329,0.576,2.0416,0.009618,0.3579,0.152,12.0,,,,,,44.11283,PASS,
123,s02_leg_height_gain_sched,g000015_c1,15,,2.032897872145553,0.05754092268609023,0.00964041479413962,8.505784771539272,,,,,,,,,,3.2431,13.0715,9.493,0.55,1.6816,0.009584,0.3579,0.188,12.0,,,,,,22.61731,PASS,
124,s02_leg_height_gain_sched,g000015_c2,15,,17.72675971258072,0.05912427284592466,0.03030760447456724,70.26584937521805,,,,,,,,,,1.938,3.5769,9.0646,0.0,0.9319,0.009415,0.3579,0.196,12.0,,,,,,5.46744,PASS,
125,s02_leg_height_gain_sched,g000015_c3,15,,4.693278147338266,0.1383829763911395,0.00029317599959514197,79.05466647606175,,,,,,,,,,1.0438,2.0707,16.8622,0.0,1.677,0.009383,0.3579,0.192,12.0,,,,,,4.6544,PASS,
126,s02_leg_height_gain_sched,g000015_c4,15,,5.954683601133939,0.015339772850523374,0.013782292947625285,26.809352785191965,,,,,,,,,,2.0832,5.3428,9.5163,0.014,1.0862,0.009427,0.3579,0.192,12.0,,,,,,7.45588,PASS,
127,s02_leg_height_gain_sched,g000015_c5,15,,7.856924059911037,0.13123285315073602,0.04856716524316193,84.040974245732,,,,,,,,,,2.0199,3.8084,9.326,0.0,1.0615,0.009422,0.3579,0.192,12.0,,,,,,7.66845,PASS,
128,s02_leg_height_gain_sched,g000015_c6,15,,11.700335942634169,0.1498788888089977,0.003067709223638267,45.456651419307256,,,,,,,,,,1.3671,2.9182,12.8701,0.0,1.2654,0.009388,0.3579,0.192,12.0,,,,,,4.40935,PASS,
129,s02_leg_height_gain_sched,g000015_c7,15,,2.783182261268348,0.10584300687787483,0.0023335921499174836,85.5176547948628,,,,,,,,,,1.2042,2.5138,14.7468,0.0,1.466,0.009387,0.3579,0.194,12.0,,,,,,4.57133,PASS,
130,s02_leg_height_gain_sched,g000016_c0,16,,17.503281974502485,0.1984523647504948,0.04586827322952318,51.42589956605889,,,,,,,,,,2.9446,11.6897,10.3591,0.25,1.4722,0.009477,0.3579,0.19,12.0,,,,,,14.9264,PASS,
131,s02_leg_height_gain_sched,g000016_c1,16,,0.5284088203818853,0.18700091252106726,0.022654041760913783,100.0,,,,,,,,,,1.6915,3.4359,10.4167,0.0,1.0501,0.0094,0.3579,0.194,12.0,,,,,,5.03358,PASS,
132,s02_leg_height_gain_sched,g000016_c2,16,,15.2847790488004,0.08809076036411685,0.007759474836595583,100.0,,,,,,,,,,1.4001,2.9815,12.6694,0.0,1.2455,0.00939,0.3579,0.192,12.0,,,,,,4.361,PASS,
133,s02_leg_height_gain_sched,g000016_c3,16,,20.551769206940705,0.3163095386558926,0.026658457236980713,100.0,,,,,,,,,,1.7503,3.4698,10.0466,0.0,1.0171,0.009405,0.3579,0.194,12.0,,,,,,5.06002,PASS,
134,s02_leg_height_gain_sched,g000016_c4,16,,7.7615970198501305,0.315176152935453,0.061456729134320424,86.19648263935721,,,,,,,,,,2.2258,6.5135,8.8992,0.17,1.1139,0.009461,0.3579,0.202,12.0,,,,,,9.59229,PASS,
135,s02_leg_height_gain_sched,g000016_c5,16,,1.1845484867776706,0.8714077050919373,0.0029583811900991998,100.0,,,,,,,,,,1.2122,2.5508,14.3874,0.0,1.4176,0.009385,0.3579,0.194,12.0,,,,,,4.40353,PASS,
136,s02_leg_height_gain_sched,g000016_c6,16,,1.0331984489697772,0.11533533828412487,0.021365416208729164,100.0,,,,,,,,,,1.6879,3.3953,10.5521,0.0,1.0561,0.0094,0.3579,0.194,12.0,,,,,,4.90433,PASS,
137,s02_leg_height_gain_sched,g000016_c7,16,,3.3722079294166756,0.07499711016557799,0.015116275121063654,27.27521088222117,,,,,,,,,,1.9181,4.018,8.9067,0.026,0.9625,0.009437,0.3579,0.196,12.0,,,,,,7.07086,PASS,
138,s02_leg_height_gain_sched,g000017_c0,17,,1.8842279051050643,0.08851151582107633,0.011257756349193892,100.0,,,,,,,,,,1.5185,3.1588,12.0537,0.0,1.2019,0.009394,0.3579,0.194,12.0,,,,,,4.67729,PASS,
139,s02_leg_height_gain_sched,g000017_c1,17,,2.8800916195694626,0.30281708346715075,0.021338336035919586,63.6668807610124,,,,,,,,,,1.793,3.591,9.8633,0.0,1.0419,0.009413,0.3579,0.194,12.0,,,,,,5.94991,PASS,
140,s02_leg_height_gain_sched,g000017_c2,17,,17.771456567642165,0.042127173881798395,0.04329648610762219,100.0,,,,,,,,,,1.9267,4.2651,10.3194,0.0,1.2127,0.009428,0.3579,0.194,12.0,,,,,,8.03362,PASS,
141,s02_leg_height_gain_sched,g000017_c3,17,,13.029802222105282,0.11625880021075397,0.002140400744708594,100.0,,,,,,,,,,1.164,2.4089,15.0257,0.0,1.4828,0.009385,0.3579,0.19,12.0,,,,,,4.5124,PASS,
142,s02_leg_height_gain_sched,g000017_c4,17,,14.291641992831488,0.08234013719343325,0.02773821709575713,100.0,,,,,,,,,,1.7752,3.4472,10.1276,0.0,1.0521,0.009414,0.3579,0.194,12.0,,,,,,5.52907,PASS,
143,s02_leg_height_gain_sched,g000017_c5,17,,12.629750566777892,0.14008036582462832,0.024508180430637957,77.32490570775371,,,,,,,,,,1.7633,3.5749,9.5374,0.0,0.9508,0.0094,0.3579,0.194,12.0,,,,,,4.91152,PASS,
144,s02_leg_height_gain_sched,g000017_c6,17,,7.851776545803035,0.21721650919633717,0.026170375185730385,100.0,,,,,,,,,,1.7323,3.5082,9.8119,0.0,0.9895,0.009401,0.3579,0.194,12.0,,,,,,4.82923,PASS,
145,s02_leg_height_gain_sched,g000017_c7,17,,3.966734914188442,0.09194140661261616,0.007856901414730218,100.0,,,,,,,,,,1.4105,2.9918,12.6908,0.0,1.2549,0.009389,0.3579,0.194,12.0,,,,,,4.40657,PASS,
146,s02_leg_height_gain_sched,g000018_c0,18,,10.943513779167322,0.07084214798248076,0.013361011307237321,63.64291315918511,,,,,,,,,,1.6705,3.4171,10.3752,0.0,1.0331,0.009397,0.3579,0.196,12.0,,,,,,4.60131,PASS,
147,s02_leg_height_gain_sched,g000018_c1,18,,5.224825676143665,0.1491759697324056,0.005827893015192038,100.0,,,,,,,,,,1.3404,2.858,13.2739,0.0,1.3094,0.009389,0.3579,0.192,12.0,,,,,,4.46005,PASS,
148,s02_leg_height_gain_sched,g000018_c2,18,,3.0250633910986284,0.1679745801053123,0.010493069012334424,100.0,,,,,,,,,,1.4942,3.1248,12.1175,0.0,1.1964,0.009392,0.3579,0.194,12.0,,,,,,4.54665,PASS,
149,s02_leg_height_gain_sched,g000018_c3,18,,2.411766003810072,0.03659027395390814,0.007662965299398168,37.7570235526146,,,,,,,,,,1.6646,3.4111,10.6374,0.0,1.0647,0.009402,0.3579,0.196,12.0,,,,,,4.89578,PASS,
150,s02_leg_height_gain_sched,g000018_c4,18,,4.430604317189234,0.08511720284171964,0.007173008535239306,75.69405840167224,,,,,,,,,,1.4679,3.0741,12.3286,0.0,1.2192,0.009391,0.3579,0.194,12.0,,,,,,4.48306,PASS,
151,s02_leg_height_gain_sched,g000018_c5,18,,1.6700364387480306,0.03574970798670142,0.010822967901853433,100.0,,,,,,,,,,1.4884,3.131,11.9428,0.0,1.1726,0.009391,0.3579,0.194,12.0,,,,,,4.4332,PASS,
152,s02_leg_height_gain_sched,g000018_c6,18,,5.153431425294022,0.10366939554901965,0.0752877575222738,100.0,,,,,,,,,,2.4752,9.0903,10.1318,0.272,1.4182,0.009499,0.3579,0.196,12.0,,,,,,13.7377,PASS,
153,s02_leg_height_gain_sched,g000018_c7,18,,0.8786029866282691,0.135190936420046,0.006594989525097915,49.71332472644087,,,,,,,,,,1.5592,3.2056,11.7806,0.0,1.1789,0.009396,0.3579,0.194,12.0,,,,,,4.79365,PASS,
154,s02_leg_height_gain_sched,g000019_c0,19,,4.6405167564120084,0.12105685977237703,0.01368034830089379,57.527188131898534,,,,,,,,,,1.7095,3.4648,10.1063,0.0,1.004,0.009397,0.3579,0.194,12.0,,,,,,4.6757,PASS,
155,s02_leg_height_gain_sched,g000019_c1,19,,4.305734274708606,0.06346862834724372,0.022506536947537886,70.91577203874063,,,,,,,,,,1.8179,3.5331,9.8947,0.0,1.0172,0.009406,0.3579,0.194,12.0,,,,,,5.38303,PASS,
156,s02_leg_height_gain_sched,g000019_c2,19,,5.401585563591618,0.02313923220484446,0.01371862805095408,100.0,,,,,,,,,,1.548,3.2348,11.3563,0.0,1.1213,0.009393,0.3579,0.194,12.0,,,,,,4.56996,PASS,
157,s02_leg_height_gain_sched,g000019_c3,19,,3.6950163474882616,0.1053521488813142,0.02079529519950996,100.0,,,,,,,,,,1.6808,3.3883,10.516,0.0,1.0594,0.009401,0.3579,0.196,12.0,,,,,,4.88197,PASS,
158,s02_leg_height_gain_sched,g000019_c4,19,,5.419344818239575,0.1528679946713878,0.010689348855834153,100.0,,,,,,,,,,1.4944,3.1213,12.1209,0.0,1.2018,0.009394,0.3579,0.194,12.0,,,,,,4.50502,PASS,
159,s02_leg_height_gain_sched,g000019_c5,19,,1.204148604406916,0.06510365199404743,0.009115985224323468,85.76419023379401,,,,,,,,,,1.4986,3.1131,12.1945,0.0,1.2094,0.009393,0.3579,0.194,12.0,,,,,,4.67439,PASS,
160,s02_leg_height_gain_sched,g000019_c6,19,,4.452438540036,0.16428948211572925,0.00463487809416356,79.91908580460792,,,,,,,,,,1.3343,2.851,13.2777,0.0,1.3049,0.00939,0.3579,0.192,12.0,,,,,,4.42808,PASS,
161,s02_leg_height_gain_sched,g000019_c7,19,,6.378462240381724,0.03227377404016513,0.008605351286753092,100.0,,,,,,,,,,1.4265,3.0432,12.3188,0.0,1.2071,0.009389,0.3579,0.194,12.0,,,,,,4.3532,PASS,
162,s02_leg_height_gain_sched,g000020_c0,20,,6.258835913784933,0.12714148898202232,0.010813614717760482,55.77738260510705,,,,,,,,,,1.6476,3.3609,10.9361,0.0,1.1056,0.009404,0.3579,0.194,12.0,,,,,,5.09241,PASS,
163,s02_leg_height_gain_sched,g000020_c1,20,,3.054583369721856,0.12553700151834793,0.01985373636213436,100.0,,,,,,,,,,1.6515,3.3956,10.5352,0.0,1.0468,0.009395,0.3579,0.194,12.0,,,,,,4.55966,PASS,
164,s02_leg_height_gain_sched,g000020_c2,20,,5.674499193729268,0.08205681179997447,0.013653116787571678,100.0,,,,,,,,,,1.5462,3.232,11.3579,0.0,1.1241,0.009394,0.3579,0.192,12.0,,,,,,4.49363,PASS,
165,s02_leg_height_gain_sched,g000020_c3,20,,1.9837804382629132,0.12143436187401635,0.019374715217773876,100.0,,,,,,,,,,1.6735,3.3805,10.8906,0.0,1.0948,0.0094,0.3579,0.196,12.0,,,,,,4.91568,PASS,
166,s02_leg_height_gain_sched,g000020_c4,20,,3.0228690487663283,0.10054842439679888,0.01748295818355923,81.17401862263948,,,,,,,,,,1.684,3.4103,10.4392,0.0,1.0444,0.009397,0.3579,0.194,12.0,,,,,,4.72823,PASS,
167,s02_leg_height_gain_sched,g000020_c5,20,,8.810727778093305,0.1368987986199044,0.035075400741844794,72.13763602643746,,,,,,,,,,1.9116,3.8729,8.5621,0.0,0.9236,0.009419,0.3579,0.194,12.0,,,,,,5.94629,PASS,
168,s02_leg_height_gain_sched,g000020_c6,20,,4.04239644062532,0.03171914456120372,0.027635777436530964,97.2530270566054,,,,,,,,,,1.752,3.5133,9.9404,0.0,0.9956,0.009399,0.3579,0.196,12.0,,,,,,4.98648,PASS,
169,s02_leg_height_gain_sched,g000020_c7,20,,4.404474112719317,0.06465728380923011,0.024329832513115907,100.0,,,,,,,,,,1.7173,3.4685,10.2306,0.0,1.0259,0.009399,0.3579,0.196,12.0,,,,,,4.8548,PASS,
170,s02_leg_height_gain_sched,g000021_c0,21,,1.5673428668490885,0.0645682441739247,0.014618885266266812,100.0,,,,,,,,,,1.5602,3.2768,11.2352,0.0,1.0998,0.009391,0.3579,0.194,12.0,,,,,,4.38831,PASS,
171,s02_leg_height_gain_sched,g000021_c1,21,,4.940879826132167,0.10292093809475249,0.0142047062634641,100.0,,,,,,,,,,1.5854,3.2286,11.6057,0.0,1.1664,0.009397,0.3579,0.194,12.0,,,,,,4.80206,PASS,
172,s02_leg_height_gain_sched,g000021_c2,21,,2.757492965874763,0.15222584390894103,0.024656397303202064,90.86888753216697,,,,,,,,,,1.7468,3.4954,9.9842,0.0,1.0064,0.009402,0.3579,0.196,12.0,,,,,,5.01092,PASS,
173,s02_leg_height_gain_sched,g000021_c3,21,,4.404478521920427,0.10800958241232624,0.01505019151461957,86.05352245367834,,,,,,,,,,1.6236,3.3394,10.816,0.0,1.077,0.009396,0.3579,0.194,12.0,,,,,,4.59976,PASS,
174,s02_leg_height_gain_sched,g000021_c4,21,,11.716992330096396,0.061554122969091775,0.015501003101944046,59.811294777615416,,,,,,,,,,1.7269,3.4638,10.0417,0.0,1.0191,0.009404,0.3579,0.194,12.0,,,,,,5.12661,PASS,
175,s02_leg_height_gain_sched,g000021_c5,21,,2.455168465919669,0.15466534804706902,0.006661744230343842,87.51271414888532,,,,,,,,,,1.4024,2.9727,12.7128,0.0,1.2563,0.00939,0.3579,0.192,12.0,,,,,,4.43997,PASS,
176,s02_leg_height_gain_sched,g000021_c6,21,,2.52018802012099,0.08960077506104701,0.01540039669106235,100.0,,,,,,,,,,1.5942,3.2786,11.3137,0.0,1.1404,0.009401,0.3579,0.194,12.0,,,,,,4.89107,PASS,
177,s02_leg_height_gain_sched,g000021_c7,21,,4.297748301570236,0.07470656703161077,0.02453400506085519,91.82816970509145,,,,,,,,,,1.7503,3.4936,10.2617,0.0,1.0371,0.009403,0.3579,0.196,12.0,,,,,,5.15608,PASS,
178,s02_leg_height_gain_sched,g000022_c0,22,,3.9618036879816785,0.07481566534975481,0.016902435779182247,81.45300124093032,,,,,,,,,,1.6654,3.418,10.6948,0.0,1.069,0.009399,0.3579,0.194,12.0,,,,,,4.81924,PASS,
179,s02_leg_height_gain_sched,g000022_c1,22,,3.237209675474548,0.08226769394006583,0.011369310931265976,100.0,,,,,,,,,,1.5209,3.1421,12.2015,0.0,1.221,0.009396,0.3579,0.196,12.0,,,,,,4.84706,PASS,
180,s02_leg_height_gain_sched,g000022_c2,22,,3.721746571544762,0.09199314376018765,0.013187089852405668,90.77940457071718,,,,,,,,,,1.5802,3.2479,11.3962,0.0,1.1412,0.009397,0.3579,0.194,12.0,,,,,,4.67922,PASS,
181,s02_leg_height_gain_sched,g000022_c3,22,,4.1596590344373965,0.08187994638392296,0.012568275894058891,100.0,,,,,,,,,,1.5639,3.1826,12.0101,0.0,1.2114,0.009397,0.3579,0.194,12.0,,,,,,4.89192,PASS,
182,s02_leg_height_gain_sched,g000022_c4,22,,4.772420201004359,0.06402720019901345,0.01240500559723569,83.79809945288042,,,,,,,,,,1.6077,3.2612,11.4787,0.0,1.1504,0.009395,0.3579,0.194,12.0,,,,,,4.61838,PASS,
183,s02_leg_height_gain_sched,g000022_c5,22,,7.223748309187597,0.11263268065130054,0.011870918534285707,100.0,,,,,,,,,,1.5149,3.1683,11.7473,0.0,1.1598,0.009393,0.3579,0.194,12.0,,,,,,4.45168,PASS,
184,s02_leg_height_gain_sched,g000022_c6,22,,2.1789240707695243,0.10089823253018712,0.016605430618197383,100.0,,,,,,,,,,1.6216,3.3213,11.2139,0.0,1.1128,0.009396,0.3579,0.194,12.0,,,,,,4.72593,PASS,
185,s02_leg_height_gain_sched,g000022_c7,22,,3.8134815499786385,0.10588160957512081,0.01618933645656375,71.5027074386006,,,,,,,,,,1.7212,3.4376,10.6381,0.0,1.0855,0.009402,0.3579,0.196,12.0,,,,,,5.2219,PASS,
186,s02_leg_height_gain_sched,g000023_c0,23,,5.173746543453756,0.10540667027001065,0.014688999573832342,81.68950646799298,,,,,,,,,,1.6377,3.3347,10.9594,0.0,1.0849,0.009396,0.3579,0.194,12.0,,,,,,4.69761,PASS,
187,s02_leg_height_gain_sched,g000023_c1,23,,2.8584892719388426,0.07069400557160417,0.014199040524497239,100.0,,,,,,,,,,1.5784,3.2368,11.4683,0.0,1.1343,0.009394,0.3579,0.194,12.0,,,,,,4.56298,PASS,
188,s02_leg_height_gain_sched,g000023_c2,23,,2.8009810410760982,0.09540181289079756,0.01309879359715422,82.71610769847217,,,,,,,,,,1.5975,3.2883,11.2732,0.0,1.1172,0.009395,0.3579,0.194,12.0,,,,,,4.63374,PASS,
189,s02_leg_height_gain_sched,g000023_c3,23,,6.378724187381655,0.11264866531144434,0.02019635934663036,70.44885186824433,,,,,,,,,,1.7695,3.5237,10.0818,0.0,1.0263,0.009399,0.3579,0.196,12.0,,,,,,5.27317,PASS,
190,s02_leg_height_gain_sched,g000023_c4,23,,5.24526178974634,0.10421093128728813,0.014467255511738455,100.0,,,,,,,,,,1.5737,3.2745,11.2919,0.0,1.1147,0.009392,0.3579,0.194,12.0,,,,,,4.47308,PASS,
191,s02_leg_height_gain_sched,g000023_c5,23,,3.4963224127807404,0.09477083731862072,0.016576473948658445,100.0,,,,,,,,,,1.6117,3.3063,11.011,0.0,1.1004,0.009396,0.3579,0.196,12.0,,,,,,4.56975,PASS,
192,s02_leg_height_gain_sched,g000023_c6,23,,4.388555066766881,0.07511277080583492,0.01668799804383362,96.57229378585224,,,,,,,,,,1.6292,3.3356,11.0639,0.0,1.0967,0.009396,0.3579,0.194,12.0,,,,,,4.76361,PASS,
193,s02_leg_height_gain_sched,g000023_c7,23,,4.832669545354329,0.07259848812047029,0.015944033017521644,63.01868345504049,,,,,,,,,,1.7668,3.4627,10.5158,0.0,1.0763,0.009402,0.3579,0.196,12.0,,,,,,5.46645,PASS,
194,s02_leg_height_gain_sched,g000024_c0,24,,5.247860197983383,0.1358535386062876,0.017522831640434507,87.72766546409636,,,,,,,,,,1.6756,3.3784,10.7123,0.0,1.0911,0.009402,0.3579,0.196,12.0,,,,,,5.0583,PASS,
195,s02_leg_height_gain_sched,g000024_c1,24,,5.269705559030538,0.09445883964914455,0.01985860354160587,100.0,,,,,,,,,,1.6511,3.385,10.612,0.0,1.0545,0.009399,0.3579,0.194,12.0,,,,,,4.77697,PASS,
196,s02_leg_height_gain_sched,g000024_c2,24,,6.3650017937416825,0.10118982627828499,0.013228707587622773,74.02816096070853,,,,,,,,,,1.6595,3.3265,11.0641,0.0,1.1088,0.009398,0.3579,0.194,12.0,,,,,,4.7474,PASS,
197,s02_leg_height_gain_sched,g000024_c3,24,,4.529578908485855,0.0658139130341835,0.016844373130704974,100.0,,,,,,,,,,1.593,3.341,10.6899,0.0,1.0482,0.009392,0.3579,0.194,12.0,,,,,,4.37907,PASS,
198,s02_leg_height_gain_sched,g000024_c4,24,,4.397702519089563,0.11167944385232279,0.012319565420426297,82.95953148867555,,,,,,,,,,1.5776,3.2708,11.2257,0.0,1.1036,0.009392,0.3579,0.194,12.0,,,,,,4.41369,PASS,
199,s02_leg_height_gain_sched,g000024_c5,24,,4.419314929370624,0.07071108334572038,0.012850054289961882,82.10531824779441,,,,,,,,,,1.5871,3.2913,11.4244,0.0,1.1349,0.009398,0.3579,0.194,12.0,,,,,,4.83329,PASS,
200,s02_leg_height_gain_sched,g000024_c6,24,,3.8915857524774964,0.07277155242115753,0.014096426767686378,100.0,,,,,,,,,,1.5556,3.2571,11.272,0.0,1.1121,0.009393,0.3579,0.194,12.0,,,,,,4.43634,PASS,
201,s02_leg_height_gain_sched,g000024_c7,24,,5.23427496289939,0.10048279009638161,0.008887611648065183,84.81904367541962,,,,,,,,,,1.4855,3.1167,12.0738,0.0,1.1944,0.009393,0.3579,0.194,12.0,,,,,,4.5091,PASS,
202,s02_leg_height_gain_sched,g000025_c0,25,,5.177543995379563,0.06650625951728803,0.019681502549113068,100.0,,,,,,,,,,1.6696,3.3639,10.7443,0.0,1.0732,0.009398,0.3579,0.194,12.0,,,,,,4.77338,PASS,
203,s02_leg_height_gain_sched,g000025_c1,25,,3.6541608388224005,0.07187447031625169,0.01696347088553922,81.58804107618616,,,,,,,,,,1.6641,3.4149,10.3712,0.0,1.0262,0.009394,0.3579,0.196,12.0,,,,,,4.54223,PASS,
204,s02_leg_height_gain_sched,g000025_c2,25,,5.152638536670987,0.11614108473134781,0.013192272550274612,91.4071528248713,,,,,,,,,,1.5585,3.2704,11.4084,0.0,1.1409,0.009398,0.3579,0.192,12.0,,,,,,4.77227,PASS,
205,s02_leg_height_gain_sched,g000025_c3,25,,4.519098308543568,0.10477649684142107,0.01207290617864121,100.0,,,,,,,,,,1.5126,3.1855,11.583,0.0,1.1343,0.009391,0.3579,0.194,12.0,,,,,,4.39086,PASS,
206,s02_leg_height_gain_sched,g000025_c4,25,,3.9950577098059243,0.0791008436491141,0.014696606718613172,100.0,,,,,,,,,,1.5828,3.2617,11.4009,0.0,1.1391,0.009398,0.3579,0.194,12.0,,,,,,4.84033,PASS,
207,s02_leg_height_gain_sched,g000025_c5,25,,5.348427884402695,0.09195517597924588,0.015635469878564727,100.0,,,,,,,,,,1.6031,3.2705,11.301,0.0,1.1295,0.009397,0.3579,0.194,12.0,,,,,,4.76663,PASS,
208,s02_leg_height_gain_sched,g000025_c6,25,,5.193492086943523,0.05838742648643753,0.012643642959027103,100.0,,,,,,,,,,1.5292,3.2035,11.5351,0.0,1.136,0.009392,0.3579,0.194,12.0,,,,,,4.43559,PASS,
209,s02_leg_height_gain_sched,g000025_c7,25,,4.296590062628086,0.10509862723127568,0.013297902098371103,85.31001250749004,,,,,,,,,,1.6013,3.2938,11.2009,0.0,1.1041,0.009393,0.3579,0.194,12.0,,,,,,4.57849,PASS,
210,s02_leg_height_gain_sched,g000026_c0,26,,3.79552417073044,0.07694103578782287,0.014501290012436153,93.62123418669309,,,,,,,,,,1.575,3.3093,11.031,0.0,1.0835,0.009392,0.3579,0.194,12.0,,,,,,4.50612,PASS,
211,s02_leg_height_gain_sched,g000026_c1,26,,4.783324470488148,0.09798417198579482,0.012049626758513909,100.0,,,,,,,,,,1.5327,3.1847,11.7942,0.0,1.1611,0.009391,0.3579,0.194,12.0,,,,,,4.49759,PASS,
212,s02_leg_height_gain_sched,g000026_c2,26,,4.2375080603682544,0.08888062260107772,0.017707891037686028,100.0,,,,,,,,,,1.6472,3.3308,11.1036,0.0,1.1164,0.009398,0.3579,0.194,12.0,,,,,,4.79437,PASS,
213,s02_leg_height_gain_sched,g000026_c3,26,,4.857456737474501,0.08178704637535116,0.01210889837693426,76.13153499309514,,,,,,,,,,1.5876,3.2968,11.0619,0.0,1.09,0.009393,0.3579,0.194,12.0,,,,,,4.41061,PASS,
214,s02_leg_height_gain_sched,g000026_c4,26,,5.190213786587542,0.08575317706902953,0.01817591543992818,85.75152513635072,,,,,,,,,,1.7028,3.3911,10.592,0.0,1.0504,0.009397,0.3579,0.194,12.0,,,,,,4.63509,PASS,
215,s02_leg_height_gain_sched,g000026_c5,26,,4.47165128974758,0.08215152565285914,0.023331512731176517,97.76163925276326,,,,,,,,,,1.7163,3.4312,10.4081,0.0,1.0494,0.009403,0.3579,0.194,12.0,,,,,,5.09591,PASS,
216,s02_leg_height_gain_sched,g000026_c6,26,,5.308163089182424,0.09373769068386247,0.014055237777876409,100.0,,,,,,,,,,1.5571,3.2534,11.3706,0.0,1.1289,0.009395,0.3579,0.194,12.0,,,,,,4.6783,PASS,
217,s02_leg_height_gain_sched,g000026_c7,26,,4.754582276151941,0.10281850351017639,0.01265374866145128,100.0,,,,,,,,,,1.5254,3.2012,11.5413,0.0,1.1349,0.009393,0.3579,0.194,12.0,,,,,,4.47784,PASS,
218,s02_leg_height_gain_sched,g000027_c0,27,,4.164405729542729,0.08105773895942678,0.016004908331381004,100.0,,,,,,,,,,1.632,3.2634,11.4005,0.0,1.1541,0.009399,0.3579,0.194,12.0,,,,,,4.98956,PASS,
219,s02_leg_height_gain_sched,g000027_c1,27,,4.504031122235373,0.08958078794775524,0.01367455210320827,79.10816396595519,,,,,,,,,,1.6081,3.3437,10.8122,0.0,1.0679,0.009396,0.3579,0.196,12.0,,,,,,4.58871,PASS,
220,s02_leg_height_gain_sched,g000027_c2,27,,5.087416877247635,0.07458338770947101,0.013972535766489418,100.0,,,,,,,,,,1.5518,3.2534,11.3345,0.0,1.1121,0.009392,0.3579,0.194,12.0,,,,,,4.51817,PASS,
221,s02_leg_height_gain_sched,g000027_c3,27,,5.162074850466985,0.0847183112392558,0.011570933693243806,99.71915200607492,,,,,,,,,,1.5074,3.1573,11.836,0.0,1.1666,0.009392,0.3579,0.194,12.0,,,,,,4.55545,PASS,
222,s02_leg_height_gain_sched,g000027_c4,27,,4.544079693777758,0.08289146011947686,0.01429501491177215,83.03010075537358,,,,,,,,,,1.6293,3.3239,10.9048,0.0,1.0841,0.009396,0.3579,0.194,12.0,,,,,,4.66552,PASS,
223,s02_leg_height_gain_sched,g000027_c5,27,,3.808839528569374,0.07167016324144239,0.014559448804787371,100.0,,,,,,,,,,1.5683,3.2626,11.3606,0.0,1.1218,0.009395,0.3579,0.194,12.0,,,,,,4.69578,PASS,
224,s02_leg_height_gain_sched,g000027_c6,27,,4.5373029222655505,0.08618421180590495,0.012216816134716119,100.0,,,,,,,,,,1.5401,3.1776,11.9222,0.0,1.1842,0.009395,0.3579,0.192,12.0,,,,,,4.7354,PASS,
225,s02_leg_height_gain_sched,g000027_c7,27,,5.176128953668169,0.08321414257941853,0.015130570967503382,88.97117704445084,,,,,,,,,,1.6207,3.3167,10.9735,0.0,1.0899,0.009396,0.3579,0.194,12.0,,,,,,4.68655,PASS,
226,s02_leg_height_gain_sched,g000028_c0,28,,4.641172028907207,0.07569499129510104,0.017091994065338564,100.0,,,,,,,,,,1.622,3.307,11.0493,0.0,1.105,0.009397,0.3579,0.194,12.0,,,,,,4.69744,PASS,
227,s02_leg_height_gain_sched,g000028_c1,28,,4.581542690835101,0.08688675249707391,0.013735913744879017,85.95292626497518,,,,,,,,,,1.5933,3.3079,11.0585,0.0,1.0991,0.009394,0.3579,0.194,12.0,,,,,,4.66817,PASS,
228,s02_leg_height_gain_sched,g000028_c2,28,,4.905122629668768,0.08560100220412294,0.013888766809419636,90.44907471627916,,,,,,,,,,1.5974,3.3015,11.4154,0.0,1.1372,0.009395,0.3579,0.194,12.0,,,,,,4.75194,PASS,
229,s02_leg_height_gain_sched,g000028_c3,28,,5.128064477645123,0.08442295731897768,0.015387367291719623,98.22431257240316,,,,,,,,,,1.5854,3.3018,11.0979,0.0,1.1047,0.009395,0.3579,0.194,12.0,,,,,,4.66356,PASS,
230,s02_leg_height_gain_sched,g000028_c4,28,,4.254195655406714,0.09102040138391647,0.013124763031597453,91.14272929702283,,,,,,,,,,1.5604,3.2628,11.193,0.0,1.1026,0.009392,0.3579,0.194,12.0,,,,,,4.373,PASS,
231,s02_leg_height_gain_sched,g000028_c5,28,,4.731765170758365,0.09003004406580499,0.01356187990048555,86.50946415139786,,,,,,,,,,1.5895,3.294,11.0449,0.0,1.0875,0.009392,0.3579,0.194,12.0,,,,,,4.36612,PASS,
232,s02_leg_height_gain_sched,g000028_c6,28,,4.8576400015105135,0.08776766306889393,0.013036501835207673,96.05990915840154,,,,,,,,,,1.5647,3.2106,11.5812,0.0,1.1493,0.009394,0.3579,0.194,12.0,,,,,,4.54966,PASS,
233,s02_leg_height_gain_sched,g000028_c7,28,,4.937988910108241,0.09977792594244049,0.01194151974820802,100.0,,,,,,,,,,1.5253,3.1679,11.8012,0.0,1.165,0.009393,0.3579,0.194,12.0,,,,,,4.54161,PASS,
234,s02_leg_height_gain_sched,g000029_c0,29,,3.975966675052068,0.09433925668911405,0.01438241757434209,98.51300116542963,,,,,,,,,,1.6079,3.2284,11.716,0.0,1.1821,0.0094,0.3579,0.196,12.0,,,,,,4.95045,PASS,
235,s02_leg_height_gain_sched,g000029_c1,29,,4.407442722479416,0.08466738679544043,0.014469476756683097,94.90780268256408,,,,,,,,,,1.5769,3.2884,11.1526,0.0,1.1024,0.009395,0.3579,0.194,12.0,,,,,,4.54913,PASS,
236,s02_leg_height_gain_sched,g000029_c2,29,,4.373145489202265,0.08684730575421569,0.013710901513536046,90.43351666684244,,,,,,,,,,1.5992,3.2933,11.38,0.0,1.129,0.009395,0.3579,0.194,12.0,,,,,,4.69691,PASS,
237,s02_leg_height_gain_sched,g000029_c3,29,,4.898108879036027,0.09149744586549619,0.014475797311970203,100.0,,,,,,,,,,1.5733,3.2514,11.3668,0.0,1.1246,0.009396,0.3579,0.194,12.0,,,,,,4.68644,PASS,
238,s02_leg_height_gain_sched,g000029_c4,29,,4.577854434363331,0.08476003247970376,0.015231682772806805,94.59869337432058,,,,,,,,,,1.607,3.3173,11.2729,0.0,1.1199,0.009396,0.3579,0.194,12.0,,,,,,4.78664,PASS,
239,s02_leg_height_gain_sched,g000029_c5,29,,4.419304518977477,0.09476500108356807,0.012261115980541455,98.58131126173544,,,,,,,,,,1.534,3.19,11.7476,0.0,1.1625,0.009393,0.3579,0.194,12.0,,,,,,4.65079,PASS,
240,s02_leg_height_gain_sched,g000029_c6,29,,4.486803379576617,0.08616953432429228,0.014306346178667433,100.0,,,,,,,,,,1.5534,3.2669,11.4099,0.0,1.1296,0.009395,0.3579,0.194,12.0,,,,,,4.64895,PASS,
241,s02_leg_height_gain_sched,g000029_c7,29,,4.557179811959643,0.09245596038709533,0.013808337620638671,99.32081490789123,,,,,,,,,,1.5599,3.2332,11.5371,0.0,1.1547,0.009398,0.3579,0.194,12.0,,,,,,4.77599,PASS,
242,s02_leg_height_gain_sched,g000030_c0,30,,4.874113041680609,0.07972103695065821,0.016648057396446713,100.0,,,,,,,,,,1.6473,3.268,11.3725,0.0,1.1515,0.009399,0.3579,0.194,12.0,,,,,,4.95733,PASS,
243,s02_leg_height_gain_sched,g000030_c1,30,,4.562687006050147,0.07994534592356169,0.013146679902603445,100.0,,,,,,,,,,1.5718,3.2086,11.7558,0.0,1.1663,0.009394,0.3579,0.194,12.0,,,,,,4.7004,PASS,
244,s02_leg_height_gain_sched,g000030_c2,30,,4.3608767109073305,0.0926614815681789,0.014415973246752317,100.0,,,,,,,,,,1.5681,3.252,11.3794,0.0,1.1285,0.009394,0.3579,0.194,12.0,,,,,,4.64274,PASS,
245,s02_leg_height_gain_sched,g000030_c3,30,,5.0519133010950314,0.08573965940101502,0.014172470605185707,96.14609804283312,,,,,,,,,,1.5717,3.2677,11.2538,0.0,1.1063,0.009392,0.3579,0.194,12.0,,,,,,4.45466,PASS,
246,s02_leg_height_gain_sched,g000030_c4,30,,4.878761712815924,0.07198371006713683,0.013472523697469752,96.75038549255802,,,,,,,,,,1.5543,3.2527,11.2669,0.0,1.1112,0.009393,0.3579,0.192,12.0,,,,,,4.36611,PASS,
247,s02_leg_height_gain_sched,g000030_c5,30,,4.672311954220413,0.08734550772949926,0.016653855262325892,100.0,,,,,,,,,,1.6104,3.3244,10.9829,0.0,1.0853,0.009393,0.3579,0.194,12.0,,,,,,4.5869,PASS,
248,s02_leg_height_gain_sched,g000030_c6,30,,4.315636585046117,0.08840615406502468,0.016171947733316247,100.0,,,,,,,,,,1.6021,3.3019,11.1214,0.0,1.1106,0.009396,0.3579,0.196,12.0,,,,,,4.69743,PASS,
249,s02_leg_height_gain_sched,g000030_c7,30,,5.020028392971646,0.08530685888330025,0.014769729496606024,98.46313715129834,,,,,,,,,,1.5992,3.2715,11.4649,0.0,1.1423,0.009394,0.3579,0.194,12.0,,,,,,4.62952,PASS,
250,s02_leg_height_gain_sched,g000031_c0,31,,4.381327364241256,0.0754693286598789,0.013733488194055123,92.53381482902319,,,,,,,,,,1.5731,3.2695,11.259,0.0,1.1169,0.009394,0.3579,0.194,12.0,,,,,,4.39388,PASS,
251,s02_leg_height_gain_sched,g000031_c1,31,,4.3351961197784075,0.08244541070585432,0.01484030780520821,100.0,,,,,,,,,,1.5865,3.2862,11.3343,0.0,1.1207,0.009393,0.3579,0.194,12.0,,,,,,4.6063,PASS,
252,s02_leg_height_gain_sched,g000031_c2,31,,4.199777297463673,0.08347031716278697,0.013703309602424173,100.0,,,,,,,,,,1.5602,3.2265,11.5321,0.0,1.1492,0.009395,0.3579,0.194,12.0,,,,,,4.63235,PASS,
253,s02_leg_height_gain_sched,g000031_c3,31,,4.660577244814167,0.07955864940877828,0.015118044964745399,100.0,,,,,,,,,,1.5759,3.2843,11.2988,0.0,1.1133,0.009395,0.3579,0.194,12.0,,,,,,4.61261,PASS,
254,s02_leg_height_gain_sched,g000031_c4,31,,4.654981957956522,0.08039723615116524,0.014309418046241803,91.44651995110964,,,,,,,,,,1.5925,3.2846,11.1766,0.0,1.1118,0.009395,0.3579,0.194,12.0,,,,,,4.65147,PASS,
255,s02_leg_height_gain_sched,g000031_c5,31,,4.7455617979623765,0.10327582462769093,0.015594025241679238,99.35955797918822,,,,,,,,,,1.6092,3.2704,11.2686,0.0,1.1414,0.009398,0.3579,0.194,12.0,,,,,,4.86666,PASS,
256,s02_leg_height_gain_sched,g000031_c6,31,,4.0345069562832325,0.08966940402268174,0.014000727368757454,100.0,,,,,,,,,,1.5802,3.2313,11.5966,0.0,1.1513,0.009395,0.3579,0.194,12.0,,,,,,4.70899,PASS,
257,s02_leg_height_gain_sched,g000031_c7,31,,4.394657103551413,0.08373637912486386,0.015567212120898996,99.3876751171907,,,,,,,,,,1.6037,3.2718,11.3151,0.0,1.1322,0.009396,0.3579,0.194,12.0,,,,,,4.67995,PASS,
258,s02_leg_height_gain_sched,g000032_c0,32,,4.46440675700787,0.08382997112657758,0.014169467208825955,100.0,,,,,,,,,,1.5712,3.2363,11.6092,0.0,1.1641,0.009399,0.3579,0.194,12.0,,,,,,4.85774,PASS,
259,s02_leg_height_gain_sched,g000032_c1,32,,4.318417054298734,0.08013595135815098,0.014978130580271408,99.55624853384111,,,,,,,,,,1.5749,3.2761,11.1611,0.0,1.0995,0.009393,0.3579,0.196,12.0,,,,,,4.44837,PASS,
260,s02_leg_height_gain_sched,g000032_c2,32,,4.68163291461561,0.08438108922833089,0.013872250874496088,97.94926029945002,,,,,,,,,,1.5559,3.2518,11.4492,0.0,1.1341,0.009394,0.3579,0.194,12.0,,,,,,4.56395,PASS,
261,s02_leg_height_gain_sched,g000032_c3,32,,4.431766132072139,0.08621150653722023,0.01408948941916914,100.0,,,,,,,,,,1.5623,3.241,11.4244,0.0,1.1253,0.009393,0.3579,0.196,12.0,,,,,,4.40167,PASS,
262,s02_leg_height_gain_sched,g000032_c4,32,,4.6137513836457185,0.0831955042613418,0.014770217632071066,100.0,,,,,,,,,,1.5917,3.2427,11.431,0.0,1.1373,0.009396,0.3579,0.194,12.0,,,,,,4.69733,PASS,
263,s02_leg_height_gain_sched,g000032_c5,32,,4.6478421183974135,0.08044803764820999,0.013459036481600023,100.0,,,,,,,,,,1.5618,3.2197,11.6384,0.0,1.1589,0.009395,0.3579,0.194,12.0,,,,,,4.6942,PASS,
264,s02_leg_height_gain_sched,g000032_c6,32,,4.455731825710562,0.0869089559693078,0.013496200747571711,100.0,,,,,,,,,,1.5565,3.2287,11.5151,0.0,1.1364,0.009393,0.3579,0.194,12.0,,,,,,4.49543,PASS,
265,s02_leg_height_gain_sched,g000032_c7,32,,4.305577896088519,0.08475793426238631,0.013644445422088607,99.437398123182,,,,,,,,,,1.5503,3.2406,11.6298,0.0,1.1634,0.009396,0.3579,0.194,12.0,,,,,,4.7665,PASS,
266,s02_leg_height_gain_sched,g000033_c0,33,,4.391194787498315,0.08415113812462578,0.014501602351932553,98.06437467656015,,,,,,,,,,1.5792,3.2695,11.371,0.0,1.1306,0.009397,0.3579,0.196,12.0,,,,,,4.7514,PASS,
267,s02_leg_height_gain_sched,g000033_c1,33,,4.316921860987306,0.0842223502305411,0.01342621136798914,95.5667643718152,,,,,,,,,,1.5775,3.2377,11.578,0.0,1.1532,0.009395,0.3579,0.194,12.0,,,,,,4.74167,PASS,
268,s02_leg_height_gain_sched,g000033_c2,33,,4.530464876546469,0.0803592775668485,0.013359689487175579,100.0,,,,,,,,,,1.5535,3.2098,11.5908,0.0,1.1581,0.009395,0.3579,0.194,12.0,,,,,,4.66246,PASS,
269,s02_leg_height_gain_sched,g000033_c3,33,,4.508653383962693,0.08352687686080268,0.0144424726608801,100.0,,,,,,,,,,1.5886,3.2528,11.4493,0.0,1.138,0.009394,0.3579,0.194,12.0,,,,,,4.59489,PASS,
270,s02_leg_height_gain_sched,g000033_c4,33,,4.717705027299146,0.08245513597554122,0.014525102458646392,100.0,,,,,,,,,,1.5629,3.263,11.1814,0.0,1.0973,0.009392,0.3579,0.194,12.0,,,,,,4.32412,PASS,
271,s02_leg_height_gain_sched,g000033_c5,33,,4.4353321566509685,0.08379178641754996,0.014978062844440155,100.0,,,,,,,,,,1.5866,3.2695,11.3765,0.0,1.132,0.009395,0.3579,0.194,12.0,,,,,,4.61863,PASS,
272,s02_leg_height_gain_sched,g000033_c6,33,,4.782182396041334,0.08385999411873352,0.014716310752257279,100.0,,,,,,,,,,1.587,3.2591,11.3496,0.0,1.1211,0.009393,0.3579,0.194,12.0,,,,,,4.557,PASS,
273,s02_leg_height_gain_sched,g000033_c7,33,,4.570902771816653,0.08271435160792193,0.014421641176116752,100.0,,,,,,,,,,1.5917,3.2517,11.6972,0.0,1.1677,0.009396,0.3579,0.194,12.0,,,,,,4.87962,PASS,
274,s02_leg_height_gain_sched,g000034_c0,34,,4.664890670343697,0.08157824912172842,0.014557907333710369,96.94613067278344,,,,,,,,,,1.584,3.283,11.3851,0.0,1.1246,0.009396,0.3579,0.194,12.0,,,,,,4.60564,PASS,
275,s02_leg_height_gain_sched,g000034_c1,34,,4.742525414418073,0.08290989247379973,0.014306129593521776,100.0,,,,,,,,,,1.567,3.2531,11.5174,0.0,1.1487,0.009397,0.3579,0.196,12.0,,,,,,4.7404,PASS,
276,s02_leg_height_gain_sched,g000034_c2,34,,4.402506074137787,0.0805749624016271,0.014365518297923516,99.17332354370609,,,,,,,,,,1.5595,3.2644,11.2743,0.0,1.1179,0.009395,0.3579,0.194,12.0,,,,,,4.65321,PASS,
277,s02_leg_height_gain_sched,g000034_c3,34,,4.864586000516149,0.07998409508047599,0.015227079289002415,98.67394062009464,,,,,,,,,,1.6053,3.2936,11.5431,0.0,1.1654,0.0094,0.3579,0.194,12.0,,,,,,5.03676,PASS,
278,s02_leg_height_gain_sched,g000034_c4,34,,4.885640457349681,0.07793113072314739,0.013447067060361874,100.0,,,,,,,,,,1.5594,3.2277,11.5132,0.0,1.1431,0.009393,0.3579,0.194,12.0,,,,,,4.55974,PASS,
279,s02_leg_height_gain_sched,g000034_c5,34,,4.754377162808702,0.08063837990062507,0.014626079891288913,99.29588295069622,,,,,,,,,,1.5726,3.2739,11.3631,0.0,1.1235,0.009394,0.3579,0.194,12.0,,,,,,4.51501,PASS,
280,s02_leg_height_gain_sched,g000034_c6,34,,5.251001958085655,0.08003843788430892,0.013416839940679387,100.0,,,,,,,,,,1.5416,3.2347,11.4052,0.0,1.1292,0.009394,0.3579,0.192,12.0,,,,,,4.496,PASS,
281,s02_leg_height_gain_sched,g000034_c7,34,,4.947309058717716,0.08207261090759842,0.015097794626131361,96.65292989267797,,,,,,,,,,1.579,3.3032,11.0211,0.0,1.0858,0.009393,0.3579,0.194,12.0,,,,,,4.48805,PASS,
282,s02_leg_height_gain_sched,g000035_c0,35,,4.8935365544302325,0.08200675946827934,0.014656562470497942,97.353063385061,,,,,,,,,,1.5791,3.2762,11.3218,0.0,1.1272,0.009397,0.3579,0.194,12.0,,,,,,4.76286,PASS,
283,s02_leg_height_gain_sched,g000035_c1,35,,4.896041466764334,0.08184986176281721,0.014300207485922261,97.52613400461581,,,,,,,,,,1.5808,3.2505,11.3418,0.0,1.126,0.009396,0.3579,0.194,12.0,,,,,,4.6893,PASS,
284,s02_leg_height_gain_sched,g000035_c2,35,,4.619182260007286,0.0849808858969018,0.014506592183060116,99.64833685083208,,,,,,,,,,1.5697,3.2635,11.362,0.0,1.1219,0.009395,0.3579,0.194,12.0,,,,,,4.54999,PASS,
285,s02_leg_height_gain_sched,g000035_c3,35,,4.736091140493601,0.08296758759786417,0.015120869367436493,99.37784890027925,,,,,,,,,,1.5966,3.2621,11.3542,0.0,1.1282,0.009397,0.3579,0.194,12.0,,,,,,4.74518,PASS,
286,s02_leg_height_gain_sched,g000035_c4,35,,4.596301904104423,0.0790697872589628,0.014995500099948093,94.37549717537594,,,,,,,,,,1.5778,3.3191,11.0553,0.0,1.0844,0.009392,0.3579,0.196,12.0,,,,,,4.5314,PASS,
287,s02_leg_height_gain_sched,g000035_c5,35,,4.671316358898768,0.08343605485675654,0.014412141388314866,95.56176100680148,,,,,,,,,,1.5956,3.2776,11.4166,0.0,1.1348,0.009394,0.3579,0.194,12.0,,,,,,4.66775,PASS,
288,s02_leg_height_gain_sched,g000035_c6,35,,4.888632597249614,0.0837720885551177,0.014776396369401139,100.0,,,,,,,,,,1.5729,3.2645,11.2239,0.0,1.1113,0.009394,0.3579,0.194,12.0,,,,,,4.54621,PASS,
289,s02_leg_height_gain_sched,g000035_c7,35,,4.698332608422503,0.08643098901101498,0.015008523019051631,100.0,,,,,,,,,,1.5869,3.2707,11.4789,0.0,1.1522,0.009397,0.3579,0.196,12.0,,,,,,4.77902,PASS,
290,s02_leg_height_gain_sched,g000036_c0,36,,4.638448397631904,0.08394692371919064,0.014604434074196699,96.74022037792153,,,,,,,,,,1.5883,3.2678,11.4872,0.0,1.1407,0.009398,0.3579,0.196,12.0,,,,,,4.85796,PASS,
291,s02_leg_height_gain_sched,g000036_c1,36,,4.893717350560122,0.0804583957095804,0.014188164844964494,100.0,,,,,,,,,,1.5597,3.2556,11.2907,0.0,1.1067,0.009391,0.3579,0.194,12.0,,,,,,4.32443,PASS,
292,s02_leg_height_gain_sched,g000036_c2,36,,4.767850091722045,0.0829348459059629,0.014874261386459633,100.0,,,,,,,,,,1.5876,3.2563,11.3913,0.0,1.1369,0.009396,0.3579,0.194,12.0,,,,,,4.70894,PASS,
293,s02_leg_height_gain_sched,g000036_c3,36,,4.768416629871905,0.08147600679420215,0.01418832182573933,100.0,,,,,,,,,,1.5696,3.2493,11.3154,0.0,1.1111,0.009391,0.3579,0.194,12.0,,,,,,4.42181,PASS,
