run_id,scenario,label,gen,timestamp,Q_PITCH,Q_PITCH_RATE,Q_VEL,R,KP_V,KI_V,KFF_V,KP_YAW,KI_YAW,LEG_K_S,LEG_B_S,LEG_K_ROLL,LEG_D_ROLL,rms_pitch_deg,max_pitch_deg,wheel_travel_m,wheel_liftoff_s,vel_track_rms_ms,hip_track_rms_rad,hip_cmd_rate_rms,settle_time_s,survived_s,fitness_balance,fitness_disturbance,fitness_drive_slow,fitness_drive_med,fitness_obstacle,fitness,status,fail_reason
1,s05_vel_pi_leg_cycling,evo_seed,0,,,,,,0.0010434243,0.26349501,0.12715073,,,,,,,12.7831,18.4612,12.0005,0.0,1.5092,0.00559,0.358,0.0,13.0,,,,,,5.80591,PASS,
2,s05_vel_pi_leg_cycling,g000000_c0,0,,,,,,0.002185951756682443,0.004376829187056184,0.1,,,,,,,1.8837,3.8026,14.1003,0.0,1.3601,0.005739,0.358,0.0,13.0,,,,,,4.26867,PASS,
3,s05_vel_pi_leg_cycling,g000000_c1,0,,,,,,0.001,0.7261927073874036,0.1,,,,,,,21.6533,32.3003,16.9497,0.0,1.8836,0.006193,0.358,0.0,13.0,,,,,,7.81613,PASS,
4,s05_vel_pi_leg_cycling,g000000_c2,0,,,,,,0.005396095665156479,0.029877465968871673,0.1,,,,,,,2.7619,5.413,10.8444,0.0,1.1559,0.005712,0.358,0.0,13.0,,,,,,3.74389,PASS,
5,s05_vel_pi_leg_cycling,g000000_c3,0,,,,,,0.040165822764839,2.534418266446199,0.1,,,,,,,24.9962,32.5339,18.0324,0.0,2.1411,0.006301,0.358,0.0,13.0,,,,,,8.92292,PASS,
6,s05_vel_pi_leg_cycling,g000000_c4,0,,,,,,0.0021620217095640695,0.2410302994371438,0.1,,,,,,,11.8268,17.2714,11.4376,0.0,1.4499,0.005586,0.358,0.0,13.0,,,,,,5.53238,PASS,
7,s05_vel_pi_leg_cycling,g000000_c5,0,,,,,,0.013867146832304398,0.011413790699903762,0.15,,,,,,,2.6186,5.3226,10.8061,0.0,1.143,0.005729,0.358,0.0,13.0,,,,,,3.69086,PASS,
8,s05_vel_pi_leg_cycling,g000000_c6,0,,,,,,0.001,0.9198325824524677,0.15,,,,,,,17.6308,31.3055,10.3007,0.0,1.5696,0.006391,0.3523,0.0,9.602,,,,,,206.47188,FAIL,fell over
9,s05_vel_pi_leg_cycling,g000000_c7,0,,,,,,0.001,1.563090653539787,0.1,,,,,,,23.7732,32.5018,17.1072,0.0,2.0848,0.006276,0.358,0.0,13.0,,,,,,8.63172,PASS,
10,s05_vel_pi_leg_cycling,g000001_c0,1,,,,,,0.0011643473810665204,0.0013545289407790016,0.15,,,,,,,1.7472,3.5405,14.715,0.0,1.4042,0.00574,0.358,0.0,13.0,,,,,,4.38732,PASS,
11,s05_vel_pi_leg_cycling,g000001_c1,1,,,,,,0.008904636398595275,0.004231801819507154,0.1,,,,,,,2.2171,4.5345,12.4961,0.0,1.2474,0.005735,0.358,0.0,13.0,,,,,,3.96391,PASS,
12,s05_vel_pi_leg_cycling,g000001_c2,1,,,,,,0.0021626635983532164,0.04869870339341167,0.15,,,,,,,3.2336,6.0644,10.32,0.0,1.1585,0.005694,0.358,0.0,13.0,,,,,,3.79886,PASS,
13,s05_vel_pi_leg_cycling,g000001_c3,1,,,,,,0.09037854626675558,0.0022048227103966807,0.1,,,,,,,5.2192,11.0733,6.2096,0.0,0.8641,0.005796,0.358,0.0,13.0,,,,,,3.11422,PASS,
14,s05_vel_pi_leg_cycling,g000001_c4,1,,,,,,0.016687707158424603,0.01614851618060341,0.1,,,,,,,2.8665,5.838,10.0762,0.0,1.0925,0.005721,0.358,0.0,13.0,,,,,,3.56415,PASS,
15,s05_vel_pi_leg_cycling,g000001_c5,1,,,,,,0.06808987256016974,0.15360360340418375,0.1,,,,,,,10.461,19.3821,9.4699,0.0,1.1696,0.005755,0.358,0.0,13.0,,,,,,4.5549,PASS,
16,s05_vel_pi_leg_cycling,g000001_c6,1,,,,,,0.006421862695597068,0.02986816642059454,0.1,,,,,,,2.8094,5.5135,10.6833,0.0,1.1424,0.005711,0.358,0.0,13.0,,,,,,3.70814,PASS,
17,s05_vel_pi_leg_cycling,g000001_c7,1,,,,,,0.009666692344053792,0.017025162137065803,0.1,,,,,,,2.5959,5.1893,11.1168,0.0,1.1696,0.005724,0.358,0.0,13.0,,,,,,3.76839,PASS,
18,s05_vel_pi_leg_cycling,g000002_c0,2,,,,,,0.0036722744962834797,0.0013104566623840005,0.15,,,,,,,1.903,3.8145,14.4847,0.0,1.4177,0.005745,0.358,0.0,13.0,,,,,,4.4434,PASS,
19,s05_vel_pi_leg_cycling,g000002_c1,2,,,,,,0.058341437609772145,0.02101216992665293,0.15,,,,,,,4.6657,9.5397,6.7342,0.0,0.9337,0.005745,0.358,0.0,13.0,,,,,,3.26767,PASS,
20,s05_vel_pi_leg_cycling,g000002_c2,2,,,,,,0.0019869518974045537,0.001,0.11835117743082625,,,,,,,1.7839,3.6224,14.4758,0.0,1.3893,0.005739,0.358,0.0,13.0,,,,,,4.34629,PASS,
21,s05_vel_pi_leg_cycling,g000002_c3,2,,,,,,0.02103972208312286,0.0012662994027939135,0.12685968916608248,,,,,,,2.6745,5.5041,10.4825,0.0,1.1202,0.005737,0.358,0.0,13.0,,,,,,3.62805,PASS,
22,s05_vel_pi_leg_cycling,g000002_c4,2,,,,,,0.8787829706305712,0.001,0.1,,,,,,,13.606,30.668,9.0712,0.0,0.9548,0.00664,0.358,13.0,13.0,,,,,,4.225,PASS,
23,s05_vel_pi_leg_cycling,g000002_c5,2,,,,,,0.06981775084200839,0.017236994043385502,0.1,,,,,,,4.9659,10.256,6.5134,0.0,0.9106,0.005761,0.358,0.0,13.0,,,,,,3.22839,PASS,
24,s05_vel_pi_leg_cycling,g000002_c6,2,,,,,,0.3278478411515871,0.0072976774544799726,0.12328279661089118,,,,,,,9.5327,27.22,7.5578,0.0,0.7257,0.00616,0.358,0.0,13.0,,,,,,3.13037,PASS,
25,s05_vel_pi_leg_cycling,g000002_c7,2,,,,,,0.03037279347792508,0.001,0.15,,,,,,,3.0301,6.2682,9.191,0.0,1.0343,0.005739,0.358,0.0,13.0,,,,,,3.40591,PASS,
26,s05_vel_pi_leg_cycling,g000003_c0,3,,,,,,0.16114108600325774,0.001,0.1,,,,,,,7.1898,16.8937,6.5929,0.0,0.7891,0.005922,0.358,0.0,13.0,,,,,,3.08628,PASS,
27,s05_vel_pi_leg_cycling,g000003_c1,3,,,,,,0.47830953167077345,0.40567739083440385,0.15,,,,,,,13.177,30.8878,9.9985,0.0,0.8645,0.006404,0.358,0.0,13.0,,,,,,3.9112,PASS,
28,s05_vel_pi_leg_cycling,g000003_c2,3,,,,,,0.20017946519869784,0.04278350781830383,0.1,,,,,,,9.0939,22.3413,7.7253,0.0,0.8202,0.006031,0.358,0.0,13.0,,,,,,3.36999,PASS,
29,s05_vel_pi_leg_cycling,g000003_c3,3,,,,,,10.0,0.001,0.1,,,,,,,19.7561,31.12,10.7865,0.0,1.1515,0.006976,0.358,13.0,13.0,,,,,,5.43011,PASS,
30,s05_vel_pi_leg_cycling,g000003_c4,3,,,,,,0.3440785618867253,0.004602414104956815,0.15,,,,,,,9.5797,27.5582,7.5063,0.0,0.709,0.006169,0.358,0.0,13.0,,,,,,3.08497,PASS,
31,s05_vel_pi_leg_cycling,g000003_c5,3,,,,,,0.002051017245415977,0.25419580967159744,0.15,,,,,,,12.4066,18.0219,11.8497,0.0,1.5054,0.005588,0.358,0.0,13.0,,,,,,5.75686,PASS,
32,s05_vel_pi_leg_cycling,g000003_c6,3,,,,,,3.8506346559055302,0.003258896245082706,0.15,,,,,,,18.7776,31.0379,10.6788,0.0,1.0577,0.006723,0.358,13.0,13.0,,,,,,5.05086,PASS,
33,s05_vel_pi_leg_cycling,g000003_c7,3,,,,,,0.06750756633294332,0.002006302718290862,0.1,,,,,,,4.4247,9.2438,6.532,0.0,0.8986,0.005765,0.358,0.0,13.0,,,,,,3.13827,PASS,
34,s05_vel_pi_leg_cycling,g000004_c0,4,,,,,,0.5384472541051919,0.01819271881852308,0.1,,,,,,,10.2593,29.7725,7.7295,0.0,0.7118,0.006264,0.358,0.0,13.0,,,,,,3.16133,PASS,
35,s05_vel_pi_leg_cycling,g000004_c1,4,,,,,,10.0,0.003327795617024555,0.15,,,,,,,19.7574,31.1144,10.7929,0.0,1.1507,0.006978,0.358,13.0,13.0,,,,,,5.42784,PASS,
36,s05_vel_pi_leg_cycling,g000004_c2,4,,,,,,0.07840831682193278,0.25285737687344517,0.15,,,,,,,14.4512,27.0551,11.6948,0.0,1.3243,0.005922,0.358,0.0,13.0,,,,,,5.41802,PASS,
37,s05_vel_pi_leg_cycling,g000004_c3,4,,,,,,0.004414952413743142,0.11536222076812196,0.15,,,,,,,6.3563,10.189,9.354,0.0,1.2375,0.005619,0.358,0.0,13.0,,,,,,4.34813,PASS,
38,s05_vel_pi_leg_cycling,g000004_c4,4,,,,,,0.2054089002708365,0.006811859131902853,0.1,,,,,,,8.2322,20.6951,7.0219,0.0,0.76,0.006008,0.358,0.0,13.0,,,,,,3.10322,PASS,
39,s05_vel_pi_leg_cycling,g000004_c5,4,,,,,,0.14198394477267848,0.09091613537932737,0.1,,,,,,,9.6806,21.4592,8.4127,0.0,0.9563,0.005938,0.358,0.0,13.0,,,,,,3.83696,PASS,
40,s05_vel_pi_leg_cycling,g000004_c6,4,,,,,,0.24512917369251624,0.0024519496750537812,0.15,,,,,,,8.7073,23.3641,7.1496,0.0,0.7287,0.006065,0.358,0.0,13.0,,,,,,3.05683,PASS,
41,s05_vel_pi_leg_cycling,g000004_c7,4,,,,,,0.01845102028221655,0.001,0.15,,,,,,,2.5492,5.2966,10.9125,0.0,1.1325,0.005738,0.358,0.0,13.0,,,,,,3.65242,PASS,
42,s05_vel_pi_leg_cycling,g000005_c0,5,,,,,,1.2408026381161708,0.009730569119726086,0.15,,,,,,,15.8111,30.9798,9.9007,0.0,0.9865,0.006517,0.358,13.0,13.0,,,,,,4.54061,PASS,
43,s05_vel_pi_leg_cycling,g000005_c1,5,,,,,,5.077896960476685,0.0016547746648572375,0.15,,,,,,,19.2991,30.8245,11.0051,0.0,1.0131,0.006792,0.358,13.0,13.0,,,,,,4.96921,PASS,
44,s05_vel_pi_leg_cycling,g000005_c2,5,,,,,,2.4313076508631846,0.001,0.1,,,,,,,17.9531,30.7781,10.3228,0.0,1.0616,0.006889,0.358,13.0,13.0,,,,,,4.98011,PASS,
45,s05_vel_pi_leg_cycling,g000005_c3,5,,,,,,0.8050413700397373,0.011789035422855906,0.15,,,,,,,12.8724,30.6561,9.0051,0.0,0.8404,0.00662,0.358,13.0,13.0,,,,,,3.80844,PASS,
46,s05_vel_pi_leg_cycling,g000005_c4,5,,,,,,0.05591981678521792,0.001,0.12320297878735073,,,,,,,3.9811,8.3018,7.0223,0.0,0.9235,0.005754,0.358,0.0,13.0,,,,,,3.16861,PASS,
47,s05_vel_pi_leg_cycling,g000005_c5,5,,,,,,0.010351489366199765,0.02093270439246327,0.15,,,,,,,2.7341,5.4474,10.7528,0.0,1.1436,0.005721,0.358,0.0,13.0,,,,,,3.70421,PASS,
48,s05_vel_pi_leg_cycling,g000005_c6,5,,,,,,0.021500897970313217,0.0088466202428217,0.1,,,,,,,2.8838,5.8862,9.9399,0.0,1.0899,0.005732,0.358,0.0,13.0,,,,,,3.55808,PASS,
49,s05_vel_pi_leg_cycling,g000005_c7,5,,,,,,3.610220985873447,0.001,0.1,,,,,,,18.6555,31.0107,10.6224,0.0,1.0308,0.006745,0.358,13.0,13.0,,,,,,4.95795,PASS,
50,s05_vel_pi_leg_cycling,g000006_c0,6,,,,,,0.11837292341770597,0.001,0.1,,,,,,,6.0717,13.3278,6.2936,0.0,0.8353,0.005844,0.358,0.0,13.0,,,,,,3.11307,PASS,
51,s05_vel_pi_leg_cycling,g000006_c1,6,,,,,,0.09408603209051095,0.00766638221710398,0.15,,,,,,,5.5041,11.6766,6.2953,0.0,0.8666,0.005801,0.358,0.0,13.0,,,,,,3.15021,PASS,
52,s05_vel_pi_leg_cycling,g000006_c2,6,,,,,,0.13258817702014067,0.001,0.1,,,,,,,6.4741,14.5345,6.3874,0.0,0.8193,0.00587,0.358,0.0,13.0,,,,,,3.10531,PASS,
53,s05_vel_pi_leg_cycling,g000006_c3,6,,,,,,1.6528400721566665,0.10140413550513451,0.15,,,,,,,16.9719,30.5216,10.1668,0.0,0.9581,0.006939,0.358,13.0,13.0,,,,,,4.57149,PASS,
54,s05_vel_pi_leg_cycling,g000006_c4,6,,,,,,7.895038520944011,0.011968189282011309,0.1,,,,,,,19.7247,31.0666,10.9865,0.0,1.1306,0.006945,0.358,13.0,13.0,,,,,,5.36427,PASS,
55,s05_vel_pi_leg_cycling,g000006_c5,6,,,,,,0.3073311922533838,0.0094417574470416,0.15,,,,,,,9.4369,26.6675,7.525,0.0,0.7267,0.006145,0.358,0.0,13.0,,,,,,3.12379,PASS,
56,s05_vel_pi_leg_cycling,g000006_c6,6,,,,,,0.06517307733045394,0.001,0.15,,,,,,,4.3147,9.0105,6.6119,0.0,0.9026,0.005763,0.358,0.0,13.0,,,,,,3.13927,PASS,
57,s05_vel_pi_leg_cycling,g000006_c7,6,,,,,,1.004957790972548,0.011748571622966516,0.1,,,,,,,14.4079,30.7315,9.3638,0.0,0.9738,0.006817,0.358,13.0,13.0,,,,,,4.36219,PASS,
58,s05_vel_pi_leg_cycling,g000007_c0,7,,,,,,0.5663322805328502,0.004144933279751185,0.15,,,,,,,10.2075,29.7797,7.665,0.0,0.7094,0.006278,0.358,0.0,13.0,,,,,,3.14895,PASS,
59,s05_vel_pi_leg_cycling,g000007_c1,7,,,,,,0.5071661425143161,0.001,0.15,,,,,,,10.0541,29.4746,7.653,0.0,0.708,0.006246,0.358,0.0,13.0,,,,,,3.12941,PASS,
60,s05_vel_pi_leg_cycling,g000007_c2,7,,,,,,0.02278870820459507,0.004812203029209528,0.1,,,,,,,2.8286,5.83,9.9964,0.0,1.0855,0.005734,0.358,0.0,13.0,,,,,,3.53936,PASS,
61,s05_vel_pi_leg_cycling,g000007_c3,7,,,,,,2.8174018530057072,0.001,0.15,,,,,,,18.0006,30.6962,10.4054,0.0,1.0168,0.006897,0.358,13.0,13.0,,,,,,4.85046,PASS,
62,s05_vel_pi_leg_cycling,g000007_c4,7,,,,,,0.8125238761073066,0.023089366560765778,0.1,,,,,,,13.1589,30.627,9.0561,0.0,0.9772,0.006585,0.358,13.0,13.0,,,,,,4.24749,PASS,
63,s05_vel_pi_leg_cycling,g000007_c5,7,,,,,,0.5886251753322511,0.0023182169923017595,0.1,,,,,,,10.2375,29.8524,7.645,0.0,0.7146,0.006296,0.358,0.0,13.0,,,,,,3.16755,PASS,
64,s05_vel_pi_leg_cycling,g000007_c6,7,,,,,,0.0958141462993712,0.001,0.1,,,,,,,5.3638,11.4556,6.1867,0.0,0.8561,0.005805,0.358,0.0,13.0,,,,,,3.10468,PASS,
65,s05_vel_pi_leg_cycling,g000007_c7,7,,,,,,0.11666940871950265,0.12179986298236267,0.1,,,,,,,10.3909,21.8886,8.9716,0.0,1.0454,0.00589,0.358,0.0,13.0,,,,,,4.17529,PASS,
66,s05_vel_pi_leg_cycling,g000008_c0,8,,,,,,0.2978709254025699,0.8044724255590555,0.15,,,,,,,16.4359,30.5877,10.9472,0.0,0.8539,0.006801,0.358,0.0,13.0,,,,,,4.20529,PASS,
67,s05_vel_pi_leg_cycling,g000008_c1,8,,,,,,0.938536990954777,0.001,0.15,,,,,,,14.2751,30.6954,9.3028,0.0,0.9787,0.00676,0.358,13.0,13.0,,,,,,4.36361,PASS,
68,s05_vel_pi_leg_cycling,g000008_c2,8,,,,,,0.14783741288704494,0.001,0.1,,,,,,,6.8644,15.7842,6.4693,0.0,0.7985,0.005896,0.358,0.0,13.0,,,,,,3.08194,PASS,
69,s05_vel_pi_leg_cycling,g000008_c3,8,,,,,,0.042954119869601064,0.0016121084343945742,0.15,,,,,,,3.519,7.3098,7.8963,0.0,0.9648,0.005744,0.358,0.0,13.0,,,,,,3.2463,PASS,
70,s05_vel_pi_leg_cycling,g000008_c4,8,,,,,,8.031566637183701,0.0010298098539131765,0.1,,,,,,,19.7232,31.074,10.8973,0.0,1.1226,0.006947,0.358,13.0,13.0,,,,,,5.34012,PASS,
71,s05_vel_pi_leg_cycling,g000008_c5,8,,,,,,0.02228681717626216,0.01790406620281909,0.15,,,,,,,3.1473,6.3859,9.2881,0.0,1.0572,0.005722,0.358,0.0,13.0,,,,,,3.48633,PASS,
72,s05_vel_pi_leg_cycling,g000008_c6,8,,,,,,0.4674805347708898,0.0237641925732871,0.15,,,,,,,10.2055,29.4537,7.8345,0.0,0.7194,0.006239,0.358,0.0,13.0,,,,,,3.17875,PASS,
73,s05_vel_pi_leg_cycling,g000008_c7,8,,,,,,0.8760630823307586,0.001,0.15,,,,,,,13.5526,30.3353,9.1803,0.0,0.8709,0.006694,0.358,13.0,13.0,,,,,,3.96796,PASS,
74,s05_vel_pi_leg_cycling,g000009_c0,9,,,,,,0.002596931313518934,0.001,0.1,,,,,,,1.8124,3.6897,14.3187,0.0,1.371,0.005738,0.358,0.0,13.0,,,,,,4.29424,PASS,
75,s05_vel_pi_leg_cycling,g000009_c1,9,,,,,,0.07114519831941485,0.002257630072419145,0.1,,,,,,,4.5615,9.5411,6.4374,0.0,0.8923,0.005769,0.358,0.0,13.0,,,,,,3.13305,PASS,
76,s05_vel_pi_leg_cycling,g000009_c2,9,,,,,,0.011523026294799451,0.001,0.1,,,,,,,2.2436,4.6553,12.1635,0.0,1.2106,0.005736,0.358,0.0,13.0,,,,,,3.85616,PASS,
77,s05_vel_pi_leg_cycling,g000009_c3,9,,,,,,0.6293265942073385,0.07933383177512005,0.1,,,,,,,11.043,30.3672,8.2354,0.0,0.7906,0.006389,0.358,0.0,13.0,,,,,,3.4761,PASS,
78,s05_vel_pi_leg_cycling,g000009_c4,9,,,,,,2.469717446798399,0.04233096654397793,0.15,,,,,,,17.9305,30.8373,10.361,0.0,1.0629,0.006906,0.358,13.0,13.0,,,,,,4.98175,PASS,
79,s05_vel_pi_leg_cycling,g000009_c5,9,,,,,,0.878639508450106,0.047281523481079286,0.1340443341293422,,,,,,,13.7399,30.4116,9.2013,0.0,0.86,0.006702,0.358,13.0,13.0,,,,,,3.95399,PASS,
80,s05_vel_pi_leg_cycling,g000009_c6,9,,,,,,0.01671132610117645,0.001,0.15,,,,,,,2.4783,5.1522,11.2043,0.0,1.1522,0.005736,0.358,0.0,13.0,,,,,,3.70443,PASS,
81,s05_vel_pi_leg_cycling,g000009_c7,9,,,,,,0.05612008645046287,0.007572921261950087,0.1,,,,,,,4.1685,8.6455,6.8989,0.0,0.9257,0.00575,0.358,0.0,13.0,,,,,,3.19395,PASS,
82,s05_vel_pi_leg_cycling,g000010_c0,10,,,,,,10.0,0.0017526839036039901,0.15,,,,,,,19.7632,31.1185,10.7272,0.0,1.1436,0.006981,0.358,13.0,13.0,,,,,,5.40712,PASS,
83,s05_vel_pi_leg_cycling,g000010_c1,10,,,,,,0.02376853955972487,0.0030187375416356075,0.15,,,,,,,2.8297,5.8188,9.9649,0.0,1.0872,0.005737,0.358,0.0,13.0,,,,,,3.54457,PASS,
84,s05_vel_pi_leg_cycling,g000010_c2,10,,,,,,0.22227180554033063,0.002247849279896162,0.15,,,,,,,8.409,21.7938,7.0658,0.0,0.75,0.006038,0.358,0.0,13.0,,,,,,3.0909,PASS,
85,s05_vel_pi_leg_cycling,g000010_c3,10,,,,,,0.5099102929431356,0.0017088893339319699,0.1,,,,,,,10.0503,29.4972,7.6184,0.0,0.709,0.006245,0.358,0.0,13.0,,,,,,3.13203,PASS,
86,s05_vel_pi_leg_cycling,g000010_c4,10,,,,,,1.0202007386801752,0.008644218511230178,0.1381477744925769,,,,,,,14.3869,30.7819,9.3728,0.0,0.9544,0.006798,0.358,13.0,13.0,,,,,,4.30189,PASS,
87,s05_vel_pi_leg_cycling,g000010_c5,10,,,,,,0.03110036356301116,0.271939118197989,0.15,,,,,,,14.1312,22.764,12.0131,0.0,1.4694,0.005717,0.358,0.0,13.0,,,,,,5.82132,PASS,
88,s05_vel_pi_leg_cycling,g000010_c6,10,,,,,,2.040449073181269,0.005915667076481859,0.1,,,,,,,17.7428,30.9451,10.327,0.0,1.0878,0.006903,0.358,13.0,13.0,,,,,,5.03768,PASS,
89,s05_vel_pi_leg_cycling,g000010_c7,10,,,,,,5.055967768982269,0.004837734112112003,0.15,,,,,,,19.2623,30.8426,10.947,0.0,1.0124,0.00679,0.358,13.0,13.0,,,,,,4.96343,PASS,
90,s05_vel_pi_leg_cycling,g000011_c0,11,,,,,,0.4542347018703843,0.007035605713473876,0.15,,,,,,,9.9937,29.1715,7.6698,0.0,0.7118,0.006226,0.358,0.0,13.0,,,,,,3.13477,PASS,
91,s05_vel_pi_leg_cycling,g000011_c1,11,,,,,,0.003632276762821585,0.0014378925724915102,0.15,,,,,,,1.884,3.823,14.1306,0.0,1.3675,0.00574,0.358,0.0,13.0,,,,,,4.2909,PASS,
92,s05_vel_pi_leg_cycling,g000011_c2,11,,,,,,2.255377598832041,0.001,0.15,,,,,,,17.8587,30.7686,10.4023,0.0,1.08,0.006893,0.358,13.0,13.0,,,,,,5.02587,PASS,
93,s05_vel_pi_leg_cycling,g000011_c3,11,,,,,,0.5476971721716947,0.001,0.1,,,,,,,10.145,29.6809,7.7111,0.0,0.7212,0.006266,0.358,0.0,13.0,,,,,,3.1781,PASS,
94,s05_vel_pi_leg_cycling,g000011_c4,11,,,,,,0.055176446577948866,0.001,0.1,,,,,,,3.9536,8.2441,7.0631,0.0,0.9254,0.005753,0.358,0.0,13.0,,,,,,3.17156,PASS,
95,s05_vel_pi_leg_cycling,g000011_c5,11,,,,,,0.09738537473874115,0.004163897690769864,0.1,,,,,,,5.5071,11.7571,6.2404,0.0,0.8582,0.005807,0.358,0.0,13.0,,,,,,3.12531,PASS,
96,s05_vel_pi_leg_cycling,g000011_c6,11,,,,,,0.3480466909421139,0.0369174911653343,0.1,,,,,,,10.0671,28.3589,7.9265,0.0,0.7434,0.006191,0.358,0.0,13.0,,,,,,3.23691,PASS,
97,s05_vel_pi_leg_cycling,g000011_c7,11,,,,,,3.61754379731113,0.04573508296886743,0.15,,,,,,,18.7231,31.0371,10.6433,0.0,1.0444,0.006722,0.358,13.0,13.0,,,,,,5.00551,PASS,
98,s05_vel_pi_leg_cycling,g000012_c0,12,,,,,,0.021848370709261756,0.002130817857426877,0.15,,,,,,,2.7212,5.6211,10.2702,0.0,1.0961,0.005736,0.358,0.0,13.0,,,,,,3.56042,PASS,
99,s05_vel_pi_leg_cycling,g000012_c1,12,,,,,,0.49321203366907646,0.030811710883548362,0.15,,,,,,,10.2878,29.6641,7.7959,0.0,0.7125,0.006247,0.358,0.0,13.0,,,,,,3.16628,PASS,
100,s05_vel_pi_leg_cycling,g000012_c2,12,,,,,,0.025718920665756984,0.003622165489303821,0.15,,,,,,,2.9015,6.0404,9.5906,0.0,1.0502,0.005733,0.358,0.0,13.0,,,,,,3.44075,PASS,
101,s05_vel_pi_leg_cycling,g000012_c3,12,,,,,,0.2837403521113952,0.003055005961117572,0.1,,,,,,,9.1435,25.5326,7.3886,0.0,0.7364,0.006119,0.358,0.0,13.0,,,,,,3.12355,PASS,
102,s05_vel_pi_leg_cycling,g000012_c4,12,,,,,,0.025236334655795677,0.001,0.1,,,,,,,2.8332,5.8502,9.8633,0.0,1.0757,0.005737,0.358,0.0,13.0,,,,,,3.51042,PASS,
103,s05_vel_pi_leg_cycling,g000012_c5,12,,,,,,0.022083629572476882,0.010624394461839512,0.15,,,,,,,2.9407,6.0347,9.6754,0.0,1.0705,0.005727,0.358,0.0,13.0,,,,,,3.50557,PASS,
104,s05_vel_pi_leg_cycling,g000012_c6,12,,,,,,0.06077746135333546,0.001,0.15,,,,,,,4.157,8.6752,6.7821,0.0,0.9119,0.005759,0.358,0.0,13.0,,,,,,3.1514,PASS,
105,s05_vel_pi_leg_cycling,g000012_c7,12,,,,,,0.8462914733359321,0.0042935451715304905,0.13488031671234074,,,,,,,13.3657,30.6719,9.069,0.0,0.9274,0.006621,0.358,13.0,13.0,,,,,,4.11877,PASS,
106,s05_vel_pi_leg_cycling,g000013_c0,13,,,,,,0.5363194097074206,0.009907191735109313,0.15,,,,,,,10.1815,29.7028,7.6651,0.0,0.7066,0.00626,0.358,0.0,13.0,,,,,,3.13795,PASS,
107,s05_vel_pi_leg_cycling,g000013_c1,13,,,,,,0.08892672872251975,0.0041962854846860015,0.15,,,,,,,5.2289,11.0666,6.2417,0.0,0.8684,0.005793,0.358,0.0,13.0,,,,,,3.12809,PASS,
108,s05_vel_pi_leg_cycling,g000013_c2,13,,,,,,0.037165274380141375,0.001237726661661486,0.15,,,,,,,3.2925,6.8152,8.4346,0.0,0.991,0.00574,0.358,0.0,13.0,,,,,,3.30225,PASS,
109,s05_vel_pi_leg_cycling,g000013_c3,13,,,,,,0.6257174163025607,0.005161901187479957,0.15,,,,,,,10.472,29.9823,7.7759,0.0,0.7412,0.006354,0.358,0.0,13.0,,,,,,3.2708,PASS,
110,s05_vel_pi_leg_cycling,g000013_c4,13,,,,,,1.5449562981378744,0.001,0.15,,,,,,,16.4238,30.4889,9.8339,0.0,0.8987,0.006865,0.358,13.0,13.0,,,,,,4.33848,PASS,
111,s05_vel_pi_leg_cycling,g000013_c5,13,,,,,,0.0841472208615722,0.00602395700904112,0.1,,,,,,,5.1214,10.7763,6.2813,0.0,0.8767,0.005786,0.358,0.0,13.0,,,,,,3.14224,PASS,
112,s05_vel_pi_leg_cycling,g000013_c6,13,,,,,,0.6605107309078795,0.0011416662349779,0.1,,,,,,,10.9913,30.057,8.1571,0.0,0.7961,0.006516,0.358,13.0,13.0,,,,,,3.48743,PASS,
113,s05_vel_pi_leg_cycling,g000013_c7,13,,,,,,0.7293735661198743,0.001,0.1,,,,,,,11.9074,30.1658,8.7568,0.0,0.918,0.006641,0.358,13.0,13.0,,,,,,3.94474,PASS,
114,s05_vel_pi_leg_cycling,g000014_c0,14,,,,,,0.3313873355523427,0.0053576032531836544,0.15,,,,,,,9.5274,27.2639,7.5649,0.0,0.7311,0.006163,0.358,0.0,13.0,,,,,,3.14604,PASS,
115,s05_vel_pi_leg_cycling,g000014_c1,14,,,,,,0.3679663874530673,0.03095631832707108,0.15,,,,,,,10.0504,28.5494,7.8702,0.0,0.7421,0.006199,0.358,0.0,13.0,,,,,,3.23134,PASS,
116,s05_vel_pi_leg_cycling,g000014_c2,14,,,,,,0.15045340978821664,0.003421407321773526,0.1,,,,,,,6.9966,16.1295,6.5391,0.0,0.7989,0.005901,0.358,0.0,13.0,,,,,,3.09636,PASS,
117,s05_vel_pi_leg_cycling,g000014_c3,14,,,,,,0.6284835508047995,0.02076424137059421,0.15,,,,,,,10.614,30.0806,7.8409,0.0,0.7427,0.006367,0.358,0.0,13.0,,,,,,3.2895,PASS,
118,s05_vel_pi_leg_cycling,g000014_c4,14,,,,,,1.998293680607154,0.0017712913483681962,0.1,,,,,,,17.5402,30.931,10.1869,0.0,1.0713,0.006915,0.358,13.0,13.0,,,,,,4.96792,PASS,
119,s05_vel_pi_leg_cycling,g000014_c5,14,,,,,,0.1250664093326466,0.002554200531611596,0.1273118375447254,,,,,,,6.3091,13.9758,6.3661,0.0,0.8293,0.005856,0.358,0.0,13.0,,,,,,3.11881,PASS,
120,s05_vel_pi_leg_cycling,g000014_c6,14,,,,,,0.14872780853585063,0.001,0.15,,,,,,,6.9068,15.9267,6.5383,0.0,0.8095,0.005903,0.358,0.0,13.0,,,,,,3.11918,PASS,
121,s05_vel_pi_leg_cycling,g000014_c7,14,,,,,,0.4391196751653221,0.0011401141741810576,0.15,,,,,,,9.8987,28.9572,7.6594,0.0,0.7191,0.006219,0.358,0.0,13.0,,,,,,3.14717,PASS,
122,s05_vel_pi_leg_cycling,g000015_c0,15,,,,,,1.7324354772519905,0.0026618451972660055,0.10641087212193946,,,,,,,16.7667,30.4246,9.9878,0.0,0.8863,0.00692,0.358,13.0,13.0,,,,,,4.33557,PASS,
123,s05_vel_pi_leg_cycling,g000015_c1,15,,,,,,0.24296302881540047,0.00853971388775344,0.15,,,,,,,8.8164,23.5773,7.2894,0.0,0.745,0.006069,0.358,0.0,13.0,,,,,,3.11664,PASS,
124,s05_vel_pi_leg_cycling,g000015_c2,15,,,,,,0.5581476633428553,0.0013443546129223466,0.15,,,,,,,10.1745,29.7337,7.7127,0.0,0.7213,0.006273,0.358,0.0,13.0,,,,,,3.18135,PASS,
125,s05_vel_pi_leg_cycling,g000015_c3,15,,,,,,0.24402219131318661,0.003965084403872192,0.15,,,,,,,8.7435,23.374,7.2104,0.0,0.7441,0.00607,0.358,0.0,13.0,,,,,,3.10665,PASS,
126,s05_vel_pi_leg_cycling,g000015_c4,15,,,,,,0.23802042106431598,0.0023461013530790033,0.15,,,,,,,8.6341,22.9012,7.1641,0.0,0.75,0.006061,0.358,0.0,13.0,,,,,,3.11341,PASS,
127,s05_vel_pi_leg_cycling,g000015_c5,15,,,,,,0.24229572885780612,0.002914229268179944,0.15,,,,,,,8.7041,23.2311,7.205,0.0,0.7499,0.006068,0.358,0.0,13.0,,,,,,3.12011,PASS,
128,s05_vel_pi_leg_cycling,g000015_c6,15,,,,,,0.35173558978230074,0.0036599244887139445,0.1,,,,,,,9.6201,27.7127,7.5832,0.0,0.719,0.006178,0.358,0.0,13.0,,,,,,3.11901,PASS,
129,s05_vel_pi_leg_cycling,g000015_c7,15,,,,,,0.9805198713064808,0.008320837255301238,0.15,,,,,,,14.4,30.5226,9.4747,0.0,0.9547,0.006779,0.358,13.0,13.0,,,,,,4.3041,PASS,
130,s05_vel_pi_leg_cycling,g000016_c0,16,,,,,,0.04138085890094212,0.0012027737018266758,0.1,,,,,,,3.4496,7.1621,8.0429,0.0,0.9713,0.005743,0.358,0.0,13.0,,,,,,3.25886,PASS,
131,s05_vel_pi_leg_cycling,g000016_c1,16,,,,,,0.21892503638055075,0.0014340060843375212,0.1,,,,,,,8.3445,21.5546,7.0559,0.0,0.7564,0.006033,0.358,0.0,13.0,,,,,,3.10365,PASS,
132,s05_vel_pi_leg_cycling,g000016_c2,16,,,,,,0.2436315756105515,0.0033639900108781316,0.1,,,,,,,8.7354,23.3848,7.2806,0.0,0.7636,0.006073,0.358,0.0,13.0,,,,,,3.16434,PASS,
133,s05_vel_pi_leg_cycling,g000016_c3,16,,,,,,0.2814396765325201,0.001,0.1,,,,,,,9.0836,25.3676,7.3253,0.0,0.7257,0.006114,0.358,0.0,13.0,,,,,,3.08546,PASS,
134,s05_vel_pi_leg_cycling,g000016_c4,16,,,,,,1.2075476859046244,0.0016406188416505049,0.15,,,,,,,15.6058,30.7664,9.641,0.0,0.9599,0.006589,0.358,13.0,13.0,,,,,,4.44028,PASS,
135,s05_vel_pi_leg_cycling,g000016_c5,16,,,,,,0.16552653351333038,0.003934591312154024,0.1,,,,,,,7.3954,17.5735,6.7797,0.0,0.8123,0.005938,0.358,0.0,13.0,,,,,,3.17644,PASS,
136,s05_vel_pi_leg_cycling,g000016_c6,16,,,,,,0.7068478020775149,0.0018381483009868485,0.14184520785065963,,,,,,,11.5989,30.2351,8.4779,0.0,0.8769,0.006619,0.358,13.0,13.0,,,,,,3.79059,PASS,
137,s05_vel_pi_leg_cycling,g000016_c7,16,,,,,,0.07673290232781281,0.0021526412792140827,0.1074188327920897,,,,,,,4.7538,9.9747,6.3271,0.0,0.883,0.005777,0.358,0.0,13.0,,,,,,3.12438,PASS,
138,s05_vel_pi_leg_cycling,g000017_c0,17,,,,,,0.24188063108980637,0.0010290085896578285,0.15,,,,,,,8.6519,23.1047,7.1329,0.0,0.7368,0.006064,0.358,0.0,13.0,,,,,,3.07559,PASS,
139,s05_vel_pi_leg_cycling,g000017_c1,17,,,,,,0.21513230572587025,0.0026107494359343965,0.15,,,,,,,8.3188,21.3343,7.0744,0.0,0.7672,0.00603,0.358,0.0,13.0,,,,,,3.13348,PASS,
140,s05_vel_pi_leg_cycling,g000017_c2,17,,,,,,0.2064435401825975,0.0018095241932195734,0.15,,,,,,,8.127,20.556,6.9403,0.0,0.7522,0.006006,0.358,0.0,13.0,,,,,,3.0693,PASS,
141,s05_vel_pi_leg_cycling,g000017_c3,17,,,,,,0.31582501439877697,0.0015130009659721812,0.15,,,,,,,9.3697,26.7125,7.489,0.0,0.7355,0.006149,0.358,0.0,13.0,,,,,,3.14347,PASS,
142,s05_vel_pi_leg_cycling,g000017_c4,17,,,,,,0.2978437061616154,0.0017872357206247791,0.11336679645757775,,,,,,,9.2372,26.0856,7.3904,0.0,0.7224,0.006132,0.358,0.0,13.0,,,,,,3.09092,PASS,
143,s05_vel_pi_leg_cycling,g000017_c5,17,,,,,,0.3345000181991967,0.0018348836831258263,0.1,,,,,,,9.4827,27.2639,7.4869,0.0,0.7182,0.006161,0.358,0.0,13.0,,,,,,3.10287,PASS,
144,s05_vel_pi_leg_cycling,g000017_c6,17,,,,,,0.08845716378047633,0.0013206124845803685,0.12113608986349435,,,,,,,5.1291,10.8694,6.2032,0.0,0.8654,0.005793,0.358,0.0,13.0,,,,,,3.10911,PASS,
145,s05_vel_pi_leg_cycling,g000017_c7,17,,,,,,0.34938278452811755,0.002743825148403587,0.1116635365555226,,,,,,,9.5817,27.6424,7.511,0.0,0.7113,0.006172,0.358,0.0,13.0,,,,,,3.09207,PASS,
146,s05_vel_pi_leg_cycling,g000018_c0,18,,,,,,0.10741798313964772,0.002830471854582123,0.1076749243209177,,,,,,,5.7862,12.5094,6.2505,0.0,0.8452,0.005823,0.358,0.0,13.0,,,,,,3.11422,PASS,
147,s05_vel_pi_leg_cycling,g000018_c1,18,,,,,,0.2177128261804304,0.0017544962332630364,0.15,,,,,,,8.3243,21.3865,7.0219,0.0,0.7545,0.006029,0.358,0.0,13.0,,,,,,3.09593,PASS,
148,s05_vel_pi_leg_cycling,g000018_c2,18,,,,,,0.09958139077547369,0.002023261120838888,0.15,,,,,,,5.515,11.8193,6.2085,0.0,0.8529,0.005811,0.358,0.0,13.0,,,,,,3.1102,PASS,
149,s05_vel_pi_leg_cycling,g000018_c3,18,,,,,,0.15562758488247183,0.002395866946753794,0.10974566706434716,,,,,,,7.0929,16.4958,6.5563,0.0,0.7921,0.005911,0.358,0.0,13.0,,,,,,3.08559,PASS,
150,s05_vel_pi_leg_cycling,g000018_c4,18,,,,,,0.07785378368834282,0.004152763828072262,0.15,,,,,,,4.8506,10.1715,6.3153,0.0,0.8834,0.005777,0.358,0.0,13.0,,,,,,3.13526,PASS,
151,s05_vel_pi_leg_cycling,g000018_c5,18,,,,,,0.4436400595292355,0.0028227261910097733,0.1,,,,,,,9.9215,29.0219,7.6018,0.0,0.7032,0.006219,0.358,0.0,13.0,,,,,,3.10175,PASS,
152,s05_vel_pi_leg_cycling,g000018_c6,18,,,,,,0.29464821603381314,0.0012592660439632287,0.15,,,,,,,9.203,25.9358,7.3895,0.0,0.7295,0.006128,0.358,0.0,13.0,,,,,,3.1088,PASS,
153,s05_vel_pi_leg_cycling,g000018_c7,18,,,,,,0.13279559098079258,0.0013120468144664614,0.1288515637617083,,,,,,,6.4967,14.589,6.4206,0.0,0.8262,0.005872,0.358,0.0,13.0,,,,,,3.12827,PASS,
154,s05_vel_pi_leg_cycling,g000019_c0,19,,,,,,0.22703435131839989,0.0015543847808535624,0.15,,,,,,,8.4446,22.0812,7.039,0.0,0.7364,0.006039,0.358,0.0,13.0,,,,,,3.05366,PASS,
155,s05_vel_pi_leg_cycling,g000019_c1,19,,,,,,0.3214091801675847,0.0011820950353554434,0.12758285723285173,,,,,,,9.3876,26.8743,7.4195,0.0,0.7107,0.006149,0.358,0.0,13.0,,,,,,3.07086,PASS,
156,s05_vel_pi_leg_cycling,g000019_c2,19,,,,,,0.3091430989745296,0.002037618604555639,0.11978364573944297,,,,,,,9.3245,26.5024,7.3951,0.0,0.7127,0.006141,0.358,0.0,13.0,,,,,,3.07055,PASS,
157,s05_vel_pi_leg_cycling,g000019_c3,19,,,,,,0.45967939831094157,0.0038519297755455844,0.15,,,,,,,9.979,29.175,7.6802,0.0,0.715,0.006228,0.358,0.0,13.0,,,,,,3.1429,PASS,
158,s05_vel_pi_leg_cycling,g000019_c4,19,,,,,,0.3752055595473656,0.0013528533717131659,0.1,,,,,,,9.676,28.1193,7.5117,0.0,0.7066,0.006186,0.358,0.0,13.0,,,,,,3.0874,PASS,
159,s05_vel_pi_leg_cycling,g000019_c5,19,,,,,,0.16324916647285934,0.0029347123274839956,0.15,,,,,,,7.2899,17.1602,6.647,0.0,0.7892,0.005926,0.358,0.0,13.0,,,,,,3.09659,PASS,
160,s05_vel_pi_leg_cycling,g000019_c6,19,,,,,,0.4555899785091022,0.005115591718339924,0.15,,,,,,,9.9635,29.1587,7.6161,0.0,0.7071,0.006223,0.358,0.0,13.0,,,,,,3.11765,PASS,
161,s05_vel_pi_leg_cycling,g000019_c7,19,,,,,,0.13847192004242942,0.002739722099277761,0.11512588391878041,,,,,,,6.6892,15.1456,6.4902,0.0,0.8208,0.005883,0.358,0.0,13.0,,,,,,3.13132,PASS,
162,s05_vel_pi_leg_cycling,g000020_c0,20,,,,,,0.23669262065555033,0.0015491842239302744,0.15,,,,,,,8.5995,22.7738,7.1404,0.0,0.7483,0.006059,0.358,0.0,13.0,,,,,,3.10485,PASS,
163,s05_vel_pi_leg_cycling,g000020_c1,20,,,,,,0.2025979528360572,0.001,0.15,,,,,,,8.0682,20.3281,6.9754,0.0,0.7749,0.006008,0.358,0.0,13.0,,,,,,3.13152,PASS,
164,s05_vel_pi_leg_cycling,g000020_c2,20,,,,,,0.2137856205032606,0.001,0.15,,,,,,,8.2536,21.1755,7.0338,0.0,0.7629,0.006025,0.358,0.0,13.0,,,,,,3.11406,PASS,
165,s05_vel_pi_leg_cycling,g000020_c3,20,,,,,,0.4216910202012477,0.001860347771242843,0.15,,,,,,,9.8434,28.7834,7.5485,0.0,0.7018,0.006208,0.358,0.0,13.0,,,,,,3.08974,PASS,
166,s05_vel_pi_leg_cycling,g000020_c4,20,,,,,,0.10422909266523853,0.0014103976336590721,0.15,,,,,,,5.6444,12.1674,6.2099,0.0,0.8467,0.005818,0.358,0.0,13.0,,,,,,3.10454,PASS,
167,s05_vel_pi_leg_cycling,g000020_c5,20,,,,,,0.21299541083588655,0.0011049380695672569,0.15,,,,,,,8.2465,21.127,7.0722,0.0,0.7779,0.006025,0.358,0.0,13.0,,,,,,3.15835,PASS,
168,s05_vel_pi_leg_cycling,g000020_c6,20,,,,,,0.30479292542618025,0.0028158292224100797,0.1,,,,,,,9.3096,26.3759,7.4572,0.0,0.7319,0.006139,0.358,0.0,13.0,,,,,,3.12666,PASS,
169,s05_vel_pi_leg_cycling,g000020_c7,20,,,,,,0.19259705073961741,0.0010951826530872038,0.12116571625913614,,,,,,,7.8592,19.4326,6.8374,0.0,0.7628,0.005981,0.358,0.0,13.0,,,,,,3.07432,PASS,
170,s05_vel_pi_leg_cycling,g000021_c0,21,,,,,,0.23141547892352773,0.0015755846556968992,0.11219913874722091,,,,,,,8.5081,22.3999,7.0583,0.0,0.7333,0.006045,0.358,0.0,13.0,,,,,,3.05071,PASS,
171,s05_vel_pi_leg_cycling,g000021_c1,21,,,,,,0.2599535999696266,0.0016744159309997344,0.11389067407816778,,,,,,,8.8718,24.3023,7.2583,0.0,0.7336,0.006087,0.358,0.0,13.0,,,,,,3.08798,PASS,
172,s05_vel_pi_leg_cycling,g000021_c2,21,,,,,,0.4739027554500771,0.002203298454940316,0.1051157630653848,,,,,,,9.9851,29.2699,7.5967,0.0,0.7003,0.006231,0.358,0.0,13.0,,,,,,3.09941,PASS,
173,s05_vel_pi_leg_cycling,g000021_c3,21,,,,,,0.2515392188571205,0.001,0.1466035558341381,,,,,,,8.7792,23.774,7.2681,0.0,0.7546,0.006081,0.358,0.0,13.0,,,,,,3.14172,PASS,
174,s05_vel_pi_leg_cycling,g000021_c4,21,,,,,,0.29924864239040627,0.0013884313696858937,0.15,,,,,,,9.2399,26.1274,7.3625,0.0,0.7153,0.006132,0.358,0.0,13.0,,,,,,3.06989,PASS,
175,s05_vel_pi_leg_cycling,g000021_c5,21,,,,,,0.2665031721132796,0.0019389832587450406,0.10448304274019163,,,,,,,8.955,24.6292,7.2809,0.0,0.734,0.006097,0.358,0.0,13.0,,,,,,3.0975,PASS,
176,s05_vel_pi_leg_cycling,g000021_c6,21,,,,,,0.2131680099898025,0.0015750084803007748,0.13190345791451166,,,,,,,8.247,21.1743,7.0453,0.0,0.764,0.006021,0.358,0.0,13.0,,,,,,3.1167,PASS,
177,s05_vel_pi_leg_cycling,g000021_c7,21,,,,,,0.21863253335565302,0.0011165987266500098,0.1,,,,,,,8.3184,21.5284,7.0259,0.0,0.7484,0.006028,0.358,0.0,13.0,,,,,,3.07704,PASS,
178,s05_vel_pi_leg_cycling,g000022_c0,22,,,,,,0.18324667866743552,0.0011542483741499398,0.10924323746871006,,,,,,,7.6984,18.7896,6.8204,0.0,0.7826,0.005971,0.358,0.0,13.0,,,,,,3.11764,PASS,
179,s05_vel_pi_leg_cycling,g000022_c1,22,,,,,,0.20997118462357217,0.0023500458534249646,0.10204467572951655,,,,,,,8.1968,20.8206,6.9625,0.0,0.7498,0.006012,0.358,0.0,13.0,,,,,,3.06908,PASS,
180,s05_vel_pi_leg_cycling,g000022_c2,22,,,,,,0.2934480396689886,0.002007033454798704,0.15,,,,,,,9.2061,25.9172,7.3894,0.0,0.7274,0.006127,0.358,0.0,13.0,,,,,,3.10281,PASS,
181,s05_vel_pi_leg_cycling,g000022_c3,22,,,,,,0.3682427360234557,0.00218918310274335,0.1,,,,,,,9.6456,28.0119,7.4744,0.0,0.7003,0.006179,0.358,0.0,13.0,,,,,,3.06546,PASS,
182,s05_vel_pi_leg_cycling,g000022_c4,22,,,,,,0.3702027991045873,0.001,0.1,,,,,,,9.6712,28.0316,7.6295,0.0,0.7281,0.006188,0.358,0.0,13.0,,,,,,3.15142,PASS,
183,s05_vel_pi_leg_cycling,g000022_c5,22,,,,,,0.2981666689317847,0.0019231315551002312,0.1457001394418893,,,,,,,9.2435,26.0941,7.4151,0.0,0.73,0.006132,0.358,0.0,13.0,,,,,,3.11435,PASS,
184,s05_vel_pi_leg_cycling,g000022_c6,22,,,,,,0.17111561098781208,0.0015677817486477023,0.1,,,,,,,7.4278,17.7279,6.6725,0.0,0.7796,0.005941,0.358,0.0,13.0,,,,,,3.08158,PASS,
185,s05_vel_pi_leg_cycling,g000022_c7,22,,,,,,0.2646452938925446,0.0033168067194301433,0.15,,,,,,,8.9456,24.5383,7.2406,0.0,0.7196,0.006091,0.358,0.0,13.0,,,,,,3.05336,PASS,
186,s05_vel_pi_leg_cycling,g000023_c0,23,,,,,,0.2556663017112878,0.0014152431181482566,0.1,,,,,,,8.8362,24.0368,7.2852,0.0,0.7511,0.006086,0.358,0.0,13.0,,,,,,3.13692,PASS,
187,s05_vel_pi_leg_cycling,g000023_c1,23,,,,,,0.25370041929874587,0.0021380439724944028,0.11870242543123362,,,,,,,8.8269,23.9539,7.2739,0.0,0.7477,0.006084,0.358,0.0,13.0,,,,,,3.12579,PASS,
188,s05_vel_pi_leg_cycling,g000023_c2,23,,,,,,0.29719412359381303,0.0015972450126119737,0.10765200595778375,,,,,,,9.2339,26.0516,7.4217,0.0,0.735,0.006132,0.358,0.0,13.0,,,,,,3.12839,PASS,
189,s05_vel_pi_leg_cycling,g000023_c3,23,,,,,,0.22675988291941013,0.0013245593222063784,0.11211611163460448,,,,,,,8.4547,22.0517,7.0805,0.0,0.7527,0.006044,0.358,0.0,13.0,,,,,,3.10357,PASS,
190,s05_vel_pi_leg_cycling,g000023_c4,23,,,,,,0.3159079256225179,0.0014166599285194603,0.12310216348177051,,,,,,,9.3555,26.7209,7.4323,0.0,0.7213,0.006145,0.358,0.0,13.0,,,,,,3.09945,PASS,
191,s05_vel_pi_leg_cycling,g000023_c5,23,,,,,,0.1960688573988427,0.0019509627427814183,0.12219506785934683,,,,,,,7.9495,19.7227,6.8733,0.0,0.764,0.00599,0.358,0.0,13.0,,,,,,3.08695,PASS,
192,s05_vel_pi_leg_cycling,g000023_c6,23,,,,,,0.1823658911100287,0.0013908890515289172,0.1,,,,,,,7.6574,18.6107,6.7476,0.0,0.7679,0.005961,0.358,0.0,13.0,,,,,,3.06944,PASS,
193,s05_vel_pi_leg_cycling,g000023_c7,23,,,,,,0.25120596498541786,0.0017799404928735452,0.1315875089977909,,,,,,,8.7718,23.7407,7.178,0.0,0.7275,0.006074,0.358,0.0,13.0,,,,,,3.05968,PASS,
194,s05_vel_pi_leg_cycling,g000024_c0,24,,,,,,0.20983416079162115,0.0013450908933318408,0.1374594386365013,,,,,,,8.1724,20.7706,6.9445,0.0,0.7492,0.006011,0.358,0.0,13.0,,,,,,3.06484,PASS,
195,s05_vel_pi_leg_cycling,g000024_c1,24,,,,,,0.22091981544099226,0.0018459573578907518,0.1,,,,,,,8.3925,21.7731,7.1333,0.0,0.774,0.006039,0.358,0.0,13.0,,,,,,3.16125,PASS,
196,s05_vel_pi_leg_cycling,g000024_c2,24,,,,,,0.26647743009936625,0.0012832342340804903,0.1,,,,,,,8.9296,24.6326,7.2382,0.0,0.7212,0.006093,0.358,0.0,13.0,,,,,,3.05656,PASS,
197,s05_vel_pi_leg_cycling,g000024_c3,24,,,,,,0.330344293346224,0.001784861042085932,0.12723193626787066,,,,,,,9.4591,27.149,7.4377,0.0,0.7079,0.006157,0.358,0.0,13.0,,,,,,3.06961,PASS,
198,s05_vel_pi_leg_cycling,g000024_c4,24,,,,,,0.237714222370138,0.001,0.11621572244224448,,,,,,,8.5882,22.8854,7.1425,0.0,0.744,0.006057,0.358,0.0,13.0,,,,,,3.09082,PASS,
199,s05_vel_pi_leg_cycling,g000024_c5,24,,,,,,0.20709285195825086,0.001561543174221,0.10525696010633862,,,,,,,8.1394,20.5627,6.9401,0.0,0.7564,0.00601,0.358,0.0,13.0,,,,,,3.08314,PASS,
200,s05_vel_pi_leg_cycling,g000024_c6,24,,,,,,0.17959594308773474,0.0017216908929536439,0.10283674345695802,,,,,,,7.6114,18.4115,6.7367,0.0,0.7717,0.005956,0.358,0.0,13.0,,,,,,3.07624,PASS,
201,s05_vel_pi_leg_cycling,g000024_c7,24,,,,,,0.17402424507038208,0.001672409693935279,0.1,,,,,,,7.497,17.9779,6.7107,0.0,0.779,0.005947,0.358,0.0,13.0,,,,,,3.0867,PASS,
202,s05_vel_pi_leg_cycling,g000025_c0,25,,,,,,0.23116651768509092,0.001712029955076125,0.1,,,,,,,8.5338,22.4436,7.1298,0.0,0.7522,0.006053,0.358,0.0,13.0,,,,,,3.10998,PASS,
203,s05_vel_pi_leg_cycling,g000025_c1,25,,,,,,0.25331341543685815,0.0017490028683247382,0.1,,,,,,,8.8162,23.9141,7.2903,0.0,0.7551,0.006084,0.358,0.0,13.0,,,,,,3.14692,PASS,
204,s05_vel_pi_leg_cycling,g000025_c2,25,,,,,,0.2937202447152087,0.0019004063341327814,0.11418808559457229,,,,,,,9.1928,25.9301,7.351,0.0,0.7162,0.006124,0.358,0.0,13.0,,,,,,3.06788,PASS,
205,s05_vel_pi_leg_cycling,g000025_c3,25,,,,,,0.28280981856103543,0.001497567775471807,0.12938297297276213,,,,,,,9.105,25.4485,7.335,0.0,0.7249,0.006116,0.358,0.0,13.0,,,,,,3.0852,PASS,
206,s05_vel_pi_leg_cycling,g000025_c4,25,,,,,,0.17202505061983317,0.002031957041370968,0.1,,,,,,,7.486,17.9946,6.7892,0.0,0.8036,0.00595,0.358,0.0,13.0,,,,,,3.1594,PASS,
207,s05_vel_pi_leg_cycling,g000025_c5,25,,,,,,0.2659076332869508,0.001368326841876406,0.11366779683011871,,,,,,,8.9258,24.5921,7.2305,0.0,0.7197,0.006092,0.358,0.0,13.0,,,,,,3.05168,PASS,
208,s05_vel_pi_leg_cycling,g000025_c6,25,,,,,,0.21498018643640243,0.0015145170202444812,0.11375157131917277,,,,,,,8.259,21.1652,6.9761,0.0,0.7453,0.00602,0.358,0.0,13.0,,,,,,3.0618,PASS,
209,s05_vel_pi_leg_cycling,g000025_c7,25,,,,,,0.220971860206505,0.0018660450999942548,0.13137822120688844,,,,,,,8.3773,21.6446,7.0435,0.0,0.7513,0.006034,0.358,0.0,13.0,,,,,,3.09163,PASS,
210,s05_vel_pi_leg_cycling,g000026_c0,26,,,,,,0.2154009309044677,0.0016195031351667526,0.1,,,,,,,8.2867,21.2367,7.0168,0.0,0.7554,0.006026,0.358,0.0,13.0,,,,,,3.09487,PASS,
211,s05_vel_pi_leg_cycling,g000026_c1,26,,,,,,0.2667708858291095,0.0015732895530395597,0.11979398612483096,,,,,,,8.9487,24.6241,7.2597,0.0,0.7287,0.006097,0.358,0.0,13.0,,,,,,3.08097,PASS,
212,s05_vel_pi_leg_cycling,g000026_c2,26,,,,,,0.249559819699627,0.0014493363518812469,0.10939256931426683,,,,,,,8.7378,23.6237,7.1397,0.0,0.7237,0.00607,0.358,0.0,13.0,,,,,,3.04488,PASS,
213,s05_vel_pi_leg_cycling,g000026_c3,26,,,,,,0.2624874947229861,0.0015416636700019298,0.103785521500967,,,,,,,8.9059,24.395,7.2446,0.0,0.73,0.006092,0.358,0.0,13.0,,,,,,3.08059,PASS,
214,s05_vel_pi_leg_cycling,g000026_c4,26,,,,,,0.23230225782951439,0.0014746620474106467,0.1,,,,,,,8.5463,22.5367,7.1692,0.0,0.7606,0.006056,0.358,0.0,13.0,,,,,,3.13643,PASS,
215,s05_vel_pi_leg_cycling,g000026_c5,26,,,,,,0.2471238585155712,0.001992742570244246,0.12839057393589373,,,,,,,8.7197,23.4834,7.1384,0.0,0.7254,0.006067,0.358,0.0,13.0,,,,,,3.04817,PASS,
216,s05_vel_pi_leg_cycling,g000026_c6,26,,,,,,0.22830169117413351,0.0013775089350515446,0.1,,,,,,,8.4781,22.1674,7.0894,0.0,0.752,0.006046,0.358,0.0,13.0,,,,,,3.10381,PASS,
217,s05_vel_pi_leg_cycling,g000026_c7,26,,,,,,0.24215444083853413,0.0013691618890783643,0.10233448036196868,,,,,,,8.6651,23.181,7.1482,0.0,0.7355,0.006066,0.358,0.0,13.0,,,,,,3.07301,PASS,
218,s05_vel_pi_leg_cycling,g000027_c0,27,,,,,,0.4094734258785862,0.001236236281152215,0.1,,,,,,,9.7951,28.6344,7.5407,0.0,0.7061,0.006202,0.358,0.0,13.0,,,,,,3.09781,PASS,
219,s05_vel_pi_leg_cycling,g000027_c1,27,,,,,,0.2843204305064367,0.0012076582473128845,0.1,,,,,,,9.1044,25.4988,7.3005,0.0,0.7148,0.006114,0.358,0.0,13.0,,,,,,3.05484,PASS,
220,s05_vel_pi_leg_cycling,g000027_c2,27,,,,,,0.25145241891047887,0.0014397564481333884,0.11505849553663097,,,,,,,8.7766,23.727,7.1867,0.0,0.7334,0.006077,0.358,0.0,13.0,,,,,,3.07786,PASS,
221,s05_vel_pi_leg_cycling,g000027_c3,27,,,,,,0.2937982411671449,0.0015877200346101808,0.11355134641658009,,,,,,,9.1977,25.9214,7.3938,0.0,0.7292,0.006127,0.358,0.0,13.0,,,,,,3.10737,PASS,
222,s05_vel_pi_leg_cycling,g000027_c4,27,,,,,,0.2048943424427915,0.0013009907734330825,0.1,,,,,,,8.1105,20.5387,7.0013,0.0,0.7737,0.00601,0.358,0.0,13.0,,,,,,3.13215,PASS,
223,s05_vel_pi_leg_cycling,g000027_c5,27,,,,,,0.2063015599268102,0.0018469331105354638,0.10605291360769632,,,,,,,8.1403,20.6881,7.0163,0.0,0.7719,0.00601,0.358,0.0,13.0,,,,,,3.12973,PASS,
224,s05_vel_pi_leg_cycling,g000027_c6,27,,,,,,0.24341723317336061,0.0014123478828131988,0.10263613186017526,,,,,,,8.6737,23.281,7.1993,0.0,0.7461,0.006066,0.358,0.0,13.0,,,,,,3.10567,PASS,
225,s05_vel_pi_leg_cycling,g000027_c7,27,,,,,,0.23945997562823448,0.0013596631640192074,0.11749371449936054,,,,,,,8.6412,23.0181,7.2103,0.0,0.7596,0.006066,0.358,0.0,13.0,,,,,,3.14292,PASS,
226,s05_vel_pi_leg_cycling,g000028_c0,28,,,,,,0.19149720142653065,0.0017209869084302714,0.11686207908258062,,,,,,,7.8467,19.3554,6.821,0.0,0.761,0.005977,0.358,0.0,13.0,,,,,,3.06767,PASS,
227,s05_vel_pi_leg_cycling,g000028_c1,28,,,,,,0.2807571817844192,0.0015398819210977804,0.10318993855984417,,,,,,,9.0864,25.3492,7.309,0.0,0.7214,0.006113,0.358,0.0,13.0,,,,,,3.07284,PASS,
228,s05_vel_pi_leg_cycling,g000028_c2,28,,,,,,0.28053363108968554,0.0015765595823832067,0.11063670127004414,,,,,,,9.0884,25.3374,7.3536,0.0,0.7357,0.006114,0.358,0.0,13.0,,,,,,3.11594,PASS,
229,s05_vel_pi_leg_cycling,g000028_c3,28,,,,,,0.31954955306229227,0.0010656034293141548,0.1,,,,,,,9.3828,26.8159,7.4675,0.0,0.7261,0.00615,0.358,0.0,13.0,,,,,,3.11658,PASS,
230,s05_vel_pi_leg_cycling,g000028_c4,28,,,,,,0.22498745598804998,0.0012960955270695052,0.1,,,,,,,8.4286,21.9211,7.074,0.0,0.7551,0.006042,0.358,0.0,13.0,,,,,,3.10816,PASS,
231,s05_vel_pi_leg_cycling,g000028_c5,28,,,,,,0.21858774748276794,0.0014553533048701369,0.1,,,,,,,8.3337,21.4414,7.0338,0.0,0.7577,0.006031,0.358,0.0,13.0,,,,,,3.10647,PASS,
232,s05_vel_pi_leg_cycling,g000028_c6,28,,,,,,0.295298024126668,0.001536457531015464,0.10985434800657254,,,,,,,9.2109,25.9852,7.3787,0.0,0.7226,0.006128,0.358,0.0,13.0,,,,,,3.08889,PASS,
233,s05_vel_pi_leg_cycling,g000028_c7,28,,,,,,0.23565079023938496,0.0012142400663381855,0.13530448658489883,,,,,,,8.57,22.7005,7.0976,0.0,0.7365,0.006055,0.358,0.0,13.0,,,,,,3.0665,PASS,
234,s05_vel_pi_leg_cycling,g000029_c0,29,,,,,,0.23376543253704243,0.0010784568225783166,0.12637721179438396,,,,,,,8.557,22.6043,7.1449,0.0,0.7533,0.006057,0.358,0.0,13.0,,,,,,3.1156,PASS,
235,s05_vel_pi_leg_cycling,g000029_c1,29,,,,,,0.2561484811573732,0.001132438093654506,0.1311484781503475,,,,,,,8.8301,24.0028,7.2435,0.0,0.745,0.006085,0.358,0.0,13.0,,,,,,3.11801,PASS,
236,s05_vel_pi_leg_cycling,g000029_c2,29,,,,,,0.23050043102905482,0.001668807370177576,0.13337400402805086,,,,,,,8.5107,22.3421,7.0795,0.0,0.7416,0.006048,0.358,0.0,13.0,,,,,,3.07587,PASS,
237,s05_vel_pi_leg_cycling,g000029_c3,29,,,,,,0.44771106135916533,0.0013292060940817848,0.1415377429603309,,,,,,,9.8994,29.043,7.5158,0.0,0.6921,0.006217,0.358,0.0,13.0,,,,,,3.06624,PASS,
238,s05_vel_pi_leg_cycling,g000029_c4,29,,,,,,0.2992168436812098,0.001204192671747645,0.1,,,,,,,9.2381,26.1164,7.3993,0.0,0.7256,0.006132,0.358,0.0,13.0,,,,,,3.10061,PASS,
239,s05_vel_pi_leg_cycling,g000029_c5,29,,,,,,0.21175235910684367,0.001392983738565107,0.10695163372622077,,,,,,,8.2024,20.9175,6.9483,0.0,0.7459,0.006013,0.358,0.0,13.0,,,,,,3.05794,PASS,
240,s05_vel_pi_leg_cycling,g000029_c6,29,,,,,,0.19940553597070412,0.002272447121570729,0.1,,,,,,,8.034,20.149,6.9655,0.0,0.7721,0.006,0.358,0.0,13.0,,,,,,3.1197,PASS,
241,s05_vel_pi_leg_cycling,g000029_c7,29,,,,,,0.32760128354965484,0.0018225727445933843,0.1469482442786264,,,,,,,9.4359,27.0746,7.4222,0.0,0.7062,0.006154,0.358,0.0,13.0,,,,,,3.06219,PASS,
242,s05_vel_pi_leg_cycling,g000030_c0,30,,,,,,0.29409346420598814,0.0018886464052210912,0.12273421169682923,,,,,,,9.2022,25.9372,7.3411,0.0,0.7132,0.006126,0.358,0.0,13.0,,,,,,3.05982,PASS,
243,s05_vel_pi_leg_cycling,g000030_c1,30,,,,,,0.2463707065674486,0.0016120606639189801,0.10482712036500538,,,,,,,8.7249,23.4131,7.2037,0.0,0.7492,0.006072,0.358,0.0,13.0,,,,,,3.12009,PASS,
244,s05_vel_pi_leg_cycling,g000030_c2,30,,,,,,0.23230322414794455,0.0021225263203911594,0.1,,,,,,,8.54,22.5422,7.0999,0.0,0.7369,0.006049,0.358,0.0,13.0,,,,,,3.0647,PASS,
245,s05_vel_pi_leg_cycling,g000030_c3,30,,,,,,0.30146529208432765,0.001493509802694329,0.11736099131509428,,,,,,,9.2472,26.2204,7.3643,0.0,0.7134,0.006131,0.358,0.0,13.0,,,,,,3.06492,PASS,
246,s05_vel_pi_leg_cycling,g000030_c4,30,,,,,,0.22679193896421565,0.0018348419366759074,0.10215177465834253,,,,,,,8.4617,22.1681,7.1188,0.0,0.7528,0.006043,0.358,0.0,13.0,,,,,,3.10457,PASS,
247,s05_vel_pi_leg_cycling,g000030_c5,30,,,,,,0.17836110856797194,0.0017711120531640767,0.1,,,,,,,7.5868,18.3111,6.7278,0.0,0.7727,0.005954,0.358,0.0,13.0,,,,,,3.07678,PASS,
248,s05_vel_pi_leg_cycling,g000030_c6,30,,,,,,0.2173411572804641,0.0017203654972104713,0.15,,,,,,,8.3121,21.4639,7.0299,0.0,0.7502,0.006027,0.358,0.0,13.0,,,,,,3.08181,PASS,
249,s05_vel_pi_leg_cycling,g000030_c7,30,,,,,,0.24346900903094817,0.0013998411875765307,0.1024242349045796,,,,,,,8.6797,23.2182,7.152,0.0,0.7382,0.006067,0.358,0.0,13.0,,,,,,3.08257,PASS,
250,s05_vel_pi_leg_cycling,g000031_c0,31,,,,,,0.26078641151830895,0.001760156213275201,0.11275318659518277,,,,,,,8.8923,24.3026,7.2593,0.0,0.7379,0.00609,0.358,0.0,13.0,,,,,,3.10293,PASS,
251,s05_vel_pi_leg_cycling,g000031_c1,31,,,,,,0.23926800275002838,0.0014430181918105031,0.1060568157408891,,,,,,,8.6304,22.9489,7.1454,0.0,0.7441,0.006062,0.358,0.0,13.0,,,,,,3.09534,PASS,
252,s05_vel_pi_leg_cycling,g000031_c2,31,,,,,,0.25325994691590753,0.0013039146450061169,0.1,,,,,,,8.7858,23.8918,7.1959,0.0,0.7295,0.006077,0.358,0.0,13.0,,,,,,3.06708,PASS,
253,s05_vel_pi_leg_cycling,g000031_c3,31,,,,,,0.285518548812561,0.001520603351519183,0.12075750356026255,,,,,,,9.1298,25.5627,7.346,0.0,0.726,0.006119,0.358,0.0,13.0,,,,,,3.09098,PASS,
254,s05_vel_pi_leg_cycling,g000031_c4,31,,,,,,0.27729363382018973,0.0014190267537374443,0.11109184422564002,,,,,,,9.0343,25.1706,7.2558,0.0,0.7134,0.006104,0.358,0.0,13.0,,,,,,3.04363,PASS,
255,s05_vel_pi_leg_cycling,g000031_c5,31,,,,,,0.22491050441678295,0.001437866995467028,0.10775575947503421,,,,,,,8.4388,22.0074,7.1081,0.0,0.7581,0.006044,0.358,0.0,13.0,,,,,,3.11818,PASS,
256,s05_vel_pi_leg_cycling,g000031_c6,31,,,,,,0.26386054127752584,0.001495953758897642,0.11657663451780627,,,,,,,8.9266,24.5051,7.3221,0.0,0.7484,0.006096,0.358,0.0,13.0,,,,,,3.13786,PASS,
257,s05_vel_pi_leg_cycling,g000031_c7,31,,,,,,0.2164865627045117,0.001830889815787642,0.10338814836748736,,,,,,,8.2943,21.336,6.9971,0.0,0.7445,0.006023,0.358,0.0,13.0,,,,,,3.06293,PASS,
258,s05_vel_pi_leg_cycling,g000032_c0,32,,,,,,0.21336711565504643,0.00127274609356909,0.12507682888646451,,,,,,,8.2258,21.0232,6.957,0.0,0.7451,0.006016,0.358,0.0,13.0,,,,,,3.05788,PASS,
259,s05_vel_pi_leg_cycling,g000032_c1,32,,,,,,0.26945502151323447,0.0015713361849050234,0.10684893947883971,,,,,,,8.9816,24.8085,7.3162,0.0,0.7369,0.006102,0.358,0.0,13.0,,,,,,3.10886,PASS,
260,s05_vel_pi_leg_cycling,g000032_c2,32,,,,,,0.2458820615312734,0.001482701276049127,0.10404907163727452,,,,,,,8.7117,23.3841,7.1624,0.0,0.736,0.00607,0.358,0.0,13.0,,,,,,3.07917,PASS,
261,s05_vel_pi_leg_cycling,g000032_c3,32,,,,,,0.28091491151953213,0.0012854930683588524,0.1,,,,,,,9.0719,25.345,7.2859,0.0,0.7148,0.00611,0.358,0.0,13.0,,,,,,3.05159,PASS,
262,s05_vel_pi_leg_cycling,g000032_c4,32,,,,,,0.3264239014401199,0.0011755106666525355,0.13363122792908733,,,,,,,9.4265,27.0233,7.4884,0.0,0.728,0.006156,0.358,0.0,13.0,,,,,,3.12665,PASS,
263,s05_vel_pi_leg_cycling,g000032_c5,32,,,,,,0.2564578281356102,0.00146752387767589,0.1110027266563127,,,,,,,8.8188,24.0447,7.1707,0.0,0.7207,0.006079,0.358,0.0,13.0,,,,,,3.04398,PASS,
264,s05_vel_pi_leg_cycling,g000032_c6,32,,,,,,0.20230330745656933,0.0014521257908798632,0.11442977485197257,,,,,,,8.0504,20.1916,6.9035,0.0,0.7577,0.006,0.358,0.0,13.0,,,,,,3.07814,PASS,
265,s05_vel_pi_leg_cycling,g000032_c7,32,,,,,,0.26255583177103714,0.0012654098560150456,0.1229181787902115,,,,,,,8.9049,24.3854,7.2726,0.0,0.7406,0.006093,0.358,0.0,13.0,,,,,,3.11229,PASS,
266,s05_vel_pi_leg_cycling,g000033_c0,33,,,,,,0.2911656995861601,0.0014275300171499412,0.1,,,,,,,9.1781,25.8131,7.4058,0.0,0.7343,0.006125,0.358,0.0,13.0,,,,,,3.12071,PASS,
267,s05_vel_pi_leg_cycling,g000033_c1,33,,,,,,0.2591262170054121,0.0015116251013934626,0.10753674781826335,,,,,,,8.8768,24.2403,7.3212,0.0,0.7556,0.006091,0.358,0.0,13.0,,,,,,3.15448,PASS,
268,s05_vel_pi_leg_cycling,g000033_c2,33,,,,,,0.25111344631553423,0.0013091380259978708,0.10953279958535457,,,,,,,8.7575,23.7143,7.1634,0.0,0.7254,0.006073,0.358,0.0,13.0,,,,,,3.05195,PASS,
269,s05_vel_pi_leg_cycling,g000033_c3,33,,,,,,0.2759116551490952,0.0015087327929694321,0.10113696098658707,,,,,,,9.0476,25.1318,7.3822,0.0,0.7482,0.00611,0.358,0.0,13.0,,,,,,3.14936,PASS,
270,s05_vel_pi_leg_cycling,g000033_c4,33,,,,,,0.28984972672847353,0.0015278582861604486,0.11229996268478401,,,,,,,9.1533,25.7533,7.31,0.0,0.7111,0.006119,0.358,0.0,13.0,,,,,,3.04863,PASS,
271,s05_vel_pi_leg_cycling,g000033_c5,33,,,,,,0.2592990491508028,0.0014667738104065086,0.10158008187822416,,,,,,,8.8623,24.2022,7.2059,0.0,0.7253,0.006086,0.358,0.0,13.0,,,,,,3.06213,PASS,
272,s05_vel_pi_leg_cycling,g000033_c6,33,,,,,,0.2800920897489278,0.0014691681068607497,0.10898713550250037,,,,,,,9.0812,25.3279,7.3494,0.0,0.7322,0.006114,0.358,0.0,13.0,,,,,,3.10472,PASS,
273,s05_vel_pi_leg_cycling,g000033_c7,33,,,,,,0.26534328495411114,0.0013903969966102654,0.1,,,,,,,8.92,24.5428,7.2258,0.0,0.72,0.006091,0.358,0.0,13.0,,,,,,3.052,PASS,
274,s05_vel_pi_leg_cycling,g000034_c0,34,,,,,,0.26579875064933944,0.0013060480496783346,0.10621889692431773,,,,,,,8.9364,24.576,7.2539,0.0,0.7281,0.006096,0.358,0.0,13.0,,,,,,3.07794,PASS,
275,s05_vel_pi_leg_cycling,g000034_c1,34,,,,,,0.23243592999613302,0.0012936524154998686,0.1,,,,,,,8.5433,22.5439,7.1683,0.0,0.7606,0.006056,0.358,0.0,13.0,,,,,,3.13613,PASS,
276,s05_vel_pi_leg_cycling,g000034_c2,34,,,,,,0.28801056216122284,0.001460269443176377,0.10038884161854757,,,,,,,9.1354,25.6663,7.2987,0.0,0.7108,0.006117,0.358,0.0,13.0,,,,,,3.04594,PASS,
277,s05_vel_pi_leg_cycling,g000034_c3,34,,,,,,0.2993641691955234,0.0014768089936002162,0.11623422512452324,,,,,,,9.2456,26.1346,7.4193,0.0,0.7315,0.006133,0.358,0.0,13.0,,,,,,3.11906,PASS,
278,s05_vel_pi_leg_cycling,g000034_c4,34,,,,,,0.2488961697172695,0.0013519671686762112,0.1004592557031436,,,,,,,8.7506,23.5726,7.2097,0.0,0.7462,0.006076,0.358,0.0,13.0,,,,,,3.11366,PASS,
279,s05_vel_pi_leg_cycling,g000034_c5,34,,,,,,0.2672788100849703,0.001289741772224522,0.12382445969974488,,,,,,,8.9385,24.6441,7.2333,0.0,0.7195,0.006094,0.358,0.0,13.0,,,,,,3.05235,PASS,
280,s05_vel_pi_leg_cycling,g000034_c6,34,,,,,,0.25103891329374534,0.0014151137669134984,0.12702849854334405,,,,,,,8.7712,23.691,7.1777,0.0,0.7323,0.006077,0.358,0.0,13.0,,,,,,3.07402,PASS,
281,s05_vel_pi_leg_cycling,g000034_c7,34,,,,,,0.30527191222799344,0.0012655151269701619,0.11134251985435271,,,,,,,9.2728,26.3458,7.3508,0.0,0.7075,0.006134,0.358,0.0,13.0,,,,,,3.04978,PASS,
282,s05_vel_pi_leg_cycling,g000035_c0,35,,,,,,0.26105806434906914,0.001451349060479067,0.1173061220072647,,,,,,,8.8857,24.2968,7.2331,0.0,0.7307,0.00609,0.358,0.0,13.0,,,,,,3.08067,PASS,
283,s05_vel_pi_leg_cycling,g000035_c1,35,,,,,,0.2865080820096465,0.001368924543838604,0.10005353849014478,,,,,,,9.1235,25.6126,7.3272,0.0,0.7185,0.006116,0.358,0.0,13.0,,,,,,3.06785,PASS,
284,s05_vel_pi_leg_cycling,g000035_c2,35,,,,,,0.3211684303494097,0.0013390826876684893,0.11397748561828464,,,,,,,9.3886,26.8773,7.4223,0.0,0.7117,0.006148,0.358,0.0,13.0,,,,,,3.07396,PASS,
285,s05_vel_pi_leg_cycling,g000035_c3,35,,,,,,0.2668700304671657,0.0013672509370729006,0.10979799878055851,,,,,,,8.9552,24.6612,7.3099,0.0,0.7406,0.006099,0.358,0.0,13.0,,,,,,3.11732,PASS,
286,s05_vel_pi_leg_cycling,g000035_c4,35,,,,,,0.267853456710592,0.001267904661332204,0.1146512234186736,,,,,,,8.9434,24.6915,7.2334,0.0,0.7184,0.006094,0.358,0.0,13.0,,,,,,3.04954,PASS,
287,s05_vel_pi_leg_cycling,g000035_c5,35,,,,,,0.30684042894336344,0.0014529409470478238,0.10787819025478544,,,,,,,9.2889,26.4087,7.3622,0.0,0.7082,0.006136,0.358,0.0,13.0,,,,,,3.05349,PASS,
288,s05_vel_pi_leg_cycling,g000035_c6,35,,,,,,0.2653064986667871,0.0014495139468016882,0.10387118669180484,,,,,,,8.9295,24.5337,7.2455,0.0,0.7278,0.006094,0.358,0.0,13.0,,,,,,3.07635,PASS,
289,s05_vel_pi_leg_cycling,g000035_c7,35,,,,,,0.2968438920385022,0.0013536351151289077,0.11487960310252356,,,,,,,9.2087,26.0368,7.3547,0.0,0.7158,0.006126,0.358,0.0,13.0,,,,,,3.06827,PASS,
290,s05_vel_pi_leg_cycling,g000036_c0,36,,,,,,0.2920474138755959,0.0012364190078917017,0.11887634959745592,,,,,,,9.1672,25.8459,7.3493,0.0,0.7197,0.006122,0.358,0.0,13.0,,,,,,3.07582,PASS,
291,s05_vel_pi_leg_cycling,g000036_c1,36,,,,,,0.25731235668942953,0.0015088816788039437,0.10704459034198432,,,,,,,8.8339,24.1278,7.1945,0.0,0.7231,0.006081,0.358,0.0,13.0,,,,,,3.05269,PASS,
292,s05_vel_pi_leg_cycling,g000036_c2,36,,,,,,0.25837436358665994,0.0013804109220083203,0.10366771471303725,,,,,,,8.8574,24.1464,7.238,0.0,0.7371,0.006087,0.358,0.0,13.0,,,,,,3.09704,PASS,
293,s05_vel_pi_leg_cycling,g000036_c3,36,,,,,,0.2560106991871596,0.0013726355800398279,0.10515670294186207,,,,,,,8.832,23.9997,7.2365,0.0,0.7414,0.006084,0.358,0.0,13.0,,,,,,3.1074,PASS,
294,s05_vel_pi_leg_cycling,g000036_c4,36,,,,,,0.28097932953299976,0.0013374969990668727,0.11259184743246488,,,,,,,9.0895,25.3575,7.3688,0.0,0.738,0.006115,0.358,0.0,13.0,,,,,,3.12295,PASS,
295,s05_vel_pi_leg_cycling,g000036_c5,36,,,,,,0.2726367872962836,0.0014909859682632621,0.10872718551322909,,,,,,,8.9942,24.9635,7.2719,0.0,0.7214,0.0061,0.358,0.0,13.0,,,,,,3.06362,PASS,
296,s05_vel_pi_leg_cycling,g000036_c6,36,,,,,,0.26260446579845653,0.0015947091597423267,0.11289248155392027,,,,,,,8.9058,24.3935,7.2431,0.0,0.7304,0.006092,0.358,0.0,13.0,,,,,,3.08178,PASS,
297,s05_vel_pi_leg_cycling,g000036_c7,36,,,,,,0.28896766213906766,0.0013311469214130117,0.11672251131890612,,,,,,,9.1599,25.7138,7.4071,0.0,0.7387,0.006124,0.358,0.0,13.0,,,,,,3.13209,PASS,
298,s05_vel_pi_leg_cycling,g000037_c0,37,,,,,,0.271198637700225,0.0014344827210254294,0.11511746778860597,,,,,,,8.9762,24.8678,7.2353,0.0,0.7156,0.006097,0.358,0.0,13.0,,,,,,3.04442,PASS,
299,s05_vel_pi_leg_cycling,g000037_c1,37,,,,,,0.28481360092523406,0.0015248972205954526,0.11663112799781322,,,,,,,9.1229,25.5172,7.3474,0.0,0.7285,0.006118,0.358,0.0,13.0,,,,,,3.09779,PASS,
300,s05_vel_pi_leg_cycling,g000037_c2,37,,,,,,0.2868043105503068,0.001526674061079255,0.11661569044122255,,,,,,,9.1264,25.6163,7.2999,0.0,0.7119,0.006116,0.358,0.0,13.0,,,,,,3.04834,PASS,
301,s05_vel_pi_leg_cycling,g000037_c3,37,,,,,,0.26459738981340847,0.0014106108982275293,0.11771847570696053,,,,,,,8.9105,24.5116,7.2166,0.0,0.7188,0.00609,0.358,0.0,13.0,,,,,,3.04745,PASS,
302,s05_vel_pi_leg_cycling,g000037_c4,37,,,,,,0.2566239927487609,0.0013531407408163274,0.12006341366986448,,,,,,,8.8344,24.05,7.2044,0.0,0.7293,0.006084,0.358,0.0,13.0,,,,,,3.07134,PASS,
303,s05_vel_pi_leg_cycling,g000037_c5,37,,,,,,0.26318934695890983,0.0013393394916040749,0.11593849270991632,,,,,,,8.8971,24.4575,7.2457,0.0,0.7267,0.00609,0.358,0.0,13.0,,,,,,3.06981,PASS,
304,s05_vel_pi_leg_cycling,g000037_c6,37,,,,,,0.29101762507724876,0.0013973304039781099,0.1086589829675641,,,,,,,9.1733,25.7954,7.3426,0.0,0.7187,0.006124,0.358,0.0,13.0,,,,,,3.07343,PASS,
305,s05_vel_pi_leg_cycling,g000037_c7,37,,,,,,0.2559167427495499,0.001384922453336033,0.10553703264779908,,,,,,,8.8346,24.0549,7.2708,0.0,0.7458,0.006086,0.358,0.0,13.0,,,,,,3.12086,PASS,
306,s05_vel_pi_leg_cycling,g000038_c0,38,,,,,,0.27158614772874623,0.0013638276794275758,0.10719247837376188,,,,,,,8.9838,24.9084,7.2849,0.0,0.7258,0.0061,0.358,0.0,13.0,,,,,,3.07578,PASS,
307,s05_vel_pi_leg_cycling,g000038_c1,38,,,,,,0.2810228586519456,0.0015042147920055048,0.1036128033988069,,,,,,,9.0899,25.349,7.3459,0.0,0.7331,0.006114,0.358,0.0,13.0,,,,,,3.10829,PASS,
308,s05_vel_pi_leg_cycling,g000038_c2,38,,,,,,0.285538127908357,0.0013804124934773487,0.10998610229087016,,,,,,,9.114,25.5805,7.3492,0.0,0.7274,0.006115,0.358,0.0,13.0,,,,,,3.0936,PASS,
309,s05_vel_pi_leg_cycling,g000038_c3,38,,,,,,0.2737594973492807,0.001363286943257175,0.11330416130164815,,,,,,,9.0157,25.0161,7.2907,0.0,0.7247,0.006105,0.358,0.0,13.0,,,,,,3.07567,PASS,
310,s05_vel_pi_leg_cycling,g000038_c4,38,,,,,,0.2794722161070238,0.0014918366473264805,0.10730242762913936,,,,,,,9.0796,25.2973,7.3832,0.0,0.744,0.006114,0.358,0.0,13.0,,,,,,3.13996,PASS,
311,s05_vel_pi_leg_cycling,g000038_c5,38,,,,,,0.2726111121721901,0.0014713531204986845,0.10895457148787101,,,,,,,8.9924,24.9265,7.2451,0.0,0.7159,0.006099,0.358,0.0,13.0,,,,,,3.04694,PASS,
312,s05_vel_pi_leg_cycling,g000038_c6,38,,,,,,0.26401051363266426,0.0013889709412867092,0.11389310725396697,,,,,,,8.8982,24.4598,7.2,0.0,0.7177,0.006088,0.358,0.0,13.0,,,,,,3.04292,PASS,
313,s05_vel_pi_leg_cycling,g000038_c7,38,,,,,,0.2861336110339758,0.0013714289666764458,0.107765168027642,,,,,,,9.1311,25.5788,7.3291,0.0,0.7209,0.006119,0.358,0.0,13.0,,,,,,3.07581,PASS,
314,s05_vel_pi_leg_cycling,g000039_c0,39,,,,,,0.2669286919973721,0.0014345613940544375,0.11219770861892361,,,,,,,8.9342,24.676,7.2295,0.0,0.7193,0.006093,0.358,0.0,13.0,,,,,,3.05132,PASS,
315,s05_vel_pi_leg_cycling,g000039_c1,39,,,,,,0.25330024332335493,0.0013815424142698855,0.112253737266852,,,,,,,8.8004,23.8377,7.2238,0.0,0.7429,0.006081,0.358,0.0,13.0,,,,,,3.10874,PASS,
316,s05_vel_pi_leg_cycling,g000039_c2,39,,,,,,0.2618138284237799,0.001405882293498546,0.11557580834314729,,,,,,,8.8816,24.3773,7.2112,0.0,0.7211,0.006087,0.358,0.0,13.0,,,,,,3.05146,PASS,
317,s05_vel_pi_leg_cycling,g000039_c3,39,,,,,,0.26980067091818166,0.0014031020340247243,0.11326480202601674,,,,,,,8.9637,24.7907,7.2352,0.0,0.7167,0.006096,0.358,0.0,13.0,,,,,,3.04647,PASS,
318,s05_vel_pi_leg_cycling,g000039_c4,39,,,,,,0.26890474175549195,0.001376946804677121,0.11250561445588445,,,,,,,8.9653,24.7736,7.2998,0.0,0.733,0.006099,0.358,0.0,13.0,,,,,,3.09553,PASS,
319,s05_vel_pi_leg_cycling,g000039_c5,39,,,,,,0.26459646873698656,0.0014076783950003914,0.1108837516904471,,,,,,,8.9133,24.544,7.2667,0.0,0.7307,0.006092,0.358,0.0,13.0,,,,,,3.08343,PASS,
320,s05_vel_pi_leg_cycling,g000039_c6,39,,,,,,0.28138779029647243,0.0014219863709933613,0.10826824841557041,,,,,,,9.0862,25.372,7.2942,0.0,0.7171,0.006113,0.358,0.0,13.0,,,,,,3.05992,PASS,
321,s05_vel_pi_leg_cycling,g000039_c7,39,,,,,,0.26269167041578756,0.0013719528694640046,0.11869333981270694,,,,,,,8.9107,24.4211,7.2856,0.0,0.7415,0.006094,0.358,0.0,13.0,,,,,,3.11557,PASS,
322,s05_vel_pi_leg_cycling,g000040_c0,40,,,,,,0.2598419256399423,0.0013892030855911246,0.11780807016760987,,,,,,,8.8581,24.2297,7.1976,0.0,0.7213,0.006084,0.358,0.0,13.0,,,,,,3.04971,PASS,
323,s05_vel_pi_leg_cycling,g000040_c1,40,,,,,,0.27192163041707695,0.0014033561184768422,0.11719584787284641,,,,,,,8.984,24.8858,7.2408,0.0,0.7159,0.006098,0.358,0.0,13.0,,,,,,3.0461,PASS,
324,s05_vel_pi_leg_cycling,g000040_c2,40,,,,,,0.27310369656059647,0.0013295621616498546,0.11508689997786935,,,,,,,8.9957,24.9777,7.2675,0.0,0.7202,0.006101,0.358,0.0,13.0,,,,,,3.06017,PASS,
325,s05_vel_pi_leg_cycling,g000040_c3,40,,,,,,0.2612769933341557,0.0013282096162161422,0.1155950651943929,,,,,,,8.8901,24.3092,7.2642,0.0,0.7407,0.006091,0.358,0.0,13.0,,,,,,3.11111,PASS,
326,s05_vel_pi_leg_cycling,g000040_c4,40,,,,,,0.25514212322818525,0.0013883789851125714,0.10856763053283827,,,,,,,8.828,24.0057,7.2649,0.0,0.7457,0.006085,0.358,0.0,13.0,,,,,,3.1199,PASS,
327,s05_vel_pi_leg_cycling,g000040_c5,40,,,,,,0.2630243292718036,0.0014310771530186461,0.11283448169738669,,,,,,,8.9165,24.4566,7.3194,0.0,0.7489,0.006095,0.358,0.0,13.0,,,,,,3.13835,PASS,
328,s05_vel_pi_leg_cycling,g000040_c6,40,,,,,,0.2651657461442866,0.0013177272194589333,0.1182088036293615,,,,,,,8.9177,24.5673,7.255,0.0,0.7273,0.006092,0.358,0.0,13.0,,,,,,3.07367,PASS,
329,s05_vel_pi_leg_cycling,g000040_c7,40,,,,,,0.2603595105836142,0.0013811245762185332,0.11546564057349638,,,,,,,8.8612,24.2599,7.1919,0.0,0.7198,0.006084,0.358,0.0,13.0,,,,,,3.04552,PASS,
330,s05_vel_pi_leg_cycling,g000041_c0,41,,,,,,0.25708180465643704,0.0014017755240104044,0.11206281008321584,,,,,,,8.8448,24.0723,7.2444,0.0,0.7421,0.006086,0.358,0.0,13.0,,,,,,3.11078,PASS,
331,s05_vel_pi_leg_cycling,g000041_c1,41,,,,,,0.2628902493766651,0.001413520581008603,0.11292003906734722,,,,,,,8.9131,24.4492,7.2887,0.0,0.7402,0.006094,0.358,0.0,13.0,,,,,,3.11191,PASS,
332,s05_vel_pi_leg_cycling,g000041_c2,41,,,,,,0.27160620749321257,0.0014149678218285061,0.11677375532077101,,,,,,,8.9979,24.8927,7.286,0.0,0.7283,0.006103,0.358,0.0,13.0,,,,,,3.08469,PASS,
333,s05_vel_pi_leg_cycling,g000041_c3,41,,,,,,0.25517509153278867,0.001428334939027621,0.1135111540869974,,,,,,,8.8032,23.9648,7.1651,0.0,0.7213,0.006077,0.358,0.0,13.0,,,,,,3.04422,PASS,
334,s05_vel_pi_leg_cycling,g000041_c4,41,,,,,,0.2600426596267019,0.0014125336940207054,0.11582847091336021,,,,,,,8.8755,24.2461,7.2448,0.0,0.7359,0.006088,0.358,0.0,13.0,,,,,,3.09525,PASS,
335,s05_vel_pi_leg_cycling,g000041_c5,41,,,,,,0.25352907984571127,0.0013501777972411823,0.11327397296247294,,,,,,,8.7897,23.9058,7.1976,0.0,0.7293,0.006077,0.358,0.0,13.0,,,,,,3.06687,PASS,
