run_id,scenario,label,gen,timestamp,Q_PITCH,Q_PITCH_RATE,Q_VEL,R,KP_V,KI_V,KFF_V,KP_YAW,KI_YAW,LEG_K_S,LEG_B_S,LEG_K_ROLL,LEG_D_ROLL,rms_pitch_deg,max_pitch_deg,wheel_travel_m,wheel_liftoff_s,vel_track_rms_ms,hip_track_rms_rad,hip_cmd_rate_rms,settle_time_s,survived_s,fitness_balance,fitness_disturbance,fitness_drive_slow,fitness_drive_med,fitness_obstacle,fitness,status,fail_reason
1,s04_vel_pi_staircase,evo_seed,0,,,,,,0.0010434243,0.26349501,0.12715073,,,,,,,1.1942,1.9512,0.7432,0.0,0.0774,0.007091,0.0,0.0,3.0,,,,,,200.253442,FAIL,vel error exceeded
2,s04_vel_pi_staircase,g000000_c0,0,,,,,,0.001,0.027151130550505272,0.1,,,,,,,0.3762,0.841,1.0449,0.0,0.204,0.00716,0.0,0.0,3.0,,,,,,200.62021,FAIL,vel error exceeded
3,s04_vel_pi_staircase,g000000_c1,0,,,,,,0.001,1.1883994106255824,0.15,,,,,,,5.9383,12.6189,0.3211,0.0,0.347,0.007233,0.0,0.0,2.15,,,,,,201.288653,FAIL,vel error exceeded
4,s04_vel_pi_staircase,g000000_c2,0,,,,,,0.001,0.8621660072915469,0.15,,,,,,,3.6034,6.3548,0.4437,0.0,0.2684,0.007211,0.0,0.0,2.51,,,,,,200.948337,FAIL,vel error exceeded
5,s04_vel_pi_staircase,g000000_c3,0,,,,,,0.06839735325265021,0.26999233562446023,0.1,,,,,,,1.2007,2.4407,0.7413,0.0,0.1041,0.007095,0.0,0.0,3.0,,,,,,200.348592,FAIL,vel error exceeded
6,s04_vel_pi_staircase,g000000_c4,0,,,,,,0.001,0.1026523969947786,0.15,,,,,,,0.8649,1.8284,0.92,0.0,0.1378,0.007123,0.0,0.0,3.0,,,,,,200.427075,FAIL,vel error exceeded
7,s04_vel_pi_staircase,g000000_c5,0,,,,,,0.002582801791273407,0.20767040495190855,0.15,,,,,,,1.1569,2.1135,0.7907,0.0,0.0849,0.007095,0.0,0.0,3.0,,,,,,200.273007,FAIL,vel error exceeded
8,s04_vel_pi_staircase,g000000_c6,0,,,,,,0.001,0.08686212387534721,0.1,,,,,,,0.786,1.6893,0.9438,0.0,0.1498,0.007129,0.0,0.0,3.0,,,,,,200.462187,FAIL,vel error exceeded
9,s04_vel_pi_staircase,g000000_c7,0,,,,,,0.001,0.554945453750706,0.15,,,,,,,1.5721,3.1561,0.6863,0.0,0.1758,0.007141,0.0,0.0,3.0,,,,,,200.596595,FAIL,vel error exceeded
10,s04_vel_pi_staircase,g000001_c0,1,,,,,,0.001,0.031994184197705895,0.15,,,,,,,0.4158,0.9309,1.0361,0.0,0.1991,0.007157,0.0,0.0,3.0,,,,,,200.605893,FAIL,vel error exceeded
11,s04_vel_pi_staircase,g000001_c1,1,,,,,,0.003570940328039527,1.0839668591525033,0.15,,,,,,,5.1866,10.3889,0.3402,0.0,0.3186,0.007227,0.0,0.0,2.234,,,,,,201.164608,FAIL,vel error exceeded
12,s04_vel_pi_staircase,g000001_c2,1,,,,,,0.006319136926715212,4.946970777424815,0.15,,,,,,,10.5641,20.5382,0.1013,0.0,0.0,0.006321,0.0,13.0,0.796,,,,,,200.535213,FAIL,vel error exceeded
13,s04_vel_pi_staircase,g000001_c3,1,,,,,,0.0055410765853353885,0.037554013523119864,0.1,,,,,,,0.4891,1.087,1.0172,0.0,0.1898,0.007152,0.0,0.0,3.0,,,,,,200.579252,FAIL,vel error exceeded
14,s04_vel_pi_staircase,g000001_c4,1,,,,,,0.18047881702983318,0.3913915690734237,0.1,,,,,,,1.8243,3.6924,0.7258,0.0,0.1411,0.007086,0.0,0.0,3.0,,,,,,200.508322,FAIL,vel error exceeded
15,s04_vel_pi_staircase,g000001_c5,1,,,,,,0.001,0.022542115641882823,0.15,,,,,,,0.3376,0.7502,1.0534,0.0,0.2086,0.007163,0.0,0.0,3.0,,,,,,200.633418,FAIL,vel error exceeded
16,s04_vel_pi_staircase,g000001_c6,1,,,,,,0.001,0.36339276366424994,0.1,,,,,,,1.1891,2.1542,0.6892,0.0,0.0942,0.007096,0.0,0.0,3.0,,,,,,200.31342,FAIL,vel error exceeded
17,s04_vel_pi_staircase,g000001_c7,1,,,,,,0.001,0.05580344283593099,0.10103463820383489,,,,,,,0.5952,1.3147,0.9943,0.0,0.1764,0.007144,0.0,0.0,3.0,,,,,,200.539723,FAIL,vel error exceeded
18,s04_vel_pi_staircase,g000002_c0,2,,,,,,0.001,0.1690237710696098,0.15,,,,,,,1.0929,2.122,0.8325,0.0,0.0983,0.007102,0.0,0.0,3.0,,,,,,200.311568,FAIL,vel error exceeded
19,s04_vel_pi_staircase,g000002_c1,2,,,,,,0.001,0.04943033482277308,0.1,,,,,,,0.5502,1.2183,1.0053,0.0,0.1822,0.007147,0.0,0.0,3.0,,,,,,200.556527,FAIL,vel error exceeded
20,s04_vel_pi_staircase,g000002_c2,2,,,,,,0.001,10.0,0.15,,,,,,,2.6978,7.8398,0.0373,0.0,0.0,0.006303,0.0,13.0,0.298,,,,,,200.657157,FAIL,vel error exceeded
21,s04_vel_pi_staircase,g000002_c3,2,,,,,,0.00659200448755651,0.10202051982545197,0.1,,,,,,,0.8751,1.8473,0.9135,0.0,0.136,0.007122,0.0,0.0,3.0,,,,,,200.42229,FAIL,vel error exceeded
22,s04_vel_pi_staircase,g000002_c4,2,,,,,,0.15155101626054607,0.12907653545701847,0.1,,,,,,,1.3186,2.5779,0.7913,0.0,0.1194,0.007098,0.0,0.0,3.0,,,,,,200.41412,FAIL,vel error exceeded
23,s04_vel_pi_staircase,g000002_c5,2,,,,,,0.001,0.26867233339891816,0.1,,,,,,,1.1952,1.9292,0.7394,0.0,0.0774,0.007091,0.0,0.0,3.0,,,,,,200.253862,FAIL,vel error exceeded
24,s04_vel_pi_staircase,g000002_c6,2,,,,,,0.056038980562432845,0.10326833060653312,0.1,,,,,,,0.9932,2.0914,0.8616,0.0,0.1238,0.007112,0.0,0.0,3.0,,,,,,200.396055,FAIL,vel error exceeded
25,s04_vel_pi_staircase,g000002_c7,2,,,,,,0.001,0.8924607020141903,0.1,,,,,,,3.8302,6.8863,0.4187,0.0,0.2737,0.007213,0.0,0.0,2.46,,,,,,200.971678,FAIL,vel error exceeded
26,s04_vel_pi_staircase,g000003_c0,3,,,,,,0.001,6.379278337941665,0.15,,,,,,,12.8153,24.8076,0.1103,0.0,0.0,0.006179,0.0,13.0,0.724,,,,,,200.709693,FAIL,vel error exceeded
27,s04_vel_pi_staircase,g000003_c1,3,,,,,,0.001,0.15075764576765574,0.1,,,,,,,1.0464,2.0822,0.8547,0.0,0.1073,0.007107,0.0,0.0,3.0,,,,,,200.337793,FAIL,vel error exceeded
28,s04_vel_pi_staircase,g000003_c2,3,,,,,,0.01647154995343707,2.213674730137517,0.15,,,,,,,5.1362,9.2953,0.0851,0.0,0.4803,0.006656,0.0,13.0,1.022,,,,,,201.622408,FAIL,vel error exceeded
29,s04_vel_pi_staircase,g000003_c3,3,,,,,,0.0022465091226720217,3.12508173128346,0.1,,,,,,,7.0716,12.1126,0.1132,0.0,0.7437,0.006516,0.0,13.0,1.002,,,,,,202.500227,FAIL,vel error exceeded
30,s04_vel_pi_staircase,g000003_c4,3,,,,,,0.001,0.7859173474437966,0.15,,,,,,,3.009,5.0639,0.5395,0.0,0.2588,0.007204,0.0,0.0,2.668,,,,,,200.904278,FAIL,vel error exceeded
31,s04_vel_pi_staircase,g000003_c5,3,,,,,,0.11640995220973346,0.2170873823247987,0.1,,,,,,,1.3009,2.7031,0.7601,0.0,0.1126,0.007095,0.0,0.0,3.0,,,,,,200.385687,FAIL,vel error exceeded
32,s04_vel_pi_staircase,g000003_c6,3,,,,,,0.00548728893450108,0.00122609938378683,0.11409831345017124,,,,,,,0.1869,0.386,1.0839,0.0,0.2266,0.007174,0.0,0.0,3.0,,,,,,200.68703,FAIL,vel error exceeded
33,s04_vel_pi_staircase,g000003_c7,3,,,,,,0.002338981528066365,0.8216587242007509,0.14020950997000434,,,,,,,3.2762,5.6266,0.49,0.0,0.2626,0.007208,0.0,0.0,2.586,,,,,,200.922258,FAIL,vel error exceeded
34,s04_vel_pi_staircase,g000004_c0,4,,,,,,0.009057443506672687,4.22028025870583,0.15,,,,,,,8.938,16.3112,0.1043,0.0,0.0,0.006398,0.0,13.0,0.86,,,,,,200.401338,FAIL,vel error exceeded
35,s04_vel_pi_staircase,g000004_c1,4,,,,,,0.001,8.12738154001585,0.15,,,,,,,14.0357,25.5164,0.1182,0.0,0.0,0.006055,0.0,13.0,0.676,,,,,,200.786873,FAIL,vel error exceeded
36,s04_vel_pi_staircase,g000004_c2,4,,,,,,0.0013094059425456145,0.001,0.15,,,,,,,0.1464,0.3066,1.0941,0.0,0.2315,0.007177,0.0,0.0,3.0,,,,,,200.700723,FAIL,vel error exceeded
37,s04_vel_pi_staircase,g000004_c3,4,,,,,,0.001,0.010223907023566618,0.15,,,,,,,0.2285,0.503,1.0769,0.0,0.2217,0.007171,0.0,0.0,3.0,,,,,,200.671792,FAIL,vel error exceeded
38,s04_vel_pi_staircase,g000004_c4,4,,,,,,0.001,0.5196416504647804,0.15,,,,,,,1.4386,2.9746,0.6782,0.0,0.1573,0.00713,0.0,0.0,3.0,,,,,,200.531585,FAIL,vel error exceeded
39,s04_vel_pi_staircase,g000004_c5,4,,,,,,0.001,0.4270269494673189,0.15,,,,,,,1.2261,2.4913,0.6752,0.0,0.1162,0.007107,0.0,0.0,3.0,,,,,,200.388948,FAIL,vel error exceeded
40,s04_vel_pi_staircase,g000004_c6,4,,,,,,0.002962989968006926,3.0998095680105733,0.15,,,,,,,7.0128,12.0246,0.1119,0.0,0.734,0.00652,0.0,13.0,1.002,,,,,,202.467643,FAIL,vel error exceeded
41,s04_vel_pi_staircase,g000004_c7,4,,,,,,0.001,2.0870524124482235,0.15,,,,,,,5.0096,9.2054,0.0881,0.0,0.4545,0.006673,0.0,13.0,1.05,,,,,,201.538877,FAIL,vel error exceeded
42,s04_vel_pi_staircase,g000005_c0,5,,,,,,0.005493754930652952,0.15037721609876292,0.15,,,,,,,1.0446,2.0899,0.8509,0.0,0.1073,0.007107,0.0,0.0,3.0,,,,,,200.338292,FAIL,vel error exceeded
43,s04_vel_pi_staircase,g000005_c1,5,,,,,,0.001,0.18290035353494746,0.1,,,,,,,1.1213,2.1311,0.817,0.0,0.0925,0.0071,0.0,0.0,3.0,,,,,,200.294677,FAIL,vel error exceeded
44,s04_vel_pi_staircase,g000005_c2,5,,,,,,0.001,1.6934754488111825,0.1,,,,,,,4.4559,7.988,0.0977,0.0,0.4134,0.006714,0.0,13.0,1.13,,,,,,201.392658,FAIL,vel error exceeded
45,s04_vel_pi_staircase,g000005_c3,5,,,,,,0.001,0.0717944353679256,0.1,,,,,,,0.698,1.5202,0.9676,0.0,0.1622,0.007136,0.0,0.0,3.0,,,,,,200.498328,FAIL,vel error exceeded
46,s04_vel_pi_staircase,g000005_c4,5,,,,,,0.001,2.8942840456331083,0.15,,,,,,,6.5591,11.4226,0.1015,0.0,0.6517,0.006558,0.0,13.0,1.002,,,,,,202.196217,FAIL,vel error exceeded
47,s04_vel_pi_staircase,g000005_c5,5,,,,,,0.0020718916383404974,0.08639778857216276,0.1,,,,,,,0.7863,1.6906,0.943,0.0,0.1497,0.007129,0.0,0.0,3.0,,,,,,200.46196,FAIL,vel error exceeded
48,s04_vel_pi_staircase,g000005_c6,5,,,,,,0.028086439260051735,0.637681606387867,0.15,,,,,,,1.9334,3.6691,0.7412,0.0,0.2254,0.007154,0.0,0.0,3.0,,,,,,200.778755,FAIL,vel error exceeded
49,s04_vel_pi_staircase,g000005_c7,5,,,,,,0.03120008675745475,0.5652532776465271,0.15,,,,,,,1.5845,3.2015,0.7154,0.0,0.1872,0.007137,0.0,0.0,3.0,,,,,,200.640127,FAIL,vel error exceeded
50,s04_vel_pi_staircase,g000006_c0,6,,,,,,0.001,1.9516374437459596,0.15,,,,,,,4.8245,8.8075,0.0905,0.0,0.4398,0.006687,0.0,13.0,1.074,,,,,,201.485818,FAIL,vel error exceeded
51,s04_vel_pi_staircase,g000006_c1,6,,,,,,0.0010936831624179014,5.819929492679745,0.15,,,,,,,12.2292,24.2788,0.1064,0.0,0.0,0.00623,0.0,13.0,0.746,,,,,,200.672575,FAIL,vel error exceeded
52,s04_vel_pi_staircase,g000006_c2,6,,,,,,0.021164998777736452,0.0029400664219463232,0.15,,,,,,,0.3342,0.7078,1.047,0.0,0.2091,0.007163,0.0,0.0,3.0,,,,,,200.638368,FAIL,vel error exceeded
53,s04_vel_pi_staircase,g000006_c3,6,,,,,,0.015604526308367242,3.1250996339549153,0.15,,,,,,,6.9933,11.8373,0.1151,0.0,0.7607,0.006511,0.0,13.0,1.002,,,,,,202.552963,FAIL,vel error exceeded
54,s04_vel_pi_staircase,g000006_c4,6,,,,,,0.001,0.02711745262009505,0.1,,,,,,,0.3766,0.8423,1.0451,0.0,0.204,0.00716,0.0,0.0,3.0,,,,,,200.619938,FAIL,vel error exceeded
55,s04_vel_pi_staircase,g000006_c5,6,,,,,,0.001,1.2085677849676977,0.1,,,,,,,6.0909,13.0642,0.3196,0.0,0.3532,0.007235,0.0,0.0,2.136,,,,,,201.315483,FAIL,vel error exceeded
56,s04_vel_pi_staircase,g000006_c6,6,,,,,,0.001,6.092724432816995,0.1395286633468847,,,,,,,12.5658,24.574,0.1091,0.0,0.0,0.006202,0.0,13.0,0.736,,,,,,200.691067,FAIL,vel error exceeded
57,s04_vel_pi_staircase,g000006_c7,6,,,,,,0.001,1.851527307294148,0.1,,,,,,,4.6866,8.5069,0.0929,0.0,0.4295,0.006697,0.0,13.0,1.094,,,,,,201.449175,FAIL,vel error exceeded
58,s04_vel_pi_staircase,g000007_c0,7,,,,,,0.0029650387592365336,0.02357250624563542,0.15,,,,,,,0.3614,0.7991,1.0474,0.0,0.2056,0.007161,0.0,0.0,3.0,,,,,,200.624935,FAIL,vel error exceeded
59,s04_vel_pi_staircase,g000007_c1,7,,,,,,0.0014136981095265663,0.15187791425600466,0.1,,,,,,,1.0497,2.0901,0.8528,0.0,0.1067,0.007107,0.0,0.0,3.0,,,,,,200.336157,FAIL,vel error exceeded
60,s04_vel_pi_staircase,g000007_c2,7,,,,,,0.0030314812433396995,5.9792383999923615,0.15,,,,,,,12.4101,24.4461,0.1074,0.0,0.0,0.006214,0.0,13.0,0.738,,,,,,200.684822,FAIL,vel error exceeded
61,s04_vel_pi_staircase,g000007_c3,7,,,,,,0.001,0.3328367213146286,0.15,,,,,,,1.1896,1.988,0.7018,0.0,0.0861,0.007093,0.0,0.0,3.0,,,,,,200.28551,FAIL,vel error exceeded
62,s04_vel_pi_staircase,g000007_c4,7,,,,,,0.001,3.6653216674915194,0.1,,,,,,,7.9965,14.0365,0.1116,0.0,0.0,0.006454,0.0,13.0,0.934,,,,,,200.328782,FAIL,vel error exceeded
63,s04_vel_pi_staircase,g000007_c5,7,,,,,,0.008846321863687213,0.10361123609375346,0.1,,,,,,,0.8859,1.8706,0.9086,0.0,0.1343,0.007121,0.0,0.0,3.0,,,,,,200.417673,FAIL,vel error exceeded
64,s04_vel_pi_staircase,g000007_c6,7,,,,,,0.001,1.3861144962822478,0.15,,,,,,,3.9475,6.8579,0.1144,0.0,0.3947,0.00675,0.0,0.0,1.256,,,,,,201.334512,FAIL,vel error exceeded
65,s04_vel_pi_staircase,g000007_c7,7,,,,,,0.001,0.5688195642994026,0.1,,,,,,,1.6306,3.2256,0.6903,0.0,0.1834,0.007145,0.0,0.0,3.0,,,,,,200.623435,FAIL,vel error exceeded
66,s04_vel_pi_staircase,g000008_c0,8,,,,,,0.001,0.09162468915431826,0.1,,,,,,,0.8108,1.7333,0.9363,0.0,0.1461,0.007127,0.0,0.0,3.0,,,,,,200.451362,FAIL,vel error exceeded
67,s04_vel_pi_staircase,g000008_c1,8,,,,,,0.001572372052191703,5.7133665502448565,0.15,,,,,,,12.1301,24.1193,0.1062,0.0,0.0,0.006238,0.0,13.0,0.752,,,,,,200.663133,FAIL,vel error exceeded
68,s04_vel_pi_staircase,g000008_c2,8,,,,,,0.001,0.059986202564669466,0.1,,,,,,,0.6229,1.3726,0.9871,0.0,0.1726,0.007142,0.0,0.0,3.0,,,,,,200.528803,FAIL,vel error exceeded
69,s04_vel_pi_staircase,g000008_c3,8,,,,,,0.0041027601151378814,0.0014987647291745065,0.15,,,,,,,0.1772,0.3717,1.0866,0.0,0.2278,0.007174,0.0,0.0,3.0,,,,,,200.69027,FAIL,vel error exceeded
70,s04_vel_pi_staircase,g000008_c4,8,,,,,,0.0035806287049907886,4.55210303593361,0.15,,,,,,,9.6497,18.164,0.1024,0.0,0.0,0.006366,0.0,13.0,0.83,,,,,,200.457108,FAIL,vel error exceeded
71,s04_vel_pi_staircase,g000008_c5,8,,,,,,0.064414455021578,0.6977631264061874,0.13837960851423292,,,,,,,2.4779,6.512,0.7817,0.0,0.2487,0.00714,0.0,0.0,3.0,,,,,,200.877018,FAIL,vel error exceeded
72,s04_vel_pi_staircase,g000008_c6,8,,,,,,0.001,0.2126584439121395,0.15,,,,,,,1.1628,2.1027,0.7863,0.0,0.0834,0.007095,0.0,0.0,3.0,,,,,,200.268622,FAIL,vel error exceeded
73,s04_vel_pi_staircase,g000008_c7,8,,,,,,0.001,1.8886251972826766,0.15,,,,,,,4.7371,8.6366,0.0917,0.0,0.4317,0.006694,0.0,13.0,1.084,,,,,,201.458025,FAIL,vel error exceeded
74,s04_vel_pi_staircase,g000009_c0,9,,,,,,0.001,3.5841519337973353,0.1,,,,,,,7.8753,13.7312,0.1137,0.0,0.0,0.006461,0.0,13.0,0.948,,,,,,200.320395,FAIL,vel error exceeded
75,s04_vel_pi_staircase,g000009_c1,9,,,,,,0.0784948350530688,1.2476447939156194,0.11705924138087058,,,,,,,5.6101,11.0476,0.3051,0.0,0.3537,0.007237,0.0,0.0,2.002,,,,,,201.31674,FAIL,vel error exceeded
76,s04_vel_pi_staircase,g000009_c2,9,,,,,,0.001,10.0,0.1,,,,,,,2.6349,7.6538,0.0366,0.0,0.0,0.006295,0.0,13.0,0.296,,,,,,200.645842,FAIL,vel error exceeded
77,s04_vel_pi_staircase,g000009_c3,9,,,,,,0.0034032021370925874,8.73004814636144,0.15,,,,,,,3.3935,9.6729,0.0454,0.0,0.0,0.006405,0.0,13.0,0.344,,,,,,200.686378,FAIL,vel error exceeded
78,s04_vel_pi_staircase,g000009_c4,9,,,,,,0.001,0.001,0.15,,,,,,,0.1431,0.3022,1.0954,0.0,0.2321,0.007177,0.0,0.0,3.0,,,,,,200.702527,FAIL,vel error exceeded
79,s04_vel_pi_staircase,g000009_c5,9,,,,,,0.001,0.026544656528291206,0.15,,,,,,,0.3714,0.8313,1.0463,0.0,0.2047,0.00716,0.0,0.0,3.0,,,,,,200.622118,FAIL,vel error exceeded
80,s04_vel_pi_staircase,g000009_c6,9,,,,,,0.001581494074747811,0.05836818511227317,0.15,,,,,,,0.6158,1.3587,0.9891,0.0,0.1737,0.007142,0.0,0.0,3.0,,,,,,200.531903,FAIL,vel error exceeded
81,s04_vel_pi_staircase,g000009_c7,9,,,,,,0.001,0.04772028502459484,0.1,,,,,,,0.5371,1.1937,1.0081,0.0,0.1839,0.007148,0.0,0.0,3.0,,,,,,200.561538,FAIL,vel error exceeded
82,s04_vel_pi_staircase,g000010_c0,10,,,,,,0.007318670832991385,0.3260637670717951,0.15,,,,,,,1.1783,1.9498,0.7068,0.0,0.088,0.007093,0.0,0.0,3.0,,,,,,200.291368,FAIL,vel error exceeded
83,s04_vel_pi_staircase,g000010_c1,10,,,,,,0.001,0.40404866305243226,0.15,,,,,,,1.205,2.3741,0.6783,0.0,0.1076,0.007103,0.0,0.0,3.0,,,,,,200.359418,FAIL,vel error exceeded
84,s04_vel_pi_staircase,g000010_c2,10,,,,,,0.0027517689138224213,2.671740745509806,0.15,,,,,,,6.0411,10.7168,0.0927,0.0,0.5712,0.006595,0.0,13.0,1.002,,,,,,201.932785,FAIL,vel error exceeded
85,s04_vel_pi_staircase,g000010_c3,10,,,,,,0.004352976973415188,0.12330738958304052,0.1,,,,,,,0.9584,1.9778,0.8869,0.0,0.1227,0.007115,0.0,0.0,3.0,,,,,,200.383222,FAIL,vel error exceeded
86,s04_vel_pi_staircase,g000010_c4,10,,,,,,0.018152947805647326,0.7347498233313073,0.15,,,,,,,2.5639,5.3308,0.7879,0.0,0.2863,0.007182,0.0,0.0,3.0,,,,,,201.00277,FAIL,vel error exceeded
87,s04_vel_pi_staircase,g000010_c5,10,,,,,,0.007316020400053615,0.10783024472917788,0.15,,,,,,,0.9017,1.8936,0.9039,0.0,0.1316,0.007119,0.0,0.0,3.0,,,,,,200.409543,FAIL,vel error exceeded
88,s04_vel_pi_staircase,g000010_c6,10,,,,,,0.001,0.5180945062424084,0.15,,,,,,,1.4344,2.9695,0.6776,0.0,0.1564,0.00713,0.0,0.0,3.0,,,,,,200.528448,FAIL,vel error exceeded
89,s04_vel_pi_staircase,g000010_c7,10,,,,,,0.001,0.0328098274695185,0.1,,,,,,,0.4227,0.9458,1.0347,0.0,0.1983,0.007157,0.0,0.0,3.0,,,,,,200.603525,FAIL,vel error exceeded
90,s04_vel_pi_staircase,g000011_c0,11,,,,,,0.003494238560542983,0.12369730226570098,0.15,,,,,,,0.9587,1.9771,0.887,0.0,0.1225,0.007115,0.0,0.0,3.0,,,,,,200.382542,FAIL,vel error exceeded
91,s04_vel_pi_staircase,g000011_c1,11,,,,,,0.001,0.11497373091766569,0.15,,,,,,,0.9197,1.9151,0.9019,0.0,0.129,0.007118,0.0,0.0,3.0,,,,,,200.401385,FAIL,vel error exceeded
92,s04_vel_pi_staircase,g000011_c2,11,,,,,,0.0027298817323191354,0.03485951393750754,0.15,,,,,,,0.4502,1.0091,1.0276,0.0,0.1948,0.007155,0.0,0.0,3.0,,,,,,200.593568,FAIL,vel error exceeded
93,s04_vel_pi_staircase,g000011_c3,11,,,,,,0.001,0.049747943505036134,0.1,,,,,,,0.5522,1.2238,1.0046,0.0,0.1819,0.007147,0.0,0.0,3.0,,,,,,200.555785,FAIL,vel error exceeded
94,s04_vel_pi_staircase,g000011_c4,11,,,,,,0.001,0.15452639225719103,0.15,,,,,,,1.0561,2.0935,0.8499,0.0,0.1054,0.007106,0.0,0.0,3.0,,,,,,200.33225,FAIL,vel error exceeded
95,s04_vel_pi_staircase,g000011_c5,11,,,,,,0.0010986213100366805,0.48843632079380533,0.15,,,,,,,1.3462,2.8169,0.6739,0.0,0.1424,0.007122,0.0,0.0,3.0,,,,,,200.479595,FAIL,vel error exceeded
96,s04_vel_pi_staircase,g000011_c6,11,,,,,,0.002101502840276771,1.7679382522502536,0.15,,,,,,,4.5607,8.2108,0.0951,0.0,0.4222,0.006705,0.0,13.0,1.112,,,,,,201.422458,FAIL,vel error exceeded
97,s04_vel_pi_staircase,g000011_c7,11,,,,,,0.001,0.009321753910206843,0.10428027031082235,,,,,,,0.2198,0.4848,1.0787,0.0,0.2228,0.007171,0.0,0.0,3.0,,,,,,200.675007,FAIL,vel error exceeded
98,s04_vel_pi_staircase,g000012_c0,12,,,,,,0.001,0.7766260583354548,0.14239244467549403,,,,,,,2.9295,4.9022,0.5544,0.0,0.2578,0.007203,0.0,0.0,2.692,,,,,,200.899702,FAIL,vel error exceeded
99,s04_vel_pi_staircase,g000012_c1,12,,,,,,0.001,0.017716296148908964,0.1,,,,,,,0.2957,0.6572,1.0626,0.0,0.2137,0.007166,0.0,0.0,3.0,,,,,,200.64826,FAIL,vel error exceeded
100,s04_vel_pi_staircase,g000012_c2,12,,,,,,0.0022696814476198405,0.3156599040336844,0.13636882572713083,,,,,,,1.1887,1.8919,0.7104,0.0,0.0834,0.007092,0.0,0.0,3.0,,,,,,200.275863,FAIL,vel error exceeded
101,s04_vel_pi_staircase,g000012_c3,12,,,,,,0.001,0.9331167067102307,0.15,,,,,,,4.1329,7.6193,0.3936,0.0,0.2822,0.007216,0.0,0.0,2.402,,,,,,201.008313,FAIL,vel error exceeded
102,s04_vel_pi_staircase,g000012_c4,12,,,,,,0.0015439990626363747,0.27867827866878453,0.1,,,,,,,1.1947,1.8883,0.7326,0.0,0.0781,0.00709,0.0,0.0,3.0,,,,,,200.256695,FAIL,vel error exceeded
103,s04_vel_pi_staircase,g000012_c5,12,,,,,,0.001,0.47419911082352173,0.14177779604439011,,,,,,,1.3108,2.7451,0.673,0.0,0.1358,0.007118,0.0,0.0,3.0,,,,,,200.45673,FAIL,vel error exceeded
104,s04_vel_pi_staircase,g000012_c6,12,,,,,,0.0024099521191540763,0.05016763073008365,0.1,,,,,,,0.5627,1.2456,1.0012,0.0,0.1804,0.007146,0.0,0.0,3.0,,,,,,200.551483,FAIL,vel error exceeded
105,s04_vel_pi_staircase,g000012_c7,12,,,,,,0.001,1.5224069628327315,0.12780074454579654,,,,,,,4.1919,7.3666,0.1058,0.0,0.4014,0.006732,0.0,0.0,1.188,,,,,,201.351967,FAIL,vel error exceeded
106,s04_vel_pi_staircase,g000013_c0,13,,,,,,0.001,0.9106195633147004,0.1,,,,,,,3.9676,7.21,0.4089,0.0,0.278,0.007216,0.0,0.0,2.436,,,,,,200.989577,FAIL,vel error exceeded
107,s04_vel_pi_staircase,g000013_c1,13,,,,,,0.001136308445833915,0.12995211296372897,0.1,,,,,,,0.9792,2.0046,0.8814,0.0,0.1193,0.007113,0.0,0.0,3.0,,,,,,200.37292,FAIL,vel error exceeded
108,s04_vel_pi_staircase,g000013_c2,13,,,,,,0.001,0.08570186254701027,0.15,,,,,,,0.7793,1.6763,0.9453,0.0,0.1507,0.00713,0.0,0.0,3.0,,,,,,200.464763,FAIL,vel error exceeded
109,s04_vel_pi_staircase,g000013_c3,13,,,,,,0.017438696172930895,0.1904439989817924,0.15,,,,,,,1.1235,2.1624,0.8002,0.0,0.0926,0.007098,0.0,0.0,3.0,,,,,,200.297382,FAIL,vel error exceeded
110,s04_vel_pi_staircase,g000013_c4,13,,,,,,0.001,0.18383163638018477,0.1,,,,,,,1.1231,2.1348,0.8164,0.0,0.0923,0.007099,0.0,0.0,3.0,,,,,,200.294193,FAIL,vel error exceeded
111,s04_vel_pi_staircase,g000013_c5,13,,,,,,0.0011376035616569957,0.22177239626799794,0.15,,,,,,,1.1743,2.0905,0.7778,0.0,0.0813,0.007094,0.0,0.0,3.0,,,,,,200.262777,FAIL,vel error exceeded
112,s04_vel_pi_staircase,g000013_c6,13,,,,,,0.001,0.2157588809337654,0.15,,,,,,,1.168,2.1016,0.7836,0.0,0.0825,0.007094,0.0,0.0,3.0,,,,,,200.266023,FAIL,vel error exceeded
113,s04_vel_pi_staircase,g000013_c7,13,,,,,,0.0023001485378029833,0.9629761032157885,0.11997343672094174,,,,,,,4.3368,8.1254,0.3802,0.0,0.289,0.007219,0.0,0.0,2.364,,,,,,201.037132,FAIL,vel error exceeded
114,s04_vel_pi_staircase,g000014_c0,14,,,,,,0.003189372927289183,0.36075265635872206,0.15,,,,,,,1.1831,2.1339,0.6917,0.0,0.0946,0.007096,0.0,0.0,3.0,,,,,,200.314592,FAIL,vel error exceeded
115,s04_vel_pi_staircase,g000014_c1,14,,,,,,0.001,0.03640271692548955,0.11125223827195484,,,,,,,0.4515,1.0072,1.0281,0.0,0.1947,0.007155,0.0,0.0,3.0,,,,,,200.593075,FAIL,vel error exceeded
116,s04_vel_pi_staircase,g000014_c2,14,,,,,,0.001,0.17068217812832906,0.1,,,,,,,1.0967,2.123,0.8307,0.0,0.0976,0.007102,0.0,0.0,3.0,,,,,,200.309525,FAIL,vel error exceeded
117,s04_vel_pi_staircase,g000014_c3,14,,,,,,0.001,0.2325882678228344,0.15,,,,,,,1.1814,2.0611,0.7682,0.0,0.0795,0.007093,0.0,0.0,3.0,,,,,,200.257958,FAIL,vel error exceeded
118,s04_vel_pi_staircase,g000014_c4,14,,,,,,0.003579996169820227,0.20196169677323728,0.1,,,,,,,1.1502,2.134,0.7962,0.0,0.0867,0.007096,0.0,0.0,3.0,,,,,,200.278368,FAIL,vel error exceeded
119,s04_vel_pi_staircase,g000014_c5,14,,,,,,0.001,0.08868943295302262,0.1,,,,,,,0.7945,1.7029,0.941,0.0,0.1485,0.007128,0.0,0.0,3.0,,,,,,200.45834,FAIL,vel error exceeded
120,s04_vel_pi_staircase,g000014_c6,14,,,,,,0.001,0.18494172472229872,0.15,,,,,,,1.1246,2.1267,0.8149,0.0,0.0918,0.007099,0.0,0.0,3.0,,,,,,200.292677,FAIL,vel error exceeded
121,s04_vel_pi_staircase,g000014_c7,14,,,,,,0.001,0.21468381663140437,0.15,,,,,,,1.1664,2.1051,0.7845,0.0,0.0829,0.007094,0.0,0.0,3.0,,,,,,200.267213,FAIL,vel error exceeded
122,s04_vel_pi_staircase,g000015_c0,15,,,,,,0.0027819564445857067,0.4015354039417201,0.1,,,,,,,1.2014,2.3581,0.6799,0.0,0.1074,0.007102,0.0,0.0,3.0,,,,,,200.35868,FAIL,vel error exceeded
123,s04_vel_pi_staircase,g000015_c1,15,,,,,,0.001,0.3340490223088791,0.15,,,,,,,1.1898,1.9964,0.701,0.0,0.0864,0.007093,0.0,0.0,3.0,,,,,,200.286618,FAIL,vel error exceeded
124,s04_vel_pi_staircase,g000015_c2,15,,,,,,0.001,1.3560694632491084,0.15,,,,,,,3.8852,6.738,0.1172,0.0,0.3948,0.006754,0.0,0.0,1.278,,,,,,201.337462,FAIL,vel error exceeded
125,s04_vel_pi_staircase,g000015_c3,15,,,,,,0.0035083780269636734,0.3562549012971904,0.1,,,,,,,1.184,2.115,0.693,0.0,0.0934,0.007096,0.0,0.0,3.0,,,,,,200.310532,FAIL,vel error exceeded
126,s04_vel_pi_staircase,g000015_c4,15,,,,,,0.001,0.29267529900504385,0.1,,,,,,,1.1946,1.8204,0.7234,0.0,0.0792,0.007091,0.0,0.0,3.0,,,,,,200.26105,FAIL,vel error exceeded
127,s04_vel_pi_staircase,g000015_c5,15,,,,,,0.001,0.1534056593375313,0.1,,,,,,,1.0534,2.0902,0.8513,0.0,0.1059,0.007106,0.0,0.0,3.0,,,,,,200.333705,FAIL,vel error exceeded
128,s04_vel_pi_staircase,g000015_c6,15,,,,,,0.001,0.2350858889463885,0.1,,,,,,,1.1817,2.0532,0.766,0.0,0.0794,0.007092,0.0,0.0,3.0,,,,,,200.257822,FAIL,vel error exceeded
129,s04_vel_pi_staircase,g000015_c7,15,,,,,,0.001,0.2393284298935237,0.1,,,,,,,1.1875,2.0421,0.7625,0.0,0.0785,0.007092,0.0,0.0,3.0,,,,,,200.25527,FAIL,vel error exceeded
130,s04_vel_pi_staircase,g000016_c0,16,,,,,,0.0013375014173091543,0.22610121326015817,0.15,,,,,,,1.1763,2.0785,0.7739,0.0,0.0806,0.007093,0.0,0.0,3.0,,,,,,200.260902,FAIL,vel error exceeded
131,s04_vel_pi_staircase,g000016_c1,16,,,,,,0.0012234458110783907,0.2445963310121842,0.12709978823855397,,,,,,,1.1887,2.0285,0.758,0.0,0.0783,0.007092,0.0,0.0,3.0,,,,,,200.255042,FAIL,vel error exceeded
132,s04_vel_pi_staircase,g000016_c2,16,,,,,,0.0010598083250015517,0.12044490800238401,0.15,,,,,,,0.9434,1.9507,0.8941,0.0,0.1252,0.007116,0.0,0.0,3.0,,,,,,200.390202,FAIL,vel error exceeded
133,s04_vel_pi_staircase,g000016_c3,16,,,,,,0.0012745629818269844,0.7447811093502609,0.13031073404117707,,,,,,,2.6614,4.3771,0.6263,0.0,0.2597,0.007199,0.0,0.0,2.802,,,,,,200.903073,FAIL,vel error exceeded
134,s04_vel_pi_staircase,g000016_c4,16,,,,,,0.001,0.3928384368870493,0.1,,,,,,,1.1981,2.3147,0.6809,0.0,0.1037,0.007101,0.0,0.0,3.0,,,,,,200.346082,FAIL,vel error exceeded
135,s04_vel_pi_staircase,g000016_c5,16,,,,,,0.001861726610602144,0.37211070030649995,0.15,,,,,,,1.189,2.2005,0.6868,0.0,0.0973,0.007097,0.0,0.0,3.0,,,,,,200.323992,FAIL,vel error exceeded
136,s04_vel_pi_staircase,g000016_c6,16,,,,,,0.001,0.21268495917517635,0.1,,,,,,,1.1658,2.1072,0.7866,0.0,0.0832,0.007095,0.0,0.0,3.0,,,,,,200.267997,FAIL,vel error exceeded
137,s04_vel_pi_staircase,g000016_c7,16,,,,,,0.002369040464634829,0.1534602458482942,0.15,,,,,,,1.0548,2.095,0.8503,0.0,0.1058,0.007106,0.0,0.0,3.0,,,,,,200.333513,FAIL,vel error exceeded
138,s04_vel_pi_staircase,g000017_c0,17,,,,,,0.001,0.2443940325855035,0.15,,,,,,,1.1869,2.0193,0.758,0.0,0.0783,0.007092,0.0,0.0,3.0,,,,,,200.255052,FAIL,vel error exceeded
139,s04_vel_pi_staircase,g000017_c1,17,,,,,,0.001,0.3315766170206816,0.15,,,,,,,1.1896,1.9794,0.7023,0.0,0.0858,0.007093,0.0,0.0,3.0,,,,,,200.284492,FAIL,vel error exceeded
140,s04_vel_pi_staircase,g000017_c2,17,,,,,,0.0012959378992184179,0.17408235500854685,0.10372482752862826,,,,,,,1.105,2.1291,0.8268,0.0,0.0961,0.007101,0.0,0.0,3.0,,,,,,200.305123,FAIL,vel error exceeded
141,s04_vel_pi_staircase,g000017_c3,17,,,,,,0.001,0.6297898010102413,0.14293578285092465,,,,,,,1.9302,3.533,0.7145,0.0,0.2195,0.007164,0.0,0.0,3.0,,,,,,200.752223,FAIL,vel error exceeded
142,s04_vel_pi_staircase,g000017_c4,17,,,,,,0.0015788878755638607,0.1660919104236063,0.15,,,,,,,1.0866,2.1216,0.8356,0.0,0.0997,0.007103,0.0,0.0,3.0,,,,,,200.315655,FAIL,vel error exceeded
143,s04_vel_pi_staircase,g000017_c5,17,,,,,,0.001,0.5724764395301946,0.10834753398567416,,,,,,,1.6474,3.2458,0.6914,0.0,0.1854,0.007146,0.0,0.0,3.0,,,,,,200.630537,FAIL,vel error exceeded
144,s04_vel_pi_staircase,g000017_c6,17,,,,,,0.001467667413580012,0.15561600186189017,0.15,,,,,,,1.0618,2.1016,0.8482,0.0,0.1046,0.007106,0.0,0.0,3.0,,,,,,200.329987,FAIL,vel error exceeded
145,s04_vel_pi_staircase,g000017_c7,17,,,,,,0.001,0.35704958169628204,0.15,,,,,,,1.1873,2.1204,0.6917,0.0,0.0926,0.007095,0.0,0.0,3.0,,,,,,200.307895,FAIL,vel error exceeded
146,s04_vel_pi_staircase,g000018_c0,18,,,,,,0.001064168208991966,0.14420004926231164,0.1231766525935881,,,,,,,1.0257,2.0579,0.8625,0.0,0.1109,0.007109,0.0,0.0,3.0,,,,,,200.348347,FAIL,vel error exceeded
147,s04_vel_pi_staircase,g000018_c1,18,,,,,,0.001,0.26285601289115784,0.15,,,,,,,1.1951,1.955,0.7437,0.0,0.0773,0.007091,0.0,0.0,3.0,,,,,,200.253155,FAIL,vel error exceeded
148,s04_vel_pi_staircase,g000018_c2,18,,,,,,0.001,0.26059567709620024,0.10144102458117546,,,,,,,1.194,1.9677,0.7457,0.0,0.0774,0.007091,0.0,0.0,3.0,,,,,,200.253265,FAIL,vel error exceeded
149,s04_vel_pi_staircase,g000018_c3,18,,,,,,0.001,0.23483031244698832,0.10207703522594741,,,,,,,1.1822,2.0528,0.7661,0.0,0.0793,0.007092,0.0,0.0,3.0,,,,,,200.25748,FAIL,vel error exceeded
150,s04_vel_pi_staircase,g000018_c4,18,,,,,,0.001553546675010759,0.2769025755058043,0.15,,,,,,,1.1937,1.8998,0.7338,0.0,0.0783,0.007091,0.0,0.0,3.0,,,,,,200.257263,FAIL,vel error exceeded
151,s04_vel_pi_staircase,g000018_c5,18,,,,,,0.0011750852810349347,0.3526708617081514,0.11016026171455409,,,,,,,1.1869,2.0937,0.6935,0.0,0.0914,0.007095,0.0,0.0,3.0,,,,,,200.303767,FAIL,vel error exceeded
152,s04_vel_pi_staircase,g000018_c6,18,,,,,,0.0013771674174683079,0.10223220939265514,0.13576137932059995,,,,,,,0.8646,1.8294,0.9204,0.0,0.1381,0.007123,0.0,0.0,3.0,,,,,,200.428015,FAIL,vel error exceeded
153,s04_vel_pi_staircase,g000018_c7,18,,,,,,0.0012087091826816193,0.24367509094826514,0.11886692198739866,,,,,,,1.1868,2.0267,0.7589,0.0,0.0785,0.007092,0.0,0.0,3.0,,,,,,200.255568,FAIL,vel error exceeded
154,s04_vel_pi_staircase,g000019_c0,19,,,,,,0.0016363725093370624,0.23067329191688896,0.15,,,,,,,1.1799,2.0646,0.7696,0.0,0.08,0.007093,0.0,0.0,3.0,,,,,,200.259445,FAIL,vel error exceeded
155,s04_vel_pi_staircase,g000019_c1,19,,,,,,0.0016572431245558327,0.3247338356004775,0.14002680116293972,,,,,,,1.1895,1.9444,0.7056,0.0,0.0847,0.007092,0.0,0.0,3.0,,,,,,200.28057,FAIL,vel error exceeded
156,s04_vel_pi_staircase,g000019_c2,19,,,,,,0.0010314241691626374,0.21192057506068263,0.15,,,,,,,1.1636,2.1114,0.7875,0.0,0.0836,0.007095,0.0,0.0,3.0,,,,,,200.269232,FAIL,vel error exceeded
157,s04_vel_pi_staircase,g000019_c3,19,,,,,,0.001,0.1806646961636848,0.1,,,,,,,1.1181,2.1326,0.8194,0.0,0.0933,0.0071,0.0,0.0,3.0,,,,,,200.297018,FAIL,vel error exceeded
158,s04_vel_pi_staircase,g000019_c4,19,,,,,,0.001,0.4582650132649695,0.1,,,,,,,1.2756,2.656,0.6728,0.0,0.1287,0.007114,0.0,0.0,3.0,,,,,,200.43209,FAIL,vel error exceeded
159,s04_vel_pi_staircase,g000019_c5,19,,,,,,0.001522636207199561,0.2300294924226536,0.11079248274181994,,,,,,,1.1787,2.0669,0.7704,0.0,0.0801,0.007093,0.0,0.0,3.0,,,,,,200.259565,FAIL,vel error exceeded
160,s04_vel_pi_staircase,g000019_c6,19,,,,,,0.0011340851983288195,0.21855079903833305,0.1,,,,,,,1.1711,2.1009,0.781,0.0,0.082,0.007094,0.0,0.0,3.0,,,,,,200.264797,FAIL,vel error exceeded
161,s04_vel_pi_staircase,g000019_c7,19,,,,,,0.001,0.18631454174786244,0.15,,,,,,,1.128,2.1332,0.8134,0.0,0.0912,0.007099,0.0,0.0,3.0,,,,,,200.290903,FAIL,vel error exceeded
162,s04_vel_pi_staircase,g000020_c0,20,,,,,,0.0013822949032107864,0.2859650806610801,0.12408672050464527,,,,,,,1.1936,1.8533,0.7277,0.0,0.0787,0.007091,0.0,0.0,3.0,,,,,,200.258998,FAIL,vel error exceeded
163,s04_vel_pi_staircase,g000020_c1,20,,,,,,0.00169417738609537,0.20187591929271348,0.11696559678142865,,,,,,,1.151,2.1212,0.7966,0.0,0.0862,0.007096,0.0,0.0,3.0,,,,,,200.276585,FAIL,vel error exceeded
164,s04_vel_pi_staircase,g000020_c2,20,,,,,,0.001486711796090022,0.3601338653591122,0.12647752203579346,,,,,,,1.1889,2.1365,0.6906,0.0,0.0934,0.007096,0.0,0.0,3.0,,,,,,200.310743,FAIL,vel error exceeded
165,s04_vel_pi_staircase,g000020_c3,20,,,,,,0.0012787192418233823,0.48144936948489825,0.10594244541615962,,,,,,,1.327,2.7823,0.6736,0.0,0.1391,0.00712,0.0,0.0,3.0,,,,,,200.468177,FAIL,vel error exceeded
166,s04_vel_pi_staircase,g000020_c4,20,,,,,,0.0013361775213139079,0.3760963515551669,0.10338147088311377,,,,,,,1.1902,2.2209,0.6856,0.0,0.0983,0.007098,0.0,0.0,3.0,,,,,,200.327455,FAIL,vel error exceeded
167,s04_vel_pi_staircase,g000020_c5,20,,,,,,0.0014682831125253414,0.21395953833410952,0.10380747134522043,,,,,,,1.1646,2.1039,0.785,0.0,0.0831,0.007095,0.0,0.0,3.0,,,,,,200.267848,FAIL,vel error exceeded
168,s04_vel_pi_staircase,g000020_c6,20,,,,,,0.0010192423985898283,0.3043925010317206,0.11119877789701291,,,,,,,1.1933,1.8338,0.7164,0.0,0.0808,0.007091,0.0,0.0,3.0,,,,,,200.266868,FAIL,vel error exceeded
169,s04_vel_pi_staircase,g000020_c7,20,,,,,,0.001489467491548329,0.26272215643999036,0.1,,,,,,,1.1941,1.9579,0.7438,0.0,0.0775,0.007091,0.0,0.0,3.0,,,,,,200.25379,FAIL,vel error exceeded
170,s04_vel_pi_staircase,g000021_c0,21,,,,,,0.001,0.26700875122931705,0.11372916394553252,,,,,,,1.1946,1.9382,0.7408,0.0,0.0775,0.007091,0.0,0.0,3.0,,,,,,200.254002,FAIL,vel error exceeded
171,s04_vel_pi_staircase,g000021_c1,21,,,,,,0.0011720497124005937,0.2897429601363501,0.14746098646396386,,,,,,,1.1951,1.8335,0.7251,0.0,0.0789,0.007091,0.0,0.0,3.0,,,,,,200.259962,FAIL,vel error exceeded
172,s04_vel_pi_staircase,g000021_c2,21,,,,,,0.0011843970110866646,0.32189834506878884,0.1,,,,,,,1.1896,1.9278,0.707,0.0,0.0841,0.007092,0.0,0.0,3.0,,,,,,200.278493,FAIL,vel error exceeded
173,s04_vel_pi_staircase,g000021_c3,21,,,,,,0.00108962385599765,0.23960555837585684,0.1181913574871659,,,,,,,1.1858,2.0403,0.7621,0.0,0.0787,0.007092,0.0,0.0,3.0,,,,,,200.2559,FAIL,vel error exceeded
174,s04_vel_pi_staircase,g000021_c4,21,,,,,,0.0012451718335191933,0.27551907868499825,0.11439526066294833,,,,,,,1.1957,1.8994,0.7345,0.0,0.0778,0.00709,0.0,0.0,3.0,,,,,,200.255573,FAIL,vel error exceeded
175,s04_vel_pi_staircase,g000021_c5,21,,,,,,0.0013363349290197862,0.2658569881733046,0.12951033057964492,,,,,,,1.1938,1.9416,0.7414,0.0,0.0775,0.007091,0.0,0.0,3.0,,,,,,200.253935,FAIL,vel error exceeded
176,s04_vel_pi_staircase,g000021_c6,21,,,,,,0.001,0.19310694158966177,0.13266265810280498,,,,,,,1.1388,2.1267,0.806,0.0,0.0888,0.007098,0.0,0.0,3.0,,,,,,200.283917,FAIL,vel error exceeded
177,s04_vel_pi_staircase,g000021_c7,21,,,,,,0.001649712137437483,0.26256286264497813,0.10907906368546536,,,,,,,1.1934,1.9546,0.7438,0.0,0.0776,0.007091,0.0,0.0,3.0,,,,,,200.25409,FAIL,vel error exceeded
178,s04_vel_pi_staircase,g000022_c0,22,,,,,,0.0010614731578326908,0.29169370757415924,0.14919401549671477,,,,,,,1.1969,1.8204,0.7238,0.0,0.0788,0.00709,0.0,0.0,3.0,,,,,,200.259768,FAIL,vel error exceeded
179,s04_vel_pi_staircase,g000022_c1,22,,,,,,0.0013981997692331832,0.25570329005766673,0.10528598682468189,,,,,,,1.1918,1.9872,0.7492,0.0,0.0777,0.007091,0.0,0.0,3.0,,,,,,200.253975,FAIL,vel error exceeded
180,s04_vel_pi_staircase,g000022_c2,22,,,,,,0.0010554045581606865,0.268347163388089,0.15,,,,,,,1.1941,1.9274,0.7396,0.0,0.0775,0.007091,0.0,0.0,3.0,,,,,,200.254063,FAIL,vel error exceeded
181,s04_vel_pi_staircase,g000022_c3,22,,,,,,0.0013861365975254367,0.2351205434465362,0.15,,,,,,,1.1829,2.0572,0.7657,0.0,0.0793,0.007092,0.0,0.0,3.0,,,,,,200.25755,FAIL,vel error exceeded
182,s04_vel_pi_staircase,g000022_c4,22,,,,,,0.001099068471198234,0.27994404626935987,0.1134305630440362,,,,,,,1.1959,1.8813,0.7317,0.0,0.078,0.00709,0.0,0.0,3.0,,,,,,200.256453,FAIL,vel error exceeded
183,s04_vel_pi_staircase,g000022_c5,22,,,,,,0.00103087596985091,0.1921306634025618,0.10816886099492422,,,,,,,1.1374,2.1314,0.807,0.0,0.0892,0.007098,0.0,0.0,3.0,,,,,,200.28516,FAIL,vel error exceeded
184,s04_vel_pi_staircase,g000022_c6,22,,,,,,0.001,0.3532595981156103,0.15,,,,,,,1.1874,2.0968,0.6933,0.0,0.0915,0.007095,0.0,0.0,3.0,,,,,,200.304123,FAIL,vel error exceeded
185,s04_vel_pi_staircase,g000022_c7,22,,,,,,0.001,0.29133043774413775,0.14412864078500986,,,,,,,1.196,1.8303,0.7244,0.0,0.0789,0.00709,0.0,0.0,3.0,,,,,,200.260102,FAIL,vel error exceeded
186,s04_vel_pi_staircase,g000023_c0,23,,,,,,0.001013574341623273,0.17039069979941787,0.12924344667788637,,,,,,,1.0955,2.1217,0.8312,0.0,0.0978,0.007102,0.0,0.0,3.0,,,,,,200.31009,FAIL,vel error exceeded
187,s04_vel_pi_staircase,g000023_c1,23,,,,,,0.001134579316633172,0.21664146350146443,0.15,,,,,,,1.1675,2.1009,0.7826,0.0,0.0826,0.007094,0.0,0.0,3.0,,,,,,200.266482,FAIL,vel error exceeded
188,s04_vel_pi_staircase,g000023_c2,23,,,,,,0.0010689349290664424,0.3374692527596557,0.14896154211359278,,,,,,,1.1886,2.0143,0.6996,0.0,0.0874,0.007093,0.0,0.0,3.0,,,,,,200.290025,FAIL,vel error exceeded
189,s04_vel_pi_staircase,g000023_c3,23,,,,,,0.0010640788267923063,0.26882577541598296,0.14189800066335082,,,,,,,1.1938,1.9303,0.7395,0.0,0.0777,0.007091,0.0,0.0,3.0,,,,,,200.254732,FAIL,vel error exceeded
190,s04_vel_pi_staircase,g000023_c4,23,,,,,,0.001,0.23264589716571127,0.12144580433739181,,,,,,,1.1815,2.0603,0.7681,0.0,0.0795,0.007093,0.0,0.0,3.0,,,,,,200.257958,FAIL,vel error exceeded
191,s04_vel_pi_staircase,g000023_c5,23,,,,,,0.0013035655613739265,0.2650771674475479,0.1245212514242354,,,,,,,1.1931,1.9474,0.7421,0.0,0.0777,0.007091,0.0,0.0,3.0,,,,,,200.25458,FAIL,vel error exceeded
192,s04_vel_pi_staircase,g000023_c6,23,,,,,,0.0011312717959186835,0.28491351004031695,0.1349044975904656,,,,,,,1.1956,1.8601,0.7285,0.0,0.0784,0.00709,0.0,0.0,3.0,,,,,,200.258008,FAIL,vel error exceeded
193,s04_vel_pi_staircase,g000023_c7,23,,,,,,0.0011483621439965306,0.2812376088206847,0.14916856535162654,,,,,,,1.1954,1.8711,0.7305,0.0,0.0781,0.00709,0.0,0.0,3.0,,,,,,200.256872,FAIL,vel error exceeded
194,s04_vel_pi_staircase,g000024_c0,24,,,,,,0.0012442789134364809,0.266441732493261,0.1303146480600981,,,,,,,1.1937,1.9374,0.7411,0.0,0.0775,0.007091,0.0,0.0,3.0,,,,,,200.253975,FAIL,vel error exceeded
195,s04_vel_pi_staircase,g000024_c1,24,,,,,,0.001,0.25697379989427466,0.1152904879599761,,,,,,,1.1927,1.9796,0.7482,0.0,0.0775,0.007091,0.0,0.0,3.0,,,,,,200.253375,FAIL,vel error exceeded
196,s04_vel_pi_staircase,g000024_c2,24,,,,,,0.0011898198070645072,0.25069306476154724,0.11982467111625214,,,,,,,1.1902,2.0025,0.753,0.0,0.0778,0.007091,0.0,0.0,3.0,,,,,,200.253812,FAIL,vel error exceeded
197,s04_vel_pi_staircase,g000024_c3,24,,,,,,0.001071496906813904,0.28106126368332507,0.12438635559498987,,,,,,,1.1961,1.871,0.7308,0.0,0.078,0.00709,0.0,0.0,3.0,,,,,,200.256527,FAIL,vel error exceeded
198,s04_vel_pi_staircase,g000024_c4,24,,,,,,0.0010551553152733889,0.33495829383513087,0.10563541419407867,,,,,,,1.1896,1.9984,0.7008,0.0,0.0866,0.007093,0.0,0.0,3.0,,,,,,200.287262,FAIL,vel error exceeded
199,s04_vel_pi_staircase,g000024_c5,24,,,,,,0.001029982836953748,0.2520452140399932,0.11659849227797253,,,,,,,1.1909,1.9976,0.7521,0.0,0.0778,0.007091,0.0,0.0,3.0,,,,,,200.253913,FAIL,vel error exceeded
200,s04_vel_pi_staircase,g000024_c6,24,,,,,,0.001162724893613081,0.21814346966613224,0.12537217039775467,,,,,,,1.1698,2.1006,0.7813,0.0,0.0822,0.007094,0.0,0.0,3.0,,,,,,200.265345,FAIL,vel error exceeded
201,s04_vel_pi_staircase,g000024_c7,24,,,,,,0.0010296989210357456,0.2520461031812041,0.1270862854859957,,,,,,,1.1909,1.9956,0.7519,0.0,0.0777,0.007091,0.0,0.0,3.0,,,,,,200.253668,FAIL,vel error exceeded
202,s04_vel_pi_staircase,g000025_c0,25,,,,,,0.001,0.22725606654657718,0.13784934340468452,,,,,,,1.1787,2.0766,0.7731,0.0,0.0803,0.007093,0.0,0.0,3.0,,,,,,200.260003,FAIL,vel error exceeded
203,s04_vel_pi_staircase,g000025_c1,25,,,,,,0.0010873587775633332,0.22328516989794134,0.12561679494814287,,,,,,,1.174,2.0854,0.7766,0.0,0.0812,0.007093,0.0,0.0,3.0,,,,,,200.262612,FAIL,vel error exceeded
204,s04_vel_pi_staircase,g000025_c2,25,,,,,,0.001144840471677719,0.29134781735632986,0.10546505706762617,,,,,,,1.1943,1.824,0.7243,0.0,0.0792,0.007091,0.0,0.0,3.0,,,,,,200.26103,FAIL,vel error exceeded
205,s04_vel_pi_staircase,g000025_c3,25,,,,,,0.0010553293739894226,0.25992210798370646,0.13212403290644867,,,,,,,1.1938,1.9758,0.7463,0.0,0.0774,0.007091,0.0,0.0,3.0,,,,,,200.253172,FAIL,vel error exceeded
206,s04_vel_pi_staircase,g000025_c4,25,,,,,,0.0010508778001231248,0.25121715590253846,0.11434480525845343,,,,,,,1.1911,1.9997,0.7527,0.0,0.0777,0.007091,0.0,0.0,3.0,,,,,,200.253637,FAIL,vel error exceeded
207,s04_vel_pi_staircase,g000025_c5,25,,,,,,0.0010590813580345292,0.27098428407470465,0.13507827441872886,,,,,,,1.195,1.9246,0.738,0.0,0.0777,0.00709,0.0,0.0,3.0,,,,,,200.254852,FAIL,vel error exceeded
208,s04_vel_pi_staircase,g000025_c6,25,,,,,,0.0010865684746987445,0.3203317732452998,0.14490332499192296,,,,,,,1.191,1.9179,0.708,0.0,0.0835,0.007092,0.0,0.0,3.0,,,,,,200.27646,FAIL,vel error exceeded
209,s04_vel_pi_staircase,g000025_c7,25,,,,,,0.0010971686331995732,0.22251401602816712,0.13941473644040658,,,,,,,1.175,2.0897,0.7773,0.0,0.0811,0.007093,0.0,0.0,3.0,,,,,,200.262237,FAIL,vel error exceeded
210,s04_vel_pi_staircase,g000026_c0,26,,,,,,0.0010174599177343439,0.2394889601403518,0.11247672887556505,,,,,,,1.1859,2.0404,0.7624,0.0,0.0787,0.007092,0.0,0.0,3.0,,,,,,200.255937,FAIL,vel error exceeded
211,s04_vel_pi_staircase,g000026_c1,26,,,,,,0.001008137703923401,0.26845767565706624,0.11927688228626573,,,,,,,1.1957,1.9308,0.7395,0.0,0.0774,0.007091,0.0,0.0,3.0,,,,,,200.25381,FAIL,vel error exceeded
212,s04_vel_pi_staircase,g000026_c2,26,,,,,,0.001,0.2732555398903549,0.12565720137516342,,,,,,,1.1946,1.9086,0.7363,0.0,0.0777,0.007091,0.0,0.0,3.0,,,,,,200.255002,FAIL,vel error exceeded
213,s04_vel_pi_staircase,g000026_c3,26,,,,,,0.0010065939407170538,0.28566318318512285,0.12062086396379297,,,,,,,1.1948,1.8506,0.7279,0.0,0.0786,0.007091,0.0,0.0,3.0,,,,,,200.258745,FAIL,vel error exceeded
214,s04_vel_pi_staircase,g000026_c4,26,,,,,,0.0012140153094492836,0.24992620278300373,0.12902169844568162,,,,,,,1.1897,2.0053,0.7538,0.0,0.0779,0.007091,0.0,0.0,3.0,,,,,,200.2541,FAIL,vel error exceeded
215,s04_vel_pi_staircase,g000026_c5,26,,,,,,0.001,0.24719970603240168,0.13596204001898243,,,,,,,1.1903,2.0142,0.756,0.0,0.0779,0.007091,0.0,0.0,3.0,,,,,,200.2539,FAIL,vel error exceeded
216,s04_vel_pi_staircase,g000026_c6,26,,,,,,0.0010018924260233974,0.272861475831678,0.12254240256104988,,,,,,,1.1965,1.9112,0.7365,0.0,0.0775,0.00709,0.0,0.0,3.0,,,,,,200.254402,FAIL,vel error exceeded
217,s04_vel_pi_staircase,g000026_c7,26,,,,,,0.0011146110577996693,0.24060587776017248,0.12794889913412402,,,,,,,1.1863,2.0328,0.7612,0.0,0.0786,0.007092,0.0,0.0,3.0,,,,,,200.255715,FAIL,vel error exceeded
218,s04_vel_pi_staircase,g000027_c0,27,,,,,,0.0010707082697077588,0.27449079057137793,0.1290414412159313,,,,,,,1.1955,1.9049,0.7353,0.0,0.0777,0.00709,0.0,0.0,3.0,,,,,,200.255215,FAIL,vel error exceeded
219,s04_vel_pi_staircase,g000027_c1,27,,,,,,0.0011279695928175487,0.29458604970056734,0.1118785449155897,,,,,,,1.1946,1.8068,0.7221,0.0,0.0794,0.007091,0.0,0.0,3.0,,,,,,200.261807,FAIL,vel error exceeded
220,s04_vel_pi_staircase,g000027_c2,27,,,,,,0.0010010566579294702,0.27490348732780123,0.12724820836608006,,,,,,,1.1949,1.9018,0.735,0.0,0.0778,0.00709,0.0,0.0,3.0,,,,,,200.255495,FAIL,vel error exceeded
221,s04_vel_pi_staircase,g000027_c3,27,,,,,,0.0010614580497576823,0.22814044998622407,0.13143209500954753,,,,,,,1.1777,2.0694,0.772,0.0,0.0802,0.007093,0.0,0.0,3.0,,,,,,200.259808,FAIL,vel error exceeded
222,s04_vel_pi_staircase,g000027_c4,27,,,,,,0.0011370818749557325,0.2939521727017345,0.1427540913118829,,,,,,,1.1939,1.814,0.7228,0.0,0.0794,0.007091,0.0,0.0,3.0,,,,,,200.261735,FAIL,vel error exceeded
223,s04_vel_pi_staircase,g000027_c5,27,,,,,,0.0011038018074405003,0.28684510015010833,0.13024438223773205,,,,,,,1.1971,1.8509,0.727,0.0,0.0784,0.00709,0.0,0.0,3.0,,,,,,200.25816,FAIL,vel error exceeded
224,s04_vel_pi_staircase,g000027_c6,27,,,,,,0.0010265124024837616,0.2878270865095941,0.1166254892238713,,,,,,,1.195,1.8443,0.7266,0.0,0.0787,0.00709,0.0,0.0,3.0,,,,,,200.259133,FAIL,vel error exceeded
225,s04_vel_pi_staircase,g000027_c7,27,,,,,,0.001001061911145022,0.27477318526773425,0.1288985209742359,,,,,,,1.1951,1.904,0.7353,0.0,0.0777,0.00709,0.0,0.0,3.0,,,,,,200.255145,FAIL,vel error exceeded
226,s04_vel_pi_staircase,g000028_c0,28,,,,,,0.0011502720705059977,0.26579080098283314,0.12539374778776127,,,,,,,1.1945,1.9379,0.7412,0.0,0.0775,0.007091,0.0,0.0,3.0,,,,,,200.253982,FAIL,vel error exceeded
227,s04_vel_pi_staircase,g000028_c1,28,,,,,,0.001,0.26175295368521795,0.12426968924306205,,,,,,,1.1945,1.9568,0.7447,0.0,0.0773,0.007091,0.0,0.0,3.0,,,,,,200.253002,FAIL,vel error exceeded
228,s04_vel_pi_staircase,g000028_c2,28,,,,,,0.001,0.3018716133624206,0.12077679078197386,,,,,,,1.1943,1.8223,0.7177,0.0,0.0804,0.007091,0.0,0.0,3.0,,,,,,200.26548,FAIL,vel error exceeded
229,s04_vel_pi_staircase,g000028_c3,28,,,,,,0.0011686116886723316,0.27849945324789993,0.1098754614985503,,,,,,,1.1953,1.8845,0.7325,0.0,0.078,0.00709,0.0,0.0,3.0,,,,,,200.256425,FAIL,vel error exceeded
230,s04_vel_pi_staircase,g000028_c4,28,,,,,,0.0010908193961756615,0.25116863526786815,0.13680927215950459,,,,,,,1.1901,1.9971,0.7527,0.0,0.0778,0.007091,0.0,0.0,3.0,,,,,,200.253868,FAIL,vel error exceeded
231,s04_vel_pi_staircase,g000028_c5,28,,,,,,0.0010015425733859082,0.24457071067636874,0.12707672547419102,,,,,,,1.1881,2.0205,0.758,0.0,0.0782,0.007092,0.0,0.0,3.0,,,,,,200.254623,FAIL,vel error exceeded
232,s04_vel_pi_staircase,g000028_c6,28,,,,,,0.0011390417802657183,0.27602193622112847,0.1165839376021102,,,,,,,1.1943,1.896,0.7343,0.0,0.0779,0.007091,0.0,0.0,3.0,,,,,,200.255873,FAIL,vel error exceeded
233,s04_vel_pi_staircase,g000028_c7,28,,,,,,0.0011167260867236885,0.26352440989053433,0.1341183497490796,,,,,,,1.193,1.9523,0.7433,0.0,0.0776,0.007091,0.0,0.0,3.0,,,,,,200.25404,FAIL,vel error exceeded
234,s04_vel_pi_staircase,g000029_c0,29,,,,,,0.0010257292103260794,0.2720171747823287,0.1287910119942955,,,,,,,1.1947,1.9115,0.737,0.0,0.0776,0.00709,0.0,0.0,3.0,,,,,,200.254608,FAIL,vel error exceeded
235,s04_vel_pi_staircase,g000029_c1,29,,,,,,0.001077824627385985,0.28313829408180274,0.1306698123418969,,,,,,,1.1948,1.8618,0.7294,0.0,0.0783,0.00709,0.0,0.0,3.0,,,,,,200.257582,FAIL,vel error exceeded
236,s04_vel_pi_staircase,g000029_c2,29,,,,,,0.0010586008606333086,0.2546175340851744,0.1168397624150414,,,,,,,1.1916,1.9886,0.7501,0.0,0.0776,0.007091,0.0,0.0,3.0,,,,,,200.253453,FAIL,vel error exceeded
237,s04_vel_pi_staircase,g000029_c3,29,,,,,,0.001,0.2572053112107277,0.13236976032591358,,,,,,,1.1942,1.9776,0.748,0.0,0.0774,0.007091,0.0,0.0,3.0,,,,,,200.25309,FAIL,vel error exceeded
238,s04_vel_pi_staircase,g000029_c4,29,,,,,,0.0010041689176651474,0.2470451870250463,0.13582395446647502,,,,,,,1.1904,2.0148,0.7559,0.0,0.0779,0.007091,0.0,0.0,3.0,,,,,,200.253927,FAIL,vel error exceeded
239,s04_vel_pi_staircase,g000029_c5,29,,,,,,0.0010799167005729852,0.25356325122259576,0.12962656531864528,,,,,,,1.1914,1.9887,0.7509,0.0,0.0776,0.007091,0.0,0.0,3.0,,,,,,200.253407,FAIL,vel error exceeded
240,s04_vel_pi_staircase,g000029_c6,29,,,,,,0.001122818212800302,0.2727782944043094,0.13014300577376317,,,,,,,1.1952,1.9108,0.7365,0.0,0.0777,0.00709,0.0,0.0,3.0,,,,,,200.255035,FAIL,vel error exceeded
241,s04_vel_pi_staircase,g000029_c7,29,,,,,,0.0010524524756689562,0.26599914174521444,0.13306939468411194,,,,,,,1.1954,1.9439,0.7414,0.0,0.0774,0.007091,0.0,0.0,3.0,,,,,,200.25364,FAIL,vel error exceeded
242,s04_vel_pi_staircase,g000030_c0,30,,,,,,0.001,0.26947477127965036,0.12631356486008613,,,,,,,1.1951,1.9296,0.7391,0.0,0.0775,0.007091,0.0,0.0,3.0,,,,,,200.25414,FAIL,vel error exceeded
243,s04_vel_pi_staircase,g000030_c1,30,,,,,,0.0010016278148509983,0.2700057369475952,0.12305406640782343,,,,,,,1.196,1.9214,0.7383,0.0,0.0774,0.00709,0.0,0.0,3.0,,,,,,200.253933,FAIL,vel error exceeded
244,s04_vel_pi_staircase,g000030_c2,30,,,,,,0.00102952957998674,0.26713596037917503,0.1291292680910506,,,,,,,1.1936,1.9401,0.7407,0.0,0.0776,0.007091,0.0,0.0,3.0,,,,,,200.254325,FAIL,vel error exceeded
245,s04_vel_pi_staircase,g000030_c3,30,,,,,,0.0010331365425924526,0.2511123986008012,0.13245757524719629,,,,,,,1.1899,2.0013,0.7529,0.0,0.0779,0.007091,0.0,0.0,3.0,,,,,,200.254237,FAIL,vel error exceeded
246,s04_vel_pi_staircase,g000030_c4,30,,,,,,0.0010079774134795101,0.2749984112026924,0.1258154527743131,,,,,,,1.1964,1.9048,0.7351,0.0,0.0776,0.00709,0.0,0.0,3.0,,,,,,200.254885,FAIL,vel error exceeded
247,s04_vel_pi_staircase,g000030_c5,30,,,,,,0.0010805632845292392,0.27143543872390835,0.12038352823883332,,,,,,,1.195,1.9192,0.7376,0.0,0.0777,0.00709,0.0,0.0,3.0,,,,,,200.25497,FAIL,vel error exceeded
248,s04_vel_pi_staircase,g000030_c6,30,,,,,,0.0010386250066450244,0.2592811249678348,0.12717768127765242,,,,,,,1.1926,1.9644,0.7464,0.0,0.0775,0.007091,0.0,0.0,3.0,,,,,,200.253475,FAIL,vel error exceeded
249,s04_vel_pi_staircase,g000030_c7,30,,,,,,0.0010714381065335045,0.2542887327216109,0.12839864387327996,,,,,,,1.1934,1.992,0.7502,0.0,0.0774,0.007091,0.0,0.0,3.0,,,,,,200.252818,FAIL,vel error exceeded
250,s04_vel_pi_staircase,g000031_c0,31,,,,,,0.00101918259780491,0.26718580024489463,0.12857519412754476,,,,,,,1.1944,1.937,0.7406,0.0,0.0775,0.007091,0.0,0.0,3.0,,,,,,200.25405,FAIL,vel error exceeded
251,s04_vel_pi_staircase,g000031_c1,31,,,,,,0.0010450422386713723,0.25690516124377805,0.1279023255557795,,,,,,,1.1928,1.9772,0.7482,0.0,0.0775,0.007091,0.0,0.0,3.0,,,,,,200.253342,FAIL,vel error exceeded
252,s04_vel_pi_staircase,g000031_c2,31,,,,,,0.0010296844444888942,0.2535044323617229,0.1287625357364851,,,,,,,1.193,1.9918,0.7509,0.0,0.0776,0.007091,0.0,0.0,3.0,,,,,,200.253432,FAIL,vel error exceeded
253,s04_vel_pi_staircase,g000031_c3,31,,,,,,0.001102603619202194,0.2625947727402831,0.12094987470133686,,,,,,,1.195,1.9614,0.7441,0.0,0.0774,0.007091,0.0,0.0,3.0,,,,,,200.253458,FAIL,vel error exceeded
254,s04_vel_pi_staircase,g000031_c4,31,,,,,,0.0010399932684223726,0.2641234711234229,0.13391689441054,,,,,,,1.1944,1.9523,0.7429,0.0,0.0774,0.007091,0.0,0.0,3.0,,,,,,200.253518,FAIL,vel error exceeded
255,s04_vel_pi_staircase,g000031_c5,31,,,,,,0.001,0.2547343339110693,0.12437217745781977,,,,,,,1.1955,1.9848,0.75,0.0,0.0772,0.007091,0.0,0.0,3.0,,,,,,200.25226,FAIL,vel error exceeded
256,s04_vel_pi_staircase,g000031_c6,31,,,,,,0.001022248536384439,0.2722788436931197,0.1213403646963769,,,,,,,1.1948,1.9152,0.737,0.0,0.0776,0.00709,0.0,0.0,3.0,,,,,,200.25464,FAIL,vel error exceeded
257,s04_vel_pi_staircase,g000031_c7,31,,,,,,0.0010646369196569657,0.2556086951824941,0.12697446152490485,,,,,,,1.1929,1.9843,0.7493,0.0,0.0775,0.007091,0.0,0.0,3.0,,,,,,200.253272,FAIL,vel error exceeded
258,s04_vel_pi_staircase,g000032_c0,32,,,,,,0.0010432397386822144,0.2648970444288474,0.12897131922675875,,,,,,,1.1939,1.9452,0.7423,0.0,0.0775,0.007091,0.0,0.0,3.0,,,,,,200.253845,FAIL,vel error exceeded
259,s04_vel_pi_staircase,g000032_c1,32,,,,,,0.0010768482539298923,0.25952394014556096,0.12852186681545555,,,,,,,1.1918,1.9671,0.7461,0.0,0.0777,0.007091,0.0,0.0,3.0,,,,,,200.254145,FAIL,vel error exceeded
260,s04_vel_pi_staircase,g000032_c2,32,,,,,,0.0010653139857648463,0.2712802676367226,0.1314481674602574,,,,,,,1.1957,1.9155,0.7375,0.0,0.0775,0.00709,0.0,0.0,3.0,,,,,,200.254348,FAIL,vel error exceeded
261,s04_vel_pi_staircase,g000032_c3,32,,,,,,0.001021968670785344,0.2631946120964112,0.1288160339692841,,,,,,,1.1945,1.9501,0.7435,0.0,0.0774,0.007091,0.0,0.0,3.0,,,,,,200.253453,FAIL,vel error exceeded
262,s04_vel_pi_staircase,g000032_c4,32,,,,,,0.0010519869900106917,0.25740685461617574,0.1282410500408334,,,,,,,1.1917,1.9764,0.7477,0.0,0.0777,0.007091,0.0,0.0,3.0,,,,,,200.254063,FAIL,vel error exceeded
263,s04_vel_pi_staircase,g000032_c5,32,,,,,,0.0010643827084612044,0.25306353054553643,0.1326904138836452,,,,,,,1.1916,1.9927,0.7511,0.0,0.0776,0.007091,0.0,0.0,3.0,,,,,,200.253425,FAIL,vel error exceeded
264,s04_vel_pi_staircase,g000032_c6,32,,,,,,0.0010294279993408766,0.26463995850358146,0.12729066988913196,,,,,,,1.1965,1.946,0.7423,0.0,0.0771,0.00709,0.0,0.0,3.0,,,,,,200.252602,FAIL,vel error exceeded
265,s04_vel_pi_staircase,g000032_c7,32,,,,,,0.0010648624788439256,0.2669595892283125,0.1231926819774872,,,,,,,1.1935,1.9337,0.7406,0.0,0.0775,0.007091,0.0,0.0,3.0,,,,,,200.253942,FAIL,vel error exceeded
266,s04_vel_pi_staircase,g000033_c0,33,,,,,,0.0010334418178337419,0.26427411089668934,0.13245639768158335,,,,,,,1.1945,1.95,0.7428,0.0,0.0775,0.007091,0.0,0.0,3.0,,,,,,200.253823,FAIL,vel error exceeded
267,s04_vel_pi_staircase,g000033_c1,33,,,,,,0.0010422089231565451,0.2750175302145122,0.12651052693870543,,,,,,,1.1952,1.9009,0.735,0.0,0.0777,0.00709,0.0,0.0,3.0,,,,,,200.255182,FAIL,vel error exceeded
268,s04_vel_pi_staircase,g000033_c2,33,,,,,,0.0010203313768478077,0.26694058856796177,0.12524267487143956,,,,,,,1.194,1.9314,0.7406,0.0,0.0775,0.007091,0.0,0.0,3.0,,,,,,200.253997,FAIL,vel error exceeded
269,s04_vel_pi_staircase,g000033_c3,33,,,,,,0.0010377938036209204,0.263695615089929,0.1277488301152223,,,,,,,1.1953,1.9543,0.7433,0.0,0.0773,0.007091,0.0,0.0,3.0,,,,,,200.253152,FAIL,vel error exceeded
270,s04_vel_pi_staircase,g000033_c4,33,,,,,,0.001005841656480115,0.272730057230373,0.12433138889738252,,,,,,,1.1959,1.9122,0.7366,0.0,0.0775,0.00709,0.0,0.0,3.0,,,,,,200.254375,FAIL,vel error exceeded
271,s04_vel_pi_staircase,g000033_c5,33,,,,,,0.001013690248007258,0.26647726278644307,0.12397222090815746,,,,,,,1.1948,1.9413,0.7412,0.0,0.0775,0.007091,0.0,0.0,3.0,,,,,,200.253997,FAIL,vel error exceeded
272,s04_vel_pi_staircase,g000033_c6,33,,,,,,0.0010613779413326462,0.2642345291894712,0.12597037932723526,,,,,,,1.1948,1.9469,0.7427,0.0,0.0774,0.007091,0.0,0.0,3.0,,,,,,200.25351,FAIL,vel error exceeded
273,s04_vel_pi_staircase,g000033_c7,33,,,,,,0.0010618114617304772,0.2705190032039537,0.12566024286152075,,,,,,,1.1957,1.925,0.7383,0.0,0.0775,0.00709,0.0,0.0,3.0,,,,,,200.254313,FAIL,vel error exceeded
274,s04_vel_pi_staircase,g000034_c0,34,,,,,,0.0010538466047529636,0.2635897854977991,0.12892686975459303,,,,,,,1.1941,1.9494,0.7431,0.0,0.0774,0.007091,0.0,0.0,3.0,,,,,,200.253423,FAIL,vel error exceeded
275,s04_vel_pi_staircase,g000034_c1,34,,,,,,0.001053434317571045,0.26465122997592,0.1295842024781414,,,,,,,1.1937,1.9475,0.7424,0.0,0.0775,0.007091,0.0,0.0,3.0,,,,,,200.253863,FAIL,vel error exceeded
276,s04_vel_pi_staircase,g000034_c2,34,,,,,,0.001079632169777833,0.2677991980182923,0.1323752253466669,,,,,,,1.1949,1.9317,0.7401,0.0,0.0774,0.007091,0.0,0.0,3.0,,,,,,200.253753,FAIL,vel error exceeded
277,s04_vel_pi_staircase,g000034_c3,34,,,,,,0.001039714825902605,0.26179938280230186,0.12569428691613369,,,,,,,1.1945,1.9633,0.7448,0.0,0.0773,0.007091,0.0,0.0,3.0,,,,,,200.253032,FAIL,vel error exceeded
278,s04_vel_pi_staircase,g000034_c4,34,,,,,,0.001055291858459637,0.26294654894441744,0.12822141598558257,,,,,,,1.1943,1.9504,0.7435,0.0,0.0773,0.007091,0.0,0.0,3.0,,,,,,200.253073,FAIL,vel error exceeded
279,s04_vel_pi_staircase,g000034_c5,34,,,,,,0.001041936849530187,0.26468353370734166,0.1304555421117662,,,,,,,1.1942,1.9482,0.7425,0.0,0.0775,0.007091,0.0,0.0,3.0,,,,,,200.25384,FAIL,vel error exceeded
280,s04_vel_pi_staircase,g000034_c6,34,,,,,,0.0010393420915626498,0.2643118655607277,0.12848088393244755,,,,,,,1.1948,1.9498,0.7427,0.0,0.0774,0.007091,0.0,0.0,3.0,,,,,,200.253528,FAIL,vel error exceeded
281,s04_vel_pi_staircase,g000034_c7,34,,,,,,0.0010847662637193417,0.26368952186728056,0.12457792510698264,,,,,,,1.1936,1.9493,0.7431,0.0,0.0775,0.007091,0.0,0.0,3.0,,,,,,200.253785,FAIL,vel error exceeded
282,s04_vel_pi_staircase,g000035_c0,35,,,,,,0.0010772336903150013,0.26808734913689825,0.1277680872479233,,,,,,,1.1944,1.9314,0.7397,0.0,0.0775,0.007091,0.0,0.0,3.0,,,,,,200.254117,FAIL,vel error exceeded
283,s04_vel_pi_staircase,g000035_c1,35,,,,,,0.0010516424755967894,0.2624483034033976,0.12455854766773558,,,,,,,1.1945,1.9525,0.7439,0.0,0.0773,0.007091,0.0,0.0,3.0,,,,,,200.253108,FAIL,vel error exceeded
284,s04_vel_pi_staircase,g000035_c2,35,,,,,,0.0010580182421227832,0.2549557245450042,0.12748947234561078,,,,,,,1.1921,1.9852,0.7498,0.0,0.0776,0.007091,0.0,0.0,3.0,,,,,,200.253577,FAIL,vel error exceeded
285,s04_vel_pi_staircase,g000035_c3,35,,,,,,0.001009003462576692,0.2633347549821395,0.1311406886071264,,,,,,,1.1935,1.9579,0.7436,0.0,0.0776,0.007091,0.0,0.0,3.0,,,,,,200.254048,FAIL,vel error exceeded
286,s04_vel_pi_staircase,g000035_c4,35,,,,,,0.0010492517401963957,0.2544468443036271,0.12875110654732086,,,,,,,1.1923,1.9846,0.7501,0.0,0.0775,0.007091,0.0,0.0,3.0,,,,,,200.25315,FAIL,vel error exceeded
287,s04_vel_pi_staircase,g000035_c5,35,,,,,,0.0010371934405181333,0.2660801625138196,0.12999363515755574,,,,,,,1.1943,1.9466,0.7416,0.0,0.0775,0.007091,0.0,0.0,3.0,,,,,,200.253922,FAIL,vel error exceeded
288,s04_vel_pi_staircase,g000035_c6,35,,,,,,0.0010320806529888532,0.2701537827735724,0.12881606652064986,,,,,,,1.1937,1.9253,0.7386,0.0,0.0777,0.007091,0.0,0.0,3.0,,,,,,200.254858,FAIL,vel error exceeded
289,s04_vel_pi_staircase,g000035_c7,35,,,,,,0.0010564662943328728,0.26427027693323235,0.12828272050196876,,,,,,,1.1941,1.9454,0.7426,0.0,0.0774,0.007091,0.0,0.0,3.0,,,,,,200.253548,FAIL,vel error exceeded
290,s04_vel_pi_staircase,g000036_c0,36,,,,,,0.001044113833474086,0.2661946375345791,0.12881272330956656,,,,,,,1.194,1.9393,0.7413,0.0,0.0775,0.007091,0.0,0.0,3.0,,,,,,200.253952,FAIL,vel error exceeded
291,s04_vel_pi_staircase,g000036_c1,36,,,,,,0.0010434970832905496,0.2587215786742919,0.12762858457615645,,,,,,,1.1941,1.9749,0.7471,0.0,0.0774,0.007091,0.0,0.0,3.0,,,,,,200.2532,FAIL,vel error exceeded
292,s04_vel_pi_staircase,g000036_c2,36,,,,,,0.0010542079206005794,0.26877905918182593,0.1320657445943743,,,,,,,1.195,1.9236,0.7392,0.0,0.0774,0.00709,0.0,0.0,3.0,,,,,,200.253783,FAIL,vel error exceeded
293,s04_vel_pi_staircase,g000036_c3,36,,,,,,0.0010295573549211716,0.2531659372293982,0.12272650996329156,,,,,,,1.1909,1.9851,0.7509,0.0,0.0776,0.007091,0.0,0.0,3.0,,,,,,200.253387,FAIL,vel error exceeded
294,s04_vel_pi_staircase,g000036_c4,36,,,,,,0.0010556326084708093,0.2597186900510885,0.1285558632648804,,,,,,,1.1935,1.969,0.7462,0.0,0.0774,0.007091,0.0,0.0,3.0,,,,,,200.253227,FAIL,vel error exceeded
295,s04_vel_pi_staircase,g000036_c5,36,,,,,,0.001050620565076739,0.26059215162425836,0.1227865160725898,,,,,,,1.1946,1.9664,0.7454,0.0,0.0774,0.007091,0.0,0.0,3.0,,,,,,200.253313,FAIL,vel error exceeded
296,s04_vel_pi_staircase,g000036_c6,36,,,,,,0.0010710346561263922,0.26552049220134283,0.12657799996894187,,,,,,,1.194,1.943,0.7417,0.0,0.0775,0.007091,0.0,0.0,3.0,,,,,,200.253905,FAIL,vel error exceeded
297,s04_vel_pi_staircase,g000036_c7,36,,,,,,0.0010873298992393513,0.26820194887843046,0.1252918940386459,,,,,,,1.1946,1.9332,0.7398,0.0,0.0775,0.007091,0.0,0.0,3.0,,,,,,200.254147,FAIL,vel error exceeded
298,s04_vel_pi_staircase,g000037_c0,37,,,,,,0.0010304899630316756,0.2533014699085208,0.12663853573020145,,,,,,,1.1919,1.9941,0.7512,0.0,0.0777,0.007091,0.0,0.0,3.0,,,,,,200.253775,FAIL,vel error exceeded
299,s04_vel_pi_staircase,g000037_c1,37,,,,,,0.00104430513295325,0.2613467822306243,0.12676617347532487,,,,,,,1.1943,1.9588,0.7448,0.0,0.0773,0.007091,0.0,0.0,3.0,,,,,,200.252985,FAIL,vel error exceeded
300,s04_vel_pi_staircase,g000037_c2,37,,,,,,0.0010532923389547843,0.2659258367862595,0.13066703816057243,,,,,,,1.1942,1.945,0.7415,0.0,0.0775,0.007091,0.0,0.0,3.0,,,,,,200.253978,FAIL,vel error exceeded
301,s04_vel_pi_staircase,g000037_c3,37,,,,,,0.0010430951791787256,0.2749405682903082,0.13358804897857932,,,,,,,1.1957,1.8982,0.7348,0.0,0.0776,0.00709,0.0,0.0,3.0,,,,,,200.25483,FAIL,vel error exceeded
302,s04_vel_pi_staircase,g000037_c4,37,,,,,,0.0010338714888026624,0.25980555039727427,0.12417906861979944,,,,,,,1.1945,1.9674,0.7461,0.0,0.0773,0.007091,0.0,0.0,3.0,,,,,,200.252913,FAIL,vel error exceeded
303,s04_vel_pi_staircase,g000037_c5,37,,,,,,0.0010265737219885096,0.2685336444351237,0.12364681551970327,,,,,,,1.1949,1.9317,0.7394,0.0,0.0775,0.007091,0.0,0.0,3.0,,,,,,200.254167,FAIL,vel error exceeded
304,s04_vel_pi_staircase,g000037_c6,37,,,,,,0.0010305513709255288,0.25490131612173444,0.1271959817029903,,,,,,,1.1925,1.9854,0.7498,0.0,0.0776,0.007091,0.0,0.0,3.0,,,,,,200.253533,FAIL,vel error exceeded
305,s04_vel_pi_staircase,g000037_c7,37,,,,,,0.0010155906598413094,0.25775598666987587,0.12196739431075089,,,,,,,1.1945,1.9766,0.7477,0.0,0.0773,0.007091,0.0,0.0,3.0,,,,,,200.252783,FAIL,vel error exceeded
306,s04_vel_pi_staircase,g000038_c0,38,,,,,,0.001079088622473033,0.2580790992270917,0.12545240929616713,,,,,,,1.193,1.9725,0.7473,0.0,0.0775,0.007091,0.0,0.0,3.0,,,,,,200.253365,FAIL,vel error exceeded
307,s04_vel_pi_staircase,g000038_c1,38,,,,,,0.001067332904623542,0.2735977690868115,0.12457978936309297,,,,,,,1.1949,1.9069,0.736,0.0,0.0777,0.00709,0.0,0.0,3.0,,,,,,200.255092,FAIL,vel error exceeded
308,s04_vel_pi_staircase,g000038_c2,38,,,,,,0.0010496332891833985,0.25132836064071873,0.12880161610601581,,,,,,,1.1916,1.9986,0.7526,0.0,0.0776,0.007091,0.0,0.0,3.0,,,,,,200.253258,FAIL,vel error exceeded
309,s04_vel_pi_staircase,g000038_c3,38,,,,,,0.001083676258365659,0.2721780734102787,0.12616520893720748,,,,,,,1.1953,1.914,0.737,0.0,0.0776,0.00709,0.0,0.0,3.0,,,,,,200.254782,FAIL,vel error exceeded
310,s04_vel_pi_staircase,g000038_c4,38,,,,,,0.0010404349809235319,0.271601531086405,0.12440435734421983,,,,,,,1.1951,1.9175,0.7375,0.0,0.0776,0.00709,0.0,0.0,3.0,,,,,,200.254617,FAIL,vel error exceeded
311,s04_vel_pi_staircase,g000038_c5,38,,,,,,0.0010232350056924922,0.26005254466210653,0.12654212905158022,,,,,,,1.1923,1.9649,0.7459,0.0,0.0775,0.007091,0.0,0.0,3.0,,,,,,200.253552,FAIL,vel error exceeded
312,s04_vel_pi_staircase,g000038_c6,38,,,,,,0.0010264685078300315,0.2631633058032958,0.12773161184320894,,,,,,,1.1934,1.9534,0.7435,0.0,0.0776,0.007091,0.0,0.0,3.0,,,,,,200.254115,FAIL,vel error exceeded
