run_id,scenario,label,gen,timestamp,Q_PITCH,Q_PITCH_RATE,Q_VEL,R,KP_V,KI_V,KFF_V,KP_YAW,KI_YAW,LEG_K_S,LEG_B_S,LEG_K_ROLL,LEG_D_ROLL,rms_pitch_deg,max_pitch_deg,wheel_travel_m,wheel_liftoff_s,vel_track_rms_ms,hip_track_rms_rad,hip_cmd_rate_rms,settle_time_s,survived_s,fitness_balance,fitness_disturbance,fitness_drive_slow,fitness_drive_med,fitness_obstacle,fitness,status,fail_reason
1,s07_drive_turn,evo_seed,0,,,,,,,,,1.9107071,2.6005796,,,,,3.3145,12.0357,8.512,0.0,0.1769,0.007202,0.0,0.93,8.0,,,,,,0.70375,PASS,
2,s07_drive_turn,g000000_c0,0,,,,,,,,,3.644053571718058,0.47883800197030696,,,,,3.3192,12.0372,8.5154,0.0,0.182,0.007202,0.0,0.93,8.0,,,,,,0.71142,PASS,
3,s07_drive_turn,g000000_c1,0,,,,,,,,,15.729247756232246,100.0,,,,,3.203,10.2978,8.6959,0.0,0.7118,0.007309,0.0,8.0,8.0,,,,,,1.5719,PASS,
4,s07_drive_turn,g000000_c2,0,,,,,,,,,1.2443064561298343,79.41372548422014,,,,,3.3476,12.0467,8.5458,0.0,0.239,0.007203,0.0,0.93,8.0,,,,,,0.82091,PASS,
5,s07_drive_turn,g000000_c3,0,,,,,,,,,0.30393246072426716,4.5983943073659255,,,,,3.2973,12.0464,8.4906,0.0,0.1374,0.007202,0.0,0.93,8.0,,,,,,0.65508,PASS,
6,s07_drive_turn,g000000_c4,0,,,,,,,,,12.25157290832457,69.23652634743576,,,,,3.4341,11.9354,8.7892,0.0,0.7058,0.007296,0.0,0.978,8.0,,,,,,1.58496,PASS,
7,s07_drive_turn,g000000_c5,0,,,,,,,,,0.7005977239537541,0.08563658094196136,,,,,3.3199,12.0474,8.5104,0.0,0.1687,0.007201,0.0,0.93,8.0,,,,,,0.69754,PASS,
8,s07_drive_turn,g000000_c6,0,,,,,,,,,8.706479563853744,6.446018847458288,,,,,3.2333,11.4969,9.1927,0.0,0.7041,0.00729,0.0,1.064,8.0,,,,,,1.56053,PASS,
9,s07_drive_turn,g000000_c7,0,,,,,,,,,29.205913393886394,100.0,,,,,3.4431,12.3761,8.7362,0.0,0.7317,0.007344,0.0,8.0,8.0,,,,,,1.63476,PASS,
10,s07_drive_turn,g000001_c0,1,,,,,,,,,0.10089945075267577,100.0,,,,,8.1148,19.2689,20.5001,0.0,3.4069,0.007495,0.0,1.06,8.0,,,,,,10.40413,PASS,
11,s07_drive_turn,g000001_c1,1,,,,,,,,,0.03490292776082861,0.2256299513065088,,,,,3.3002,12.096,8.4809,0.0,0.1245,0.007202,0.0,0.93,8.0,,,,,,0.81212,PASS,
12,s07_drive_turn,g000001_c2,1,,,,,,,,,0.6110685214593791,3.337198607953829,,,,,3.3063,12.0439,8.5021,0.0,0.1572,0.007202,0.0,0.93,8.0,,,,,,0.67683,PASS,
13,s07_drive_turn,g000001_c3,1,,,,,,,,,1.6261498883934693,2.574353705318419,,,,,3.3145,12.0392,8.5105,0.0,0.175,0.007202,0.0,0.93,8.0,,,,,,0.70105,PASS,
14,s07_drive_turn,g000001_c4,1,,,,,,,,,0.6073937936243691,33.27918702541149,,,,,3.3436,12.0437,8.5416,0.0,0.235,0.007203,0.0,0.93,8.0,,,,,,0.81781,PASS,
15,s07_drive_turn,g000001_c5,1,,,,,,,,,0.001,2.780469438164425,,,,,3.2563,11.9622,8.4641,0.0,0.1218,0.007205,0.0,0.928,8.0,,,,,,1.09513,PASS,
16,s07_drive_turn,g000001_c6,1,,,,,,,,,0.008600518023219508,4.77749354706603,,,,,7.1424,18.8038,19.5783,0.0,3.3556,0.007576,0.0,0.93,8.0,,,,,,10.10754,PASS,
17,s07_drive_turn,g000001_c7,1,,,,,,,,,0.07972577163016638,61.932845741870146,,,,,8.546,21.2953,19.9701,0.0,3.3229,0.007442,0.0,1.056,8.0,,,,,,10.3616,PASS,
18,s07_drive_turn,g000002_c0,2,,,,,,,,,7.163115295279704,13.238468062362191,,,,,3.1865,11.3705,9.3805,0.0,0.7865,0.007291,0.0,8.0,8.0,,,,,,1.66265,PASS,
19,s07_drive_turn,g000002_c1,2,,,,,,,,,6.031105295085332,0.01299691961147728,,,,,3.331,11.1786,9.5003,0.0,0.7599,0.007263,0.0,1.36,8.0,,,,,,1.6225,PASS,
20,s07_drive_turn,g000002_c2,2,,,,,,,,,1.0417644874811127,0.13339182651536582,,,,,3.3184,12.045,8.5117,0.0,0.1729,0.007201,0.0,0.93,8.0,,,,,,0.70009,PASS,
21,s07_drive_turn,g000002_c3,2,,,,,,,,,6.510767791618416,7.369582785242674,,,,,3.4041,11.6049,9.6356,0.0,0.7809,0.007297,0.0,1.27,8.0,,,,,,1.67661,PASS,
22,s07_drive_turn,g000002_c4,2,,,,,,,,,1.1104221307675044,29.627203345297673,,,,,3.334,12.0376,8.5403,0.0,0.2279,0.007202,0.0,0.93,8.0,,,,,,0.79405,PASS,
23,s07_drive_turn,g000002_c5,2,,,,,,,,,0.38733947820374715,100.0,,,,,3.8406,16.0392,8.7748,0.0,0.6246,0.00721,0.0,0.966,8.0,,,,,,1.57386,PASS,
24,s07_drive_turn,g000002_c6,2,,,,,,,,,0.13021262010266194,0.6298497664688217,,,,,3.2936,12.0607,8.4822,0.0,0.1245,0.007201,0.0,0.93,8.0,,,,,,0.68051,PASS,
25,s07_drive_turn,g000002_c7,2,,,,,,,,,0.03637221391429668,24.436952787540182,,,,,7.2218,16.1615,19.621,0.0,3.3212,0.007469,0.0,0.93,8.0,,,,,,9.80573,PASS,
26,s07_drive_turn,g000003_c0,3,,,,,,,,,1.5978702744174202,2.419992177158967,,,,,3.3142,12.0397,8.5109,0.0,0.1749,0.007202,0.0,0.93,8.0,,,,,,0.70087,PASS,
27,s07_drive_turn,g000003_c1,3,,,,,,,,,0.45390771016898845,55.65735331751438,,,,,3.6399,13.0915,8.5618,0.0,0.3543,0.007206,0.0,0.93,8.0,,,,,,1.05444,PASS,
28,s07_drive_turn,g000003_c2,3,,,,,,,,,52.866915432607875,15.51111022860277,,,,,3.3237,11.14,8.7307,0.0,0.7597,0.007336,0.0,8.0,8.0,,,,,,1.65762,PASS,
29,s07_drive_turn,g000003_c3,3,,,,,,,,,0.002433090398979337,18.15162501343858,,,,,8.2089,22.7239,21.3072,0.0,3.5955,0.007581,0.0,0.932,8.0,,,,,,10.98009,PASS,
30,s07_drive_turn,g000003_c4,3,,,,,,,,,0.07464117773537753,0.03309938609618626,,,,,3.3355,12.0977,8.5022,0.0,0.128,0.007197,0.0,0.936,8.0,,,,,,0.81415,PASS,
31,s07_drive_turn,g000003_c5,3,,,,,,,,,1.2103076117777427,40.8194215225103,,,,,3.3316,12.0449,8.539,0.0,0.2239,0.007202,0.0,0.93,8.0,,,,,,0.79021,PASS,
32,s07_drive_turn,g000003_c6,3,,,,,,,,,0.1098081414128748,2.7210885892725396,,,,,3.289,12.0317,8.481,0.0,0.1243,0.007202,0.0,0.93,8.0,,,,,,0.68875,PASS,
33,s07_drive_turn,g000003_c7,3,,,,,,,,,0.020693081178680794,6.415727846332059,,,,,3.2926,12.0141,8.4848,0.0,0.1449,0.007203,0.0,0.93,8.0,,,,,,0.90781,PASS,
34,s07_drive_turn,g000004_c0,4,,,,,,,,,4.2123833370494435,1.4730933577004697,,,,,3.3181,12.0445,8.5152,0.0,0.1814,0.007202,0.0,0.93,8.0,,,,,,0.71041,PASS,
35,s07_drive_turn,g000004_c1,4,,,,,,,,,2.93290539520861,0.7431368649765063,,,,,3.3185,12.0372,8.514,0.0,0.1807,0.007202,0.0,0.93,8.0,,,,,,0.7094,PASS,
36,s07_drive_turn,g000004_c2,4,,,,,,,,,0.09940782690458659,62.990008244040986,,,,,7.473,18.8026,19.8179,0.0,3.2691,0.007443,0.0,1.02,8.0,,,,,,9.81825,PASS,
37,s07_drive_turn,g000004_c3,4,,,,,,,,,0.08056394416089299,93.58181969372222,,,,,7.5335,19.3731,20.5033,0.0,3.4509,0.007504,0.0,1.08,8.0,,,,,,10.0955,PASS,
38,s07_drive_turn,g000004_c4,4,,,,,,,,,7.109561223423152,2.66652638741104,,,,,3.2005,11.9132,9.4617,0.0,0.7637,0.007293,0.0,8.0,8.0,,,,,,1.64725,PASS,
39,s07_drive_turn,g000004_c5,4,,,,,,,,,1.142378114934553,2.2955736416340597,,,,,3.3122,12.0406,8.5078,0.0,0.1691,0.007202,0.0,0.93,8.0,,,,,,0.69242,PASS,
40,s07_drive_turn,g000004_c6,4,,,,,,,,,0.03452154921697215,3.253233699185052,,,,,3.2829,12.0143,8.4779,0.0,0.1239,0.007202,0.0,0.93,8.0,,,,,,0.79854,PASS,
41,s07_drive_turn,g000004_c7,4,,,,,,,,,0.01417808492876415,0.1771457620128131,,,,,3.3016,12.1225,8.4771,0.0,0.1241,0.007203,0.0,0.93,8.0,,,,,,0.91591,PASS,
42,s07_drive_turn,g000005_c0,5,,,,,,,,,0.2111346426193305,100.0,,,,,7.366,17.8884,20.1401,0.0,3.3507,0.007463,0.0,1.062,8.0,,,,,,9.72055,PASS,
43,s07_drive_turn,g000005_c1,5,,,,,,,,,1.6457371383227997,45.61721948537586,,,,,3.3307,12.0401,8.539,0.0,0.223,0.007202,0.0,0.928,8.0,,,,,,0.78592,PASS,
44,s07_drive_turn,g000005_c2,5,,,,,,,,,0.52502217835552,0.12040445566952256,,,,,3.3157,12.0525,8.5056,0.0,0.1574,0.007201,0.0,0.932,8.0,,,,,,0.68377,PASS,
45,s07_drive_turn,g000005_c3,5,,,,,,,,,2.2756583525595984,100.0,,,,,3.3354,12.0538,8.5435,0.0,0.2272,0.007202,0.0,0.93,8.0,,,,,,0.79644,PASS,
46,s07_drive_turn,g000005_c4,5,,,,,,,,,0.49107877003506384,1.0012223161304714,,,,,3.3014,12.0485,8.4933,0.0,0.1407,0.007202,0.0,0.93,8.0,,,,,,0.65159,PASS,
47,s07_drive_turn,g000005_c5,5,,,,,,,,,0.46737956985313195,4.6541201228876625,,,,,3.3049,12.0463,8.5013,0.0,0.1556,0.007202,0.0,0.93,8.0,,,,,,0.67789,PASS,
48,s07_drive_turn,g000005_c6,5,,,,,,,,,0.015955757611914746,5.796030420805341,,,,,5.9464,17.0163,16.731,0.0,2.8256,0.00735,0.0,0.93,8.0,,,,,,7.99159,PASS,
49,s07_drive_turn,g000005_c7,5,,,,,,,,,0.3404755601215905,3.0741682706598366,,,,,3.2966,12.048,8.4889,0.0,0.1342,0.007202,0.0,0.93,8.0,,,,,,0.64601,PASS,
50,s07_drive_turn,g000006_c0,6,,,,,,,,,0.06282653656962665,1.8273692710595137,,,,,3.2849,12.0181,8.4804,0.0,0.1241,0.007202,0.0,0.93,8.0,,,,,,0.73619,PASS,
51,s07_drive_turn,g000006_c1,6,,,,,,,,,0.4018267317248729,33.56207043294104,,,,,3.3601,12.043,8.5433,0.0,0.2477,0.007203,0.0,0.93,8.0,,,,,,0.84871,PASS,
52,s07_drive_turn,g000006_c2,6,,,,,,,,,1.777504556993966,0.03458477573265737,,,,,3.3215,12.0411,8.5168,0.0,0.183,0.007201,0.0,0.93,8.0,,,,,,0.7139,PASS,
53,s07_drive_turn,g000006_c3,6,,,,,,,,,3.7677991517899176,1.4678497010368197,,,,,3.318,12.0375,8.5148,0.0,0.1818,0.007202,0.0,0.93,8.0,,,,,,0.711,PASS,
54,s07_drive_turn,g000006_c4,6,,,,,,,,,0.0035081052905613828,5.71145515629596,,,,,7.1755,18.517,19.3979,0.0,3.2979,0.007462,0.0,0.93,8.0,,,,,,9.97825,PASS,
55,s07_drive_turn,g000006_c5,6,,,,,,,,,100.0,0.14543710621668732,,,,,3.3416,11.3484,8.7248,0.0,0.7747,0.007336,0.0,8.0,8.0,,,,,,1.67816,PASS,
56,s07_drive_turn,g000006_c6,6,,,,,,,,,0.016275524518018482,2.5714592523414845,,,,,3.2738,11.9802,8.4752,0.0,0.1234,0.007203,0.0,0.93,8.0,,,,,,0.88298,PASS,
57,s07_drive_turn,g000006_c7,6,,,,,,,,,0.011052750115077005,6.575953118430138,,,,,8.3154,21.566,18.761,0.0,3.1148,0.007443,0.0,0.93,8.0,,,,,,10.05219,PASS,
58,s07_drive_turn,g000007_c0,7,,,,,,,,,0.18617509453778347,2.0136701248419273,,,,,3.2906,12.0431,8.4815,0.0,0.1244,0.007202,0.0,0.93,8.0,,,,,,0.65321,PASS,
59,s07_drive_turn,g000007_c1,7,,,,,,,,,0.10662899411348757,48.09591809222949,,,,,7.1394,20.152,19.3807,0.0,3.2366,0.007449,0.0,0.934,8.0,,,,,,8.50224,PASS,
60,s07_drive_turn,g000007_c2,7,,,,,,,,,0.052207889527923136,3.974240638730709,,,,,3.2868,12.0332,8.4789,0.0,0.1241,0.007202,0.0,0.93,8.0,,,,,,0.75558,PASS,
61,s07_drive_turn,g000007_c3,7,,,,,,,,,0.5855669141484704,2.132186995617955,,,,,3.303,12.0458,8.4986,0.0,0.1493,0.007202,0.0,0.93,8.0,,,,,,0.6639,PASS,
62,s07_drive_turn,g000007_c4,7,,,,,,,,,0.03119953386536355,0.4118433770709273,,,,,3.2873,12.071,8.4807,0.0,0.1241,0.007202,0.0,0.928,8.0,,,,,,0.81308,PASS,
63,s07_drive_turn,g000007_c5,7,,,,,,,,,0.5368539195364661,1.159909747210539,,,,,3.3018,12.0475,8.4954,0.0,0.1441,0.007202,0.0,0.93,8.0,,,,,,0.65613,PASS,
64,s07_drive_turn,g000007_c6,7,,,,,,,,,0.022759571429204217,30.87232479828393,,,,,7.0262,15.7251,20.0223,0.0,3.3484,0.007484,0.0,0.93,8.0,,,,,,9.58367,PASS,
65,s07_drive_turn,g000007_c7,7,,,,,,,,,0.01586091644088514,100.0,,,,,8.1799,21.0812,21.534,0.0,3.5199,0.007506,0.0,1.22,8.0,,,,,,10.60804,PASS,
66,s07_drive_turn,g000008_c0,8,,,,,,,,,0.12660948080900647,2.3412934979692075,,,,,3.2894,12.0347,8.4812,0.0,0.1243,0.007202,0.0,0.93,8.0,,,,,,0.67829,PASS,
67,s07_drive_turn,g000008_c1,8,,,,,,,,,0.06574655996520878,20.20906180033488,,,,,3.3465,12.0485,8.5536,0.0,0.2755,0.007205,0.0,0.93,8.0,,,,,,0.9849,PASS,
68,s07_drive_turn,g000008_c2,8,,,,,,,,,0.16638889236638438,5.873052571498626,,,,,3.2909,12.0503,8.4809,0.0,0.1244,0.007202,0.0,0.93,8.0,,,,,,0.66164,PASS,
69,s07_drive_turn,g000008_c3,8,,,,,,,,,3.1262971744725085,0.4745306382290993,,,,,3.3201,12.0434,8.5151,0.0,0.1823,0.007202,0.0,0.93,8.0,,,,,,0.71196,PASS,
70,s07_drive_turn,g000008_c4,8,,,,,,,,,0.01608843316065928,0.5956344940378169,,,,,3.2742,12.0521,8.4784,0.0,0.1235,0.007202,0.0,0.926,8.0,,,,,,0.88272,PASS,
71,s07_drive_turn,g000008_c5,8,,,,,,,,,0.7078200157098891,0.18105937321038298,,,,,3.317,12.0541,8.5086,0.0,0.1644,0.007201,0.0,0.93,8.0,,,,,,0.68975,PASS,
72,s07_drive_turn,g000008_c6,8,,,,,,,,,0.07675254808591785,0.5571105741976214,,,,,3.2911,12.0557,8.482,0.0,0.1244,0.007201,0.0,0.93,8.0,,,,,,0.72331,PASS,
73,s07_drive_turn,g000008_c7,8,,,,,,,,,0.8320643447419546,1.3312456036229432,,,,,3.3068,12.039,8.5019,0.0,0.1566,0.007201,0.0,0.93,8.0,,,,,,0.67358,PASS,
74,s07_drive_turn,g000009_c0,9,,,,,,,,,1.5172281315214915,0.23679171043259833,,,,,3.3191,12.0432,8.5139,0.0,0.1775,0.007201,0.0,0.93,8.0,,,,,,0.70556,PASS,
75,s07_drive_turn,g000009_c1,9,,,,,,,,,0.10404247664110278,3.19492009690319,,,,,3.2888,12.0343,8.4805,0.0,0.1243,0.007202,0.0,0.93,8.0,,,,,,0.69293,PASS,
76,s07_drive_turn,g000009_c2,9,,,,,,,,,12.675180217072926,0.1475379649386651,,,,,3.0743,10.5199,8.8562,0.0,0.6647,0.007288,0.0,2.788,8.0,,,,,,1.48853,PASS,
77,s07_drive_turn,g000009_c3,9,,,,,,,,,0.10434379839600698,1.0388310091637818,,,,,3.2897,12.0443,8.4821,0.0,0.1244,0.007201,0.0,0.93,8.0,,,,,,0.69467,PASS,
78,s07_drive_turn,g000009_c4,9,,,,,,,,,0.017727132870725346,30.62233654935482,,,,,7.228,16.5707,20.4798,0.0,3.4457,0.007448,0.0,0.932,8.0,,,,,,9.80725,PASS,
79,s07_drive_turn,g000009_c5,9,,,,,,,,,0.026466027288187175,5.504471298212512,,,,,3.2835,12.0242,8.4772,0.0,0.1239,0.007202,0.0,0.93,8.0,,,,,,0.8364,PASS,
80,s07_drive_turn,g000009_c6,9,,,,,,,,,0.10601408671213079,93.01736752656257,,,,,7.206,16.8412,19.5626,0.0,3.3102,0.007456,0.0,1.22,8.0,,,,,,9.88125,PASS,
81,s07_drive_turn,g000009_c7,9,,,,,,,,,0.13695148931989892,62.36471863902188,,,,,7.1972,18.7446,18.9159,0.0,3.1313,0.007449,0.0,0.954,8.0,,,,,,8.66942,PASS,
82,s07_drive_turn,g000010_c0,10,,,,,,,,,0.18715812042896152,3.288969551392457,,,,,3.2903,12.042,8.4814,0.0,0.1244,0.007202,0.0,0.93,8.0,,,,,,0.65303,PASS,
83,s07_drive_turn,g000010_c1,10,,,,,,,,,0.1382903137470913,100.0,,,,,8.7311,22.9817,20.8063,0.0,3.4408,0.007435,0.0,1.104,8.0,,,,,,10.44491,PASS,
84,s07_drive_turn,g000010_c2,10,,,,,,,,,0.44685096765147236,4.5900859740498525,,,,,3.3041,12.0457,8.5004,0.0,0.1535,0.007202,0.0,0.93,8.0,,,,,,0.67496,PASS,
85,s07_drive_turn,g000010_c3,10,,,,,,,,,1.5966235786482437,0.816850868015422,,,,,3.3159,12.0435,8.5108,0.0,0.174,0.007202,0.0,0.93,8.0,,,,,,0.69954,PASS,
86,s07_drive_turn,g000010_c4,10,,,,,,,,,0.29581142414853023,4.743092590789418,,,,,3.2969,12.0456,8.4897,0.0,0.1364,0.007202,0.0,0.93,8.0,,,,,,0.65414,PASS,
87,s07_drive_turn,g000010_c5,10,,,,,,,,,1.463496415127955,7.521799100982914,,,,,3.3186,12.0383,8.5179,0.0,0.1887,0.007202,0.0,0.93,8.0,,,,,,0.72351,PASS,
88,s07_drive_turn,g000010_c6,10,,,,,,,,,0.20444494861091617,1.258621247857507,,,,,3.292,12.0476,8.4818,0.0,0.1245,0.007201,0.0,0.93,8.0,,,,,,0.64855,PASS,
89,s07_drive_turn,g000010_c7,10,,,,,,,,,0.14852793608904646,0.7631813988215401,,,,,3.2931,12.0541,8.4819,0.0,0.1245,0.007201,0.0,0.93,8.0,,,,,,0.67026,PASS,
90,s07_drive_turn,g000011_c0,11,,,,,,,,,0.24803267905387452,9.772753645413689,,,,,3.3117,12.0504,8.5065,0.0,0.1683,0.007202,0.0,0.93,8.0,,,,,,0.71787,PASS,
91,s07_drive_turn,g000011_c1,11,,,,,,,,,0.04289921135928443,7.556829654260918,,,,,3.2888,12.042,8.4804,0.0,0.1262,0.007202,0.0,0.93,8.0,,,,,,0.78368,PASS,
92,s07_drive_turn,g000011_c2,11,,,,,,,,,0.11385717654227698,1.3415176935655615,,,,,3.2891,12.0384,8.4815,0.0,0.1243,0.007201,0.0,0.93,8.0,,,,,,0.68696,PASS,
93,s07_drive_turn,g000011_c3,11,,,,,,,,,0.5526879603848651,14.635873925559865,,,,,3.3268,12.0397,8.5281,0.0,0.2077,0.007202,0.0,0.93,8.0,,,,,,0.76438,PASS,
94,s07_drive_turn,g000011_c4,11,,,,,,,,,0.5136459393232093,1.4205860789415845,,,,,3.3012,12.0447,8.4947,0.0,0.1434,0.007202,0.0,0.93,8.0,,,,,,0.65547,PASS,
95,s07_drive_turn,g000011_c5,11,,,,,,,,,0.8206434150866728,6.759165840881328,,,,,3.3149,12.0379,8.5126,0.0,0.1789,0.007202,0.0,0.93,8.0,,,,,,0.71069,PASS,
96,s07_drive_turn,g000011_c6,11,,,,,,,,,0.13782498181156547,8.640629672455528,,,,,3.2977,12.0517,8.4889,0.0,0.1371,0.007202,0.0,0.93,8.0,,,,,,0.69847,PASS,
97,s07_drive_turn,g000011_c7,11,,,,,,,,,3.02471919403204,0.2667131046376689,,,,,3.3196,12.0413,8.5161,0.0,0.1821,0.007202,0.0,0.93,8.0,,,,,,0.71161,PASS,
98,s07_drive_turn,g000012_c0,12,,,,,,,,,0.30015815803437873,61.57718876878656,,,,,3.7505,14.4789,8.5127,0.0,0.4231,0.007208,0.0,0.932,8.0,,,,,,1.2134,PASS,
99,s07_drive_turn,g000012_c1,12,,,,,,,,,0.20541352338863028,2.69335831519125,,,,,3.2909,12.0451,8.4814,0.0,0.1244,0.007202,0.0,0.93,8.0,,,,,,0.64739,PASS,
100,s07_drive_turn,g000012_c2,12,,,,,,,,,0.2706687778282802,29.679064762931237,,,,,3.5192,12.0466,8.5185,0.0,0.2821,0.007205,0.0,0.93,8.0,,,,,,0.92972,PASS,
101,s07_drive_turn,g000012_c3,12,,,,,,,,,9.158453688267125,0.6799749459143666,,,,,2.9351,9.4592,8.9238,0.0,0.7005,0.007285,0.0,1.122,8.0,,,,,,1.51856,PASS,
102,s07_drive_turn,g000012_c4,12,,,,,,,,,0.22053503436826608,12.342350253741401,,,,,3.3183,12.0575,8.5151,0.0,0.1832,0.007202,0.0,0.93,8.0,,,,,,0.74823,PASS,
103,s07_drive_turn,g000012_c5,12,,,,,,,,,0.1512428971538062,2.6247654446211675,,,,,3.2903,12.0397,8.4814,0.0,0.1244,0.007202,0.0,0.93,8.0,,,,,,0.66623,PASS,
104,s07_drive_turn,g000012_c6,12,,,,,,,,,0.14401676958755402,8.44027473403458,,,,,3.2972,12.0522,8.4882,0.0,0.1362,0.007202,0.0,0.93,8.0,,,,,,0.69392,PASS,
105,s07_drive_turn,g000012_c7,12,,,,,,,,,0.11637958270663784,11.648269286012571,,,,,3.3115,12.0499,8.5041,0.0,0.1682,0.007203,0.0,0.93,8.0,,,,,,0.7654,PASS,
106,s07_drive_turn,g000013_c0,13,,,,,,,,,0.39545227566300767,6.6763065083743225,,,,,3.3079,12.0429,8.5041,0.0,0.1613,0.007202,0.0,0.93,8.0,,,,,,0.69094,PASS,
107,s07_drive_turn,g000013_c1,13,,,,,,,,,0.24383651298330533,6.081124719359247,,,,,3.2972,12.0497,8.4898,0.0,0.1375,0.007202,0.0,0.93,8.0,,,,,,0.66362,PASS,
108,s07_drive_turn,g000013_c2,13,,,,,,,,,1.0989769978024415,1.212474769183471,,,,,3.312,12.0422,8.5069,0.0,0.1669,0.007202,0.0,0.93,8.0,,,,,,0.6891,PASS,
109,s07_drive_turn,g000013_c3,13,,,,,,,,,0.32725329553124793,7.134903405971471,,,,,3.3072,12.0499,8.5019,0.0,0.1592,0.007202,0.0,0.93,8.0,,,,,,0.69237,PASS,
110,s07_drive_turn,g000013_c4,13,,,,,,,,,0.022475108640941707,2.409027215738029,,,,,3.2767,11.9849,8.4765,0.0,0.1236,0.007202,0.0,0.93,8.0,,,,,,0.84547,PASS,
111,s07_drive_turn,g000013_c5,13,,,,,,,,,0.6477886393780969,4.244092144516187,,,,,3.308,12.0452,8.5042,0.0,0.1614,0.007202,0.0,0.93,8.0,,,,,,0.68345,PASS,
112,s07_drive_turn,g000013_c6,13,,,,,,,,,0.5300314002707547,2.86905416103734,,,,,3.3034,12.0475,8.499,0.0,0.1503,0.007202,0.0,0.93,8.0,,,,,,0.66664,PASS,
113,s07_drive_turn,g000013_c7,13,,,,,,,,,0.23639583544552606,1.0802132876792099,,,,,3.2931,12.0519,8.4818,0.0,0.1245,0.007201,0.0,0.93,8.0,,,,,,0.64071,PASS,
114,s07_drive_turn,g000014_c0,14,,,,,,,,,0.6152821799655818,0.39811154600233145,,,,,3.3095,12.0493,8.5016,0.0,0.1532,0.007201,0.0,0.93,8.0,,,,,,0.67145,PASS,
115,s07_drive_turn,g000014_c1,14,,,,,,,,,0.9384554852302174,0.8445808143616398,,,,,3.3091,12.0444,8.504,0.0,0.16,0.007201,0.0,0.93,8.0,,,,,,0.67846,PASS,
116,s07_drive_turn,g000014_c2,14,,,,,,,,,1.1007991165124493,1.4724563325407942,,,,,3.3114,12.0431,8.507,0.0,0.1661,0.007202,0.0,0.93,8.0,,,,,,0.68769,PASS,
117,s07_drive_turn,g000014_c3,14,,,,,,,,,0.6153538524522308,0.290829805874463,,,,,3.3134,12.047,8.5043,0.0,0.1591,0.007201,0.0,0.93,8.0,,,,,,0.68189,PASS,
118,s07_drive_turn,g000014_c4,14,,,,,,,,,0.21959027906531833,0.9611453844298614,,,,,3.2935,12.0575,8.4822,0.0,0.1245,0.007201,0.0,0.93,8.0,,,,,,0.6451,PASS,
119,s07_drive_turn,g000014_c5,14,,,,,,,,,0.10455122335304619,0.34889928003192794,,,,,3.297,12.0667,8.4824,0.0,0.1247,0.007201,0.0,0.93,8.0,,,,,,0.7023,PASS,
120,s07_drive_turn,g000014_c6,14,,,,,,,,,0.1273042713420975,1.6784976210197646,,,,,3.289,12.0355,8.4814,0.0,0.1243,0.007202,0.0,0.93,8.0,,,,,,0.67825,PASS,
121,s07_drive_turn,g000014_c7,14,,,,,,,,,0.16228474091934011,0.3219457550192916,,,,,3.2989,12.0661,8.4834,0.0,0.1248,0.007201,0.0,0.932,8.0,,,,,,0.67024,PASS,
122,s07_drive_turn,g000015_c0,15,,,,,,,,,0.2745779155880726,0.9666211657327847,,,,,3.2939,12.053,8.4822,0.0,0.1245,0.007201,0.0,0.93,8.0,,,,,,0.63434,PASS,
123,s07_drive_turn,g000015_c1,15,,,,,,,,,0.22968932531077754,0.3949145320023097,,,,,3.2978,12.0573,8.483,0.0,0.1248,0.007201,0.0,0.932,8.0,,,,,,0.64688,PASS,
124,s07_drive_turn,g000015_c2,15,,,,,,,,,0.3861837824953235,1.0514865379621374,,,,,3.2973,12.054,8.4871,0.0,0.1313,0.007202,0.0,0.93,8.0,,,,,,0.63858,PASS,
125,s07_drive_turn,g000015_c3,15,,,,,,,,,0.19307681842281596,0.5391461801394389,,,,,3.2956,12.0563,8.4823,0.0,0.1246,0.007201,0.0,0.93,8.0,,,,,,0.65506,PASS,
126,s07_drive_turn,g000015_c4,15,,,,,,,,,0.057069739989280076,1.8433714576549252,,,,,3.2836,12.0093,8.4799,0.0,0.1241,0.007202,0.0,0.93,8.0,,,,,,0.74521,PASS,
127,s07_drive_turn,g000015_c5,15,,,,,,,,,0.493153049032724,4.68301890302763,,,,,3.3045,12.0434,8.5014,0.0,0.1551,0.007202,0.0,0.93,8.0,,,,,,0.6762,PASS,
128,s07_drive_turn,g000015_c6,15,,,,,,,,,0.1160016435258626,0.6290862357538993,,,,,3.2932,12.0551,8.4822,0.0,0.1245,0.007201,0.0,0.93,8.0,,,,,,0.68917,PASS,
129,s07_drive_turn,g000015_c7,15,,,,,,,,,0.15416258171263345,1.1000775712549296,,,,,3.2916,12.0467,8.4822,0.0,0.1245,0.007201,0.0,0.93,8.0,,,,,,0.66636,PASS,
130,s07_drive_turn,g000016_c0,16,,,,,,,,,0.4194684366353058,0.41619121773510126,,,,,3.3024,12.0557,8.4912,0.0,0.1354,0.007201,0.0,0.932,8.0,,,,,,0.64659,PASS,
131,s07_drive_turn,g000016_c1,16,,,,,,,,,0.25684565377784546,0.9498723747310067,,,,,3.2937,12.0538,8.4822,0.0,0.1245,0.007201,0.0,0.93,8.0,,,,,,0.63702,PASS,
132,s07_drive_turn,g000016_c2,16,,,,,,,,,0.6329911518565999,1.379593784382584,,,,,3.3045,12.0496,8.4987,0.0,0.1497,0.007202,0.0,0.93,8.0,,,,,,0.6639,PASS,
133,s07_drive_turn,g000016_c3,16,,,,,,,,,0.30512263125829103,1.179382911301533,,,,,3.294,12.0551,8.4825,0.0,0.1251,0.007202,0.0,0.93,8.0,,,,,,0.63225,PASS,
134,s07_drive_turn,g000016_c4,16,,,,,,,,,0.44244559611861123,2.168404225128693,,,,,3.3,12.0493,8.4936,0.0,0.1411,0.007202,0.0,0.93,8.0,,,,,,0.65325,PASS,
135,s07_drive_turn,g000016_c5,16,,,,,,,,,0.17134526304478634,1.8631576166522976,,,,,3.2907,12.0448,8.4817,0.0,0.1244,0.007202,0.0,0.93,8.0,,,,,,0.65847,PASS,
136,s07_drive_turn,g000016_c6,16,,,,,,,,,0.49393880866466394,1.6757677451338482,,,,,3.3008,12.0496,8.4942,0.0,0.1424,0.007202,0.0,0.93,8.0,,,,,,0.65408,PASS,
137,s07_drive_turn,g000016_c7,16,,,,,,,,,0.2792792853490218,1.2941220835238796,,,,,3.2932,12.0531,8.4825,0.0,0.1246,0.007202,0.0,0.93,8.0,,,,,,0.63367,PASS,
138,s07_drive_turn,g000017_c0,17,,,,,,,,,0.5290161172820336,1.318919146509861,,,,,3.3021,12.0457,8.4955,0.0,0.1449,0.007202,0.0,0.93,8.0,,,,,,0.65751,PASS,
139,s07_drive_turn,g000017_c1,17,,,,,,,,,0.1675631908054697,1.8205109558504906,,,,,3.2905,12.043,8.482,0.0,0.1244,0.007202,0.0,0.93,8.0,,,,,,0.6598,PASS,
140,s07_drive_turn,g000017_c2,17,,,,,,,,,0.3303407621020312,1.1141788402788957,,,,,3.2952,12.0525,8.4835,0.0,0.1262,0.007201,0.0,0.93,8.0,,,,,,0.63252,PASS,
141,s07_drive_turn,g000017_c3,17,,,,,,,,,0.16699777071864022,1.1833396990962346,,,,,3.2917,12.0513,8.4817,0.0,0.1244,0.007201,0.0,0.93,8.0,,,,,,0.66082,PASS,
142,s07_drive_turn,g000017_c4,17,,,,,,,,,0.20268641648049843,0.789541937473131,,,,,3.2943,12.055,8.4818,0.0,0.1245,0.007201,0.0,0.93,8.0,,,,,,0.65043,PASS,
143,s07_drive_turn,g000017_c5,17,,,,,,,,,0.17644120052197468,0.6774545938991826,,,,,3.2943,12.0577,8.4821,0.0,0.1245,0.007201,0.0,0.93,8.0,,,,,,0.65943,PASS,
144,s07_drive_turn,g000017_c6,17,,,,,,,,,0.7932177565360975,0.8250630430863071,,,,,3.3109,12.0401,8.5042,0.0,0.1622,0.007202,0.0,0.93,8.0,,,,,,0.68299,PASS,
145,s07_drive_turn,g000017_c7,17,,,,,,,,,0.4808047380673147,0.9409761290828298,,,,,3.3015,12.0496,8.4932,0.0,0.1406,0.007202,0.0,0.93,8.0,,,,,,0.65175,PASS,
146,s07_drive_turn,g000018_c0,18,,,,,,,,,0.1300775088724061,0.9292541070694357,,,,,3.2917,12.0507,8.4817,0.0,0.1244,0.007201,0.0,0.93,8.0,,,,,,0.67867,PASS,
147,s07_drive_turn,g000018_c1,18,,,,,,,,,0.34741599899167164,2.2994050355164037,,,,,3.2952,12.0513,8.4867,0.0,0.1304,0.007202,0.0,0.93,8.0,,,,,,0.63867,PASS,
148,s07_drive_turn,g000018_c2,18,,,,,,,,,0.18290693743064135,0.9150852120044071,,,,,3.2925,12.0492,8.4818,0.0,0.1245,0.007201,0.0,0.93,8.0,,,,,,0.65595,PASS,
149,s07_drive_turn,g000018_c3,18,,,,,,,,,0.6460265967001353,2.7090251261249687,,,,,3.304,12.0456,8.4997,0.0,0.1519,0.007202,0.0,0.93,8.0,,,,,,0.66745,PASS,
150,s07_drive_turn,g000018_c4,18,,,,,,,,,0.5780582336931067,5.089354108094702,,,,,3.3061,12.0446,8.5037,0.0,0.1591,0.007202,0.0,0.93,8.0,,,,,,0.68086,PASS,
151,s07_drive_turn,g000018_c5,18,,,,,,,,,0.13709815900930544,1.2113836653010455,,,,,3.2903,12.0445,8.4818,0.0,0.1244,0.007201,0.0,0.93,8.0,,,,,,0.67388,PASS,
152,s07_drive_turn,g000018_c6,18,,,,,,,,,0.2458163743277379,0.9079692291491351,,,,,3.2939,12.0549,8.4823,0.0,0.1246,0.007201,0.0,0.93,8.0,,,,,,0.63929,PASS,
153,s07_drive_turn,g000018_c7,18,,,,,,,,,0.9531363256197491,1.6138568643327436,,,,,3.3101,12.041,8.505,0.0,0.1643,0.007202,0.0,0.93,8.0,,,,,,0.68531,PASS,
154,s07_drive_turn,g000019_c0,19,,,,,,,,,0.07317970357299439,1.7868394579219027,,,,,3.286,12.0205,8.4806,0.0,0.1242,0.007202,0.0,0.93,8.0,,,,,,0.7225,PASS,
155,s07_drive_turn,g000019_c1,19,,,,,,,,,0.24091252583041892,1.3708919818822858,,,,,3.2923,12.0499,8.4819,0.0,0.1245,0.007202,0.0,0.93,8.0,,,,,,0.63913,PASS,
156,s07_drive_turn,g000019_c2,19,,,,,,,,,0.08417521615750977,4.919435484898624,,,,,3.29,12.0464,8.4802,0.0,0.1242,0.007202,0.0,0.93,8.0,,,,,,0.71135,PASS,
157,s07_drive_turn,g000019_c3,19,,,,,,,,,2.4758170231684877,0.6697586310390209,,,,,3.3201,12.0412,8.5149,0.0,0.1822,0.007202,0.0,0.93,8.0,,,,,,0.71196,PASS,
158,s07_drive_turn,g000019_c4,19,,,,,,,,,0.30185046073384875,1.4601196507804555,,,,,3.2934,12.0527,8.4829,0.0,0.1256,0.007201,0.0,0.93,8.0,,,,,,0.63309,PASS,
159,s07_drive_turn,g000019_c5,19,,,,,,,,,0.6394304854026671,1.7674397432637725,,,,,3.3043,12.051,8.4994,0.0,0.1505,0.007202,0.0,0.93,8.0,,,,,,0.66508,PASS,
160,s07_drive_turn,g000019_c6,19,,,,,,,,,0.7984365214080088,4.661787809918193,,,,,3.3089,12.0368,8.5063,0.0,0.1657,0.007202,0.0,0.93,8.0,,,,,,0.68894,PASS,
161,s07_drive_turn,g000019_c7,19,,,,,,,,,0.5828246149681043,3.3041170273319866,,,,,3.3042,12.0464,8.5001,0.0,0.1525,0.007202,0.0,0.93,8.0,,,,,,0.66957,PASS,
162,s07_drive_turn,g000020_c0,20,,,,,,,,,0.13329466861555192,0.21764904947720037,,,,,3.3022,12.0698,8.4839,0.0,0.125,0.007201,0.0,0.932,8.0,,,,,,0.68947,PASS,
163,s07_drive_turn,g000020_c1,20,,,,,,,,,0.17174538621928664,8.214962956694118,,,,,3.2998,12.0512,8.491,0.0,0.141,0.007202,0.0,0.93,8.0,,,,,,0.69133,PASS,
164,s07_drive_turn,g000020_c2,20,,,,,,,,,1.2359082030348452,1.8329410722018038,,,,,3.3137,12.0422,8.5089,0.0,0.171,0.007202,0.0,0.93,8.0,,,,,,0.69527,PASS,
165,s07_drive_turn,g000020_c3,20,,,,,,,,,0.25653551713846345,8.383335396878833,,,,,3.305,12.0498,8.5017,0.0,0.1558,0.007202,0.0,0.93,8.0,,,,,,0.6947,PASS,
166,s07_drive_turn,g000020_c4,20,,,,,,,,,0.6651044354439314,0.8782766174250469,,,,,3.3069,12.047,8.5005,0.0,0.1531,0.007202,0.0,0.93,8.0,,,,,,0.66939,PASS,
167,s07_drive_turn,g000020_c5,20,,,,,,,,,0.3274319654581674,1.9277171435518137,,,,,3.2944,12.0494,8.4847,0.0,0.1276,0.007202,0.0,0.93,8.0,,,,,,0.63484,PASS,
168,s07_drive_turn,g000020_c6,20,,,,,,,,,0.9443039344535915,0.28154984474726913,,,,,3.3161,12.0439,8.5097,0.0,0.1688,0.007201,0.0,0.93,8.0,,,,,,0.69371,PASS,
169,s07_drive_turn,g000020_c7,20,,,,,,,,,0.31494973240446683,3.222055928047261,,,,,3.295,12.0461,8.4868,0.0,0.1312,0.007202,0.0,0.93,8.0,,,,,,0.64255,PASS,
170,s07_drive_turn,g000021_c0,21,,,,,,,,,0.5452865257796501,1.5982138801860197,,,,,3.3024,12.0493,8.4962,0.0,0.1459,0.007202,0.0,0.93,8.0,,,,,,0.65889,PASS,
171,s07_drive_turn,g000021_c1,21,,,,,,,,,4.912080970410272,0.4594332936377007,,,,,3.0203,9.9395,8.6265,0.0,0.3013,0.007216,0.0,2.012,8.0,,,,,,0.86753,PASS,
172,s07_drive_turn,g000021_c2,21,,,,,,,,,3.196769348469118,0.0699632844835612,,,,,3.3206,12.0398,8.5166,0.0,0.184,0.007202,0.0,0.93,8.0,,,,,,0.71456,PASS,
173,s07_drive_turn,g000021_c3,21,,,,,,,,,0.3158881171807231,1.05286043689556,,,,,3.2947,12.0544,8.4832,0.0,0.1254,0.007201,0.0,0.93,8.0,,,,,,0.63202,PASS,
174,s07_drive_turn,g000021_c4,21,,,,,,,,,2.656741587600625,16.333684769912182,,,,,3.3249,12.0362,8.5256,0.0,0.2025,0.007202,0.0,0.93,8.0,,,,,,0.74514,PASS,
175,s07_drive_turn,g000021_c5,21,,,,,,,,,0.12833923926803512,1.4544615959177598,,,,,3.2893,12.0397,8.4817,0.0,0.1244,0.007201,0.0,0.93,8.0,,,,,,0.67813,PASS,
176,s07_drive_turn,g000021_c6,21,,,,,,,,,2.521163946026635,5.528777049766398,,,,,3.3181,12.0405,8.5161,0.0,0.1838,0.007202,0.0,0.93,8.0,,,,,,0.71461,PASS,
177,s07_drive_turn,g000021_c7,21,,,,,,,,,1.2345022838943491,0.14911260767608864,,,,,3.3184,12.0437,8.5131,0.0,0.1748,0.007201,0.0,0.93,8.0,,,,,,0.70219,PASS,
178,s07_drive_turn,g000022_c0,22,,,,,,,,,1.53731515955785,0.650910304618402,,,,,3.316,12.0441,8.5109,0.0,0.1738,0.007202,0.0,0.93,8.0,,,,,,0.69925,PASS,
179,s07_drive_turn,g000022_c1,22,,,,,,,,,0.1839744183946404,0.929973987356584,,,,,3.2929,12.0495,8.4818,0.0,0.1245,0.007201,0.0,0.93,8.0,,,,,,0.65554,PASS,
180,s07_drive_turn,g000022_c2,22,,,,,,,,,0.21287816423818573,0.01460947375291522,,,,,3.3164,12.072,8.4953,0.0,0.1267,0.007199,0.0,0.932,8.0,,,,,,0.68399,PASS,
181,s07_drive_turn,g000022_c3,22,,,,,,,,,0.7330882498228302,1.687500498071053,,,,,3.3061,12.0436,8.5015,0.0,0.1552,0.007202,0.0,0.93,8.0,,,,,,0.67186,PASS,
182,s07_drive_turn,g000022_c4,22,,,,,,,,,0.07562637002854428,1.5851226613578824,,,,,3.2859,12.0199,8.4809,0.0,0.1242,0.007202,0.0,0.928,8.0,,,,,,0.71964,PASS,
183,s07_drive_turn,g000022_c5,22,,,,,,,,,0.42493588254418346,0.19996538652612192,,,,,3.3087,12.0546,8.4972,0.0,0.1425,0.007201,0.0,0.932,8.0,,,,,,0.66162,PASS,
184,s07_drive_turn,g000022_c6,22,,,,,,,,,1.1128814542040666,0.09971585556304427,,,,,3.3201,12.0454,8.5134,0.0,0.1755,0.007201,0.0,0.93,8.0,,,,,,0.70401,PASS,
185,s07_drive_turn,g000022_c7,22,,,,,,,,,0.003119290558044262,0.2879360628327539,,,,,3.2769,12.1135,8.471,0.0,0.1226,0.007204,0.0,0.924,8.0,,,,,,1.03929,PASS,
186,s07_drive_turn,g000023_c0,23,,,,,,,,,0.021613869609982794,0.04040725020631343,,,,,3.3404,12.1396,8.491,0.0,0.1269,0.007199,0.0,0.94,8.0,,,,,,0.97304,PASS,
187,s07_drive_turn,g000023_c1,23,,,,,,,,,0.4213366706321584,8.559128680945367,,,,,3.3114,12.0438,8.51,0.0,0.1708,0.007202,0.0,0.93,8.0,,,,,,0.70569,PASS,
188,s07_drive_turn,g000023_c2,23,,,,,,,,,0.004558669733070028,0.7859840106556619,,,,,3.2575,12.0282,8.4722,0.0,0.1224,0.007204,0.0,0.924,8.0,,,,,,1.00375,PASS,
189,s07_drive_turn,g000023_c3,23,,,,,,,,,0.05061560173924817,24.481006231266047,,,,,7.467,18.1402,21.0046,0.0,3.5244,0.007564,0.0,0.93,8.0,,,,,,10.06755,PASS,
190,s07_drive_turn,g000023_c4,23,,,,,,,,,0.037869824278797044,0.07367976094739688,,,,,3.3218,12.1176,8.4862,0.0,0.1258,0.0072,0.0,0.936,8.0,,,,,,0.84878,PASS,
191,s07_drive_turn,g000023_c5,23,,,,,,,,,0.18203504720013655,100.0,,,,,8.5179,21.3703,20.5842,0.0,3.4124,0.007433,0.0,1.082,8.0,,,,,,10.44309,PASS,
192,s07_drive_turn,g000023_c6,23,,,,,,,,,0.0015728957088997162,22.266385450145762,,,,,7.8042,21.3699,19.8053,0.0,3.3475,0.007577,0.0,0.932,8.0,,,,,,10.56882,PASS,
193,s07_drive_turn,g000023_c7,23,,,,,,,,,0.04472877081043007,0.28750334274288863,,,,,3.2967,12.0821,8.4813,0.0,0.1244,0.007202,0.0,0.93,8.0,,,,,,0.78162,PASS,
194,s07_drive_turn,g000024_c0,24,,,,,,,,,6.166351494302933,0.8139205601534986,,,,,3.4373,10.6346,9.4809,0.0,0.7936,0.007263,0.0,1.202,8.0,,,,,,1.69913,PASS,
195,s07_drive_turn,g000024_c1,24,,,,,,,,,0.014792582191049591,0.7622473763375979,,,,,3.2694,12.0254,8.4779,0.0,0.1234,0.007202,0.0,0.926,8.0,,,,,,0.89094,PASS,
196,s07_drive_turn,g000024_c2,24,,,,,,,,,0.22334122812173146,0.516414316905099,,,,,3.2964,12.0582,8.4825,0.0,0.1246,0.007201,0.0,0.93,8.0,,,,,,0.64659,PASS,
197,s07_drive_turn,g000024_c3,24,,,,,,,,,32.414454478951896,6.887851763810204,,,,,3.1426,10.2779,8.666,0.0,0.7414,0.007317,0.0,8.0,8.0,,,,,,1.61986,PASS,
198,s07_drive_turn,g000024_c4,24,,,,,,,,,1.4910154599338634,0.1499712148270947,,,,,3.3193,12.0422,8.5142,0.0,0.1781,0.007201,0.0,0.93,8.0,,,,,,0.70648,PASS,
199,s07_drive_turn,g000024_c5,24,,,,,,,,,64.42812135680099,10.312193260190096,,,,,3.4153,9.6551,8.8072,0.0,0.7855,0.007345,0.0,8.0,8.0,,,,,,1.70323,PASS,
200,s07_drive_turn,g000024_c6,24,,,,,,,,,0.06319012157428568,0.21181458123439537,,,,,3.302,12.0845,8.4825,0.0,0.1248,0.007201,0.0,0.932,8.0,,,,,,0.7541,PASS,
201,s07_drive_turn,g000024_c7,24,,,,,,,,,0.8662615700459686,0.02373886380027571,,,,,3.3218,12.0393,8.5138,0.0,0.176,0.007201,0.0,0.93,8.0,,,,,,0.70703,PASS,
202,s07_drive_turn,g000025_c0,25,,,,,,,,,0.010076546637410155,1.3434250393964675,,,,,3.2638,11.9765,8.4743,0.0,0.123,0.007203,0.0,0.928,8.0,,,,,,0.93193,PASS,
203,s07_drive_turn,g000025_c1,25,,,,,,,,,0.19154357046684822,0.90654924524516,,,,,3.2931,12.0499,8.4822,0.0,0.1245,0.007201,0.0,0.93,8.0,,,,,,0.65316,PASS,
204,s07_drive_turn,g000025_c2,25,,,,,,,,,0.24674737361741678,0.3434237216035593,,,,,3.2989,12.0626,8.4838,0.0,0.1248,0.007201,0.0,0.932,8.0,,,,,,0.64384,PASS,
205,s07_drive_turn,g000025_c3,25,,,,,,,,,0.02001811904041479,0.6816242255886616,,,,,3.2749,12.0423,8.4788,0.0,0.1236,0.007202,0.0,0.926,8.0,,,,,,0.85759,PASS,
206,s07_drive_turn,g000025_c4,25,,,,,,,,,0.4804269496296217,3.080153719718339,,,,,3.3027,12.0463,8.4976,0.0,0.1485,0.007202,0.0,0.93,8.0,,,,,,0.66507,PASS,
207,s07_drive_turn,g000025_c5,25,,,,,,,,,0.37459034018829235,0.02325564811796069,,,,,3.3224,12.0595,8.5082,0.0,0.158,0.0072,0.0,0.932,8.0,,,,,,0.69809,PASS,
208,s07_drive_turn,g000025_c6,25,,,,,,,,,0.8272916989308878,60.46276321345798,,,,,3.3528,12.0373,8.5458,0.0,0.2442,0.007203,0.0,0.93,8.0,,,,,,0.83283,PASS,
209,s07_drive_turn,g000025_c7,25,,,,,,,,,100.0,0.5157173124422605,,,,,3.5298,11.5643,8.6126,0.0,0.7833,0.007323,0.0,6.476,8.0,,,,,,1.71933,PASS,
210,s07_drive_turn,g000026_c0,26,,,,,,,,,0.1829979490335761,1.1181432351235066,,,,,3.292,12.0488,8.4819,0.0,0.1245,0.007201,0.0,0.93,8.0,,,,,,0.65545,PASS,
211,s07_drive_turn,g000026_c1,26,,,,,,,,,0.008287476648620434,0.4197213100428304,,,,,3.2731,12.0831,8.4757,0.0,0.1231,0.007203,0.0,0.924,8.0,,,,,,0.95656,PASS,
212,s07_drive_turn,g000026_c2,26,,,,,,,,,0.22669827156367076,0.15899955181751377,,,,,3.3042,12.0669,8.4867,0.0,0.1254,0.007201,0.0,0.932,8.0,,,,,,0.65727,PASS,
213,s07_drive_turn,g000026_c3,26,,,,,,,,,0.13830324247691483,9.232046047602443,,,,,3.3012,12.0532,8.4925,0.0,0.1445,0.007202,0.0,0.93,8.0,,,,,,0.71157,PASS,
214,s07_drive_turn,g000026_c4,26,,,,,,,,,2.033239857454597,6.126192383562204,,,,,3.3186,12.0379,8.5171,0.0,0.1863,0.007202,0.0,0.93,8.0,,,,,,0.71886,PASS,
215,s07_drive_turn,g000026_c5,26,,,,,,,,,0.5154208882693458,0.35555927920193287,,,,,3.3057,12.054,8.4971,0.0,0.1441,0.007201,0.0,0.93,8.0,,,,,,0.65892,PASS,
216,s07_drive_turn,g000026_c6,26,,,,,,,,,0.20652511490099487,0.9907242203123346,,,,,3.2933,12.0535,8.4819,0.0,0.1245,0.007201,0.0,0.93,8.0,,,,,,0.64853,PASS,
217,s07_drive_turn,g000026_c7,26,,,,,,,,,0.04812666505685407,1.5982241648157587,,,,,3.282,12.0067,8.4799,0.0,0.124,0.007202,0.0,0.928,8.0,,,,,,0.76185,PASS,
218,s07_drive_turn,g000027_c0,27,,,,,,,,,0.9943819892183924,0.2410221715088612,,,,,3.3173,12.0414,8.5104,0.0,0.1713,0.007201,0.0,0.93,8.0,,,,,,0.69758,PASS,
219,s07_drive_turn,g000027_c1,27,,,,,,,,,0.1851645648063956,4.447527403960209,,,,,3.2909,12.046,8.4815,0.0,0.1244,0.007202,0.0,0.93,8.0,,,,,,0.65414,PASS,
220,s07_drive_turn,g000027_c2,27,,,,,,,,,0.38798975249953593,14.979464397220141,,,,,3.3289,12.0485,8.5289,0.0,0.2087,0.007202,0.0,0.93,8.0,,,,,,0.77344,PASS,
221,s07_drive_turn,g000027_c3,27,,,,,,,,,0.20756919267322244,3.1638995399514394,,,,,3.2907,12.0413,8.4816,0.0,0.1244,0.007202,0.0,0.93,8.0,,,,,,0.64692,PASS,
222,s07_drive_turn,g000027_c4,27,,,,,,,,,7.096599740606728,0.22008620780896274,,,,,3.2499,10.3231,9.2724,0.0,0.7477,0.007271,0.0,1.28,8.0,,,,,,1.62219,PASS,
223,s07_drive_turn,g000027_c5,27,,,,,,,,,0.07745265456160938,0.04791861904112671,,,,,3.3281,12.0956,8.4972,0.0,0.1272,0.007198,0.0,0.934,8.0,,,,,,0.79046,PASS,
224,s07_drive_turn,g000027_c6,27,,,,,,,,,1.3307818922006656,1.754935824232855,,,,,3.3131,12.043,8.5089,0.0,0.1704,0.007202,0.0,0.93,8.0,,,,,,0.69401,PASS,
225,s07_drive_turn,g000027_c7,27,,,,,,,,,0.2534319546732991,1.3554694754372434,,,,,3.2925,12.0535,8.482,0.0,0.1245,0.007201,0.0,0.93,8.0,,,,,,0.6369,PASS,
226,s07_drive_turn,g000028_c0,28,,,,,,,,,0.618589549128725,0.25851551108571047,,,,,3.3119,12.0557,8.5033,0.0,0.1545,0.007201,0.0,0.93,8.0,,,,,,0.67454,PASS,
227,s07_drive_turn,g000028_c1,28,,,,,,,,,0.24967853529671682,0.34359228765419036,,,,,3.2982,12.06,8.4836,0.0,0.1249,0.007201,0.0,0.932,8.0,,,,,,0.64332,PASS,
228,s07_drive_turn,g000028_c2,28,,,,,,,,,1.0181043387385245,0.5549908373525865,,,,,3.3146,12.0442,8.5077,0.0,0.1679,0.007202,0.0,0.93,8.0,,,,,,0.69131,PASS,
229,s07_drive_turn,g000028_c3,28,,,,,,,,,0.2230133781004407,1.9065959560433121,,,,,3.291,12.0446,8.4817,0.0,0.1245,0.007202,0.0,0.93,8.0,,,,,,0.64305,PASS,
230,s07_drive_turn,g000028_c4,28,,,,,,,,,0.1992712969702597,4.3196751326103255,,,,,3.2907,12.0447,8.4809,0.0,0.1244,0.007202,0.0,0.93,8.0,,,,,,0.64962,PASS,
231,s07_drive_turn,g000028_c5,28,,,,,,,,,0.4202770606293764,1.19533294631557,,,,,3.2987,12.0526,8.4896,0.0,0.1347,0.007201,0.0,0.93,8.0,,,,,,0.64322,PASS,
232,s07_drive_turn,g000028_c6,28,,,,,,,,,0.07460901343806063,0.2576783103645669,,,,,3.3,12.0785,8.4825,0.0,0.1247,0.007201,0.0,0.932,8.0,,,,,,0.73515,PASS,
233,s07_drive_turn,g000028_c7,28,,,,,,,,,0.4537435547362625,3.6297249582065714,,,,,3.3014,12.0447,8.4972,0.0,0.1477,0.007202,0.0,0.93,8.0,,,,,,0.66479,PASS,
234,s07_drive_turn,g000029_c0,29,,,,,,,,,0.5198094523260407,4.2663529782350915,,,,,3.3044,12.0409,8.5008,0.0,0.1544,0.007202,0.0,0.93,8.0,,,,,,0.67424,PASS,
235,s07_drive_turn,g000029_c1,29,,,,,,,,,0.06017148324273705,3.3711744917396733,,,,,3.2868,12.0301,8.4796,0.0,0.1241,0.007202,0.0,0.93,8.0,,,,,,0.74103,PASS,
236,s07_drive_turn,g000029_c2,29,,,,,,,,,0.06796128506616658,1.4395987769699994,,,,,3.2855,12.023,8.481,0.0,0.1242,0.007202,0.0,0.93,8.0,,,,,,0.72935,PASS,
237,s07_drive_turn,g000029_c3,29,,,,,,,,,0.2926945447937604,3.6429278605486894,,,,,3.2951,12.0483,8.487,0.0,0.1318,0.007202,0.0,0.93,8.0,,,,,,0.64571,PASS,
238,s07_drive_turn,g000029_c4,29,,,,,,,,,0.3046663171649383,8.855673406180177,,,,,3.3099,12.0529,8.506,0.0,0.1653,0.007202,0.0,0.93,8.0,,,,,,0.70524,PASS,
239,s07_drive_turn,g000029_c5,29,,,,,,,,,0.23527418833974054,2.334369792524982,,,,,3.2911,12.0446,8.4818,0.0,0.1245,0.007202,0.0,0.93,8.0,,,,,,0.63991,PASS,
240,s07_drive_turn,g000029_c6,29,,,,,,,,,0.19146482670712936,1.8055270996400026,,,,,3.2906,12.0475,8.4817,0.0,0.1244,0.007202,0.0,0.93,8.0,,,,,,0.65171,PASS,
241,s07_drive_turn,g000029_c7,29,,,,,,,,,0.025364002537774186,0.628095029835339,,,,,3.279,12.0519,8.4798,0.0,0.1238,0.007202,0.0,0.926,8.0,,,,,,0.83175,PASS,
242,s07_drive_turn,g000030_c0,30,,,,,,,,,0.4158355258039617,1.595911201171493,,,,,3.2981,12.0485,8.4899,0.0,0.1352,0.007202,0.0,0.93,8.0,,,,,,0.64406,PASS,
243,s07_drive_turn,g000030_c1,30,,,,,,,,,0.3957009327735754,0.3265069968800228,,,,,3.3031,12.0587,8.4907,0.0,0.1338,0.007201,0.0,0.93,8.0,,,,,,0.64576,PASS,
244,s07_drive_turn,g000030_c2,30,,,,,,,,,0.5312599213296696,1.3949511696646049,,,,,3.302,12.0519,8.4955,0.0,0.1442,0.007202,0.0,0.93,8.0,,,,,,0.6563,PASS,
245,s07_drive_turn,g000030_c3,30,,,,,,,,,1.5520470058555036,6.722048280772741,,,,,3.3173,12.0397,8.5162,0.0,0.185,0.007202,0.0,0.93,8.0,,,,,,0.71738,PASS,
246,s07_drive_turn,g000030_c4,30,,,,,,,,,0.9717064545917752,2.487310013355885,,,,,3.3091,12.042,8.5058,0.0,0.164,0.007202,0.0,0.93,8.0,,,,,,0.68476,PASS,
247,s07_drive_turn,g000030_c5,30,,,,,,,,,0.7592335917896319,0.8767224691446038,,,,,3.3074,12.0395,8.5017,0.0,0.1557,0.007201,0.0,0.93,8.0,,,,,,0.67274,PASS,
248,s07_drive_turn,g000030_c6,30,,,,,,,,,0.3465785696503719,2.4589561584190536,,,,,3.2958,12.0497,8.4874,0.0,0.1318,0.007202,0.0,0.93,8.0,,,,,,0.64128,PASS,
249,s07_drive_turn,g000030_c7,30,,,,,,,,,0.4564882386323326,0.6831160286879362,,,,,3.3008,12.0499,8.4914,0.0,0.1372,0.007201,0.0,0.93,8.0,,,,,,0.64703,PASS,
250,s07_drive_turn,g000031_c0,31,,,,,,,,,0.35401609743503015,1.5660781213594344,,,,,3.2952,12.0513,8.4854,0.0,0.1288,0.007202,0.0,0.93,8.0,,,,,,0.63552,PASS,
251,s07_drive_turn,g000031_c1,31,,,,,,,,,0.156086446104798,1.6971371204568302,,,,,3.2901,12.0413,8.4815,0.0,0.1244,0.007202,0.0,0.93,8.0,,,,,,0.66441,PASS,
252,s07_drive_turn,g000031_c2,31,,,,,,,,,0.26361955682084254,2.275899343968452,,,,,3.2919,12.046,8.4822,0.0,0.1246,0.007202,0.0,0.93,8.0,,,,,,0.63504,PASS,
253,s07_drive_turn,g000031_c3,31,,,,,,,,,0.6785695489994736,0.9538794726885989,,,,,3.3077,12.0475,8.5013,0.0,0.1549,0.007202,0.0,0.93,8.0,,,,,,0.67202,PASS,
254,s07_drive_turn,g000031_c4,31,,,,,,,,,0.4404344265244399,0.4398238256083502,,,,,3.3029,12.0561,8.4926,0.0,0.1373,0.007201,0.0,0.93,8.0,,,,,,0.64889,PASS,
255,s07_drive_turn,g000031_c5,31,,,,,,,,,0.23459857967758885,0.8601404267592548,,,,,3.2936,12.0536,8.482,0.0,0.1245,0.007201,0.0,0.93,8.0,,,,,,0.64166,PASS,
256,s07_drive_turn,g000031_c6,31,,,,,,,,,0.7262807967558098,0.3275401073078069,,,,,3.3126,12.05,8.5054,0.0,0.1597,0.007201,0.0,0.93,8.0,,,,,,0.68091,PASS,
257,s07_drive_turn,g000031_c7,31,,,,,,,,,0.1376396350126839,1.0538567633704605,,,,,3.2915,12.0507,8.4819,0.0,0.1244,0.007201,0.0,0.93,8.0,,,,,,0.67415,PASS,
258,s07_drive_turn,g000032_c0,32,,,,,,,,,0.07394451704950906,3.0605890144820824,,,,,3.2871,12.0262,8.4799,0.0,0.1242,0.007202,0.0,0.93,8.0,,,,,,0.72171,PASS,
259,s07_drive_turn,g000032_c1,32,,,,,,,,,0.15702557363841982,1.191754721347361,,,,,3.2913,12.0482,8.4821,0.0,0.1245,0.007201,0.0,0.93,8.0,,,,,,0.66498,PASS,
260,s07_drive_turn,g000032_c2,32,,,,,,,,,1.5092691447735245,1.4379365976720082,,,,,3.314,12.0433,8.5099,0.0,0.1725,0.007202,0.0,0.93,8.0,,,,,,0.6971,PASS,
261,s07_drive_turn,g000032_c3,32,,,,,,,,,0.2529060028019369,1.2978864612730947,,,,,3.2926,12.0536,8.4824,0.0,0.1245,0.007202,0.0,0.93,8.0,,,,,,0.63706,PASS,
262,s07_drive_turn,g000032_c4,32,,,,,,,,,0.21075679168299488,2.554284843040893,,,,,3.2907,12.0446,8.4813,0.0,0.1244,0.007202,0.0,0.93,8.0,,,,,,0.64602,PASS,
263,s07_drive_turn,g000032_c5,32,,,,,,,,,0.8010355399171765,1.0050560494154879,,,,,3.308,12.0455,8.5025,0.0,0.1575,0.007201,0.0,0.93,8.0,,,,,,0.6752,PASS,
264,s07_drive_turn,g000032_c6,32,,,,,,,,,0.44710941406511445,2.5377654636207514,,,,,3.3002,12.0481,8.4939,0.0,0.1425,0.007202,0.0,0.93,8.0,,,,,,0.65552,PASS,
265,s07_drive_turn,g000032_c7,32,,,,,,,,,0.45429755053443455,1.4687956619971405,,,,,3.2995,12.049,8.4923,0.0,0.1391,0.007202,0.0,0.93,8.0,,,,,,0.64945,PASS,
266,s07_drive_turn,g000033_c0,33,,,,,,,,,0.14342358078582546,0.7779292877285318,,,,,3.2929,12.0552,8.4819,0.0,0.1245,0.007201,0.0,0.93,8.0,,,,,,0.67264,PASS,
267,s07_drive_turn,g000033_c1,33,,,,,,,,,0.3363646110382526,0.5418893110331836,,,,,3.2974,12.0564,8.4842,0.0,0.1261,0.007201,0.0,0.93,8.0,,,,,,0.63349,PASS,
268,s07_drive_turn,g000033_c2,33,,,,,,,,,0.4550628836689375,1.015432057975104,,,,,3.3002,12.0496,8.4913,0.0,0.1373,0.007202,0.0,0.93,8.0,,,,,,0.64667,PASS,
269,s07_drive_turn,g000033_c3,33,,,,,,,,,0.13879383496402783,0.8115751226965476,,,,,3.2925,12.0522,8.4822,0.0,0.1245,0.007201,0.0,0.93,8.0,,,,,,0.6747,PASS,
270,s07_drive_turn,g000033_c4,33,,,,,,,,,0.5599604574738485,1.189689133128893,,,,,3.3031,12.0506,8.4961,0.0,0.1454,0.007202,0.0,0.93,8.0,,,,,,0.65791,PASS,
271,s07_drive_turn,g000033_c5,33,,,,,,,,,0.28017908400345193,0.7207825564911885,,,,,3.2949,12.0537,8.4821,0.0,0.1246,0.007201,0.0,0.93,8.0,,,,,,0.63459,PASS,
272,s07_drive_turn,g000033_c6,33,,,,,,,,,0.12997450685575135,0.8457393331550723,,,,,3.292,12.052,8.482,0.0,0.1244,0.007201,0.0,0.93,8.0,,,,,,0.679,PASS,
273,s07_drive_turn,g000033_c7,33,,,,,,,,,0.43310040975883995,3.4827609048642096,,,,,3.3002,12.0442,8.4953,0.0,0.1445,0.007202,0.0,0.93,8.0,,,,,,0.66002,PASS,
274,s07_drive_turn,g000034_c0,34,,,,,,,,,0.2064570794073368,0.9018043340663453,,,,,3.2933,12.0573,8.4821,0.0,0.1245,0.007201,0.0,0.93,8.0,,,,,,0.64883,PASS,
275,s07_drive_turn,g000034_c1,34,,,,,,,,,0.31307841938327324,0.8950889424020516,,,,,3.295,12.051,8.4829,0.0,0.1254,0.007201,0.0,0.93,8.0,,,,,,0.63265,PASS,
276,s07_drive_turn,g000034_c2,34,,,,,,,,,0.31870884864017496,1.1402035780356328,,,,,3.2946,12.0547,8.483,0.0,0.1257,0.007201,0.0,0.93,8.0,,,,,,0.63231,PASS,
277,s07_drive_turn,g000034_c3,34,,,,,,,,,0.29683762989324336,1.1655695266368373,,,,,3.2939,12.0543,8.4825,0.0,0.1248,0.007201,0.0,0.93,8.0,,,,,,0.63224,PASS,
278,s07_drive_turn,g000034_c4,34,,,,,,,,,0.22520783120266216,1.3217987048972537,,,,,3.2923,12.0518,8.4818,0.0,0.1245,0.007201,0.0,0.93,8.0,,,,,,0.64303,PASS,
279,s07_drive_turn,g000034_c5,34,,,,,,,,,0.41456099798391005,1.8885837705519635,,,,,3.2972,12.0461,8.49,0.0,0.1353,0.007202,0.0,0.93,8.0,,,,,,0.64427,PASS,
280,s07_drive_turn,g000034_c6,34,,,,,,,,,0.23869972005793438,1.7331485428409568,,,,,3.2917,12.0489,8.4819,0.0,0.1245,0.007202,0.0,0.93,8.0,,,,,,0.63937,PASS,
281,s07_drive_turn,g000034_c7,34,,,,,,,,,0.17457830252069756,1.0444866090511442,,,,,3.292,12.049,8.4816,0.0,0.1244,0.007201,0.0,0.93,8.0,,,,,,0.6583,PASS,
282,s07_drive_turn,g000035_c0,35,,,,,,,,,0.41749070400417554,0.9287646325158132,,,,,3.2987,12.0488,8.4888,0.0,0.1337,0.007201,0.0,0.93,8.0,,,,,,0.64172,PASS,
283,s07_drive_turn,g000035_c1,35,,,,,,,,,0.3654400922366586,0.8110243953837495,,,,,3.2969,12.0536,8.4853,0.0,0.1284,0.007201,0.0,0.93,8.0,,,,,,0.63494,PASS,
284,s07_drive_turn,g000035_c2,35,,,,,,,,,0.35559732297956126,1.2190945745932034,,,,,3.2959,12.0546,8.4857,0.0,0.1293,0.007202,0.0,0.93,8.0,,,,,,0.63634,PASS,
285,s07_drive_turn,g000035_c3,35,,,,,,,,,0.2753973808279557,2.1230155741053727,,,,,3.2922,12.0479,8.482,0.0,0.1246,0.007202,0.0,0.93,8.0,,,,,,0.63372,PASS,
286,s07_drive_turn,g000035_c4,35,,,,,,,,,0.4250475837725018,1.0129908379583112,,,,,3.299,12.0532,8.49,0.0,0.1347,0.007201,0.0,0.93,8.0,,,,,,0.6431,PASS,
287,s07_drive_turn,g000035_c5,35,,,,,,,,,0.47759019687736903,0.7296670918179711,,,,,3.3027,12.0517,8.494,0.0,0.1417,0.007202,0.0,0.93,8.0,,,,,,0.65382,PASS,
288,s07_drive_turn,g000035_c6,35,,,,,,,,,0.2656207817866655,1.2707007944550923,,,,,3.2932,12.0549,8.4827,0.0,0.1246,0.007202,0.0,0.93,8.0,,,,,,0.63517,PASS,
289,s07_drive_turn,g000035_c7,35,,,,,,,,,0.33980320473164694,1.4204058335021794,,,,,3.2952,12.0508,8.4843,0.0,0.1273,0.007202,0.0,0.93,8.0,,,,,,0.63372,PASS,
290,s07_drive_turn,g000036_c0,36,,,,,,,,,0.39824036171283367,0.9802058386996998,,,,,3.2977,12.0519,8.4876,0.0,0.1319,0.007201,0.0,0.93,8.0,,,,,,0.63937,PASS,
291,s07_drive_turn,g000036_c1,36,,,,,,,,,0.35858323124002667,1.3393557274505687,,,,,3.2961,12.0505,8.4861,0.0,0.1293,0.007202,0.0,0.93,8.0,,,,,,0.63621,PASS,
292,s07_drive_turn,g000036_c2,36,,,,,,,,,0.35953891883056716,0.8109999872249261,,,,,3.2965,12.0547,8.4848,0.0,0.1277,0.007201,0.0,0.93,8.0,,,,,,0.634,PASS,
293,s07_drive_turn,g000036_c3,36,,,,,,,,,0.2615753511701744,1.1047991400936457,,,,,3.2933,12.0511,8.4824,0.0,0.1246,0.007201,0.0,0.93,8.0,,,,,,0.63608,PASS,
294,s07_drive_turn,g000036_c4,36,,,,,,,,,0.33347729589772557,0.9171911720148399,,,,,3.2953,12.0516,8.4839,0.0,0.1263,0.007201,0.0,0.932,8.0,,,,,,0.63268,PASS,
295,s07_drive_turn,g000036_c5,36,,,,,,,,,0.2568501896477244,0.7250774997203258,,,,,3.2948,12.0542,8.4824,0.0,0.1246,0.007201,0.0,0.93,8.0,,,,,,0.63803,PASS,
296,s07_drive_turn,g000036_c6,36,,,,,,,,,0.3179895190033474,0.8507397978024552,,,,,3.2953,12.0526,8.483,0.0,0.1255,0.007201,0.0,0.93,8.0,,,,,,0.63253,PASS,
297,s07_drive_turn,g000036_c7,36,,,,,,,,,0.33755874647316253,1.1269158670427653,,,,,3.2953,12.0514,8.4845,0.0,0.1273,0.007202,0.0,0.93,8.0,,,,,,0.63388,PASS,
298,s07_drive_turn,g000037_c0,37,,,,,,,,,0.25783419433388677,0.7430375295274155,,,,,3.2946,12.054,8.4824,0.0,0.1246,0.007201,0.0,0.93,8.0,,,,,,0.63771,PASS,
299,s07_drive_turn,g000037_c1,37,,,,,,,,,0.3911036531183181,0.7463738566082329,,,,,3.2992,12.0515,8.4887,0.0,0.133,0.007201,0.0,0.93,8.0,,,,,,0.64192,PASS,
300,s07_drive_turn,g000037_c2,37,,,,,,,,,0.28754293691404975,0.8917932001834614,,,,,3.2943,12.0528,8.4821,0.0,0.1246,0.007201,0.0,0.93,8.0,,,,,,0.63333,PASS,
301,s07_drive_turn,g000037_c3,37,,,,,,,,,0.298948204681653,0.6973864408439727,,,,,3.2952,12.0568,8.4829,0.0,0.1248,0.007201,0.0,0.93,8.0,,,,,,0.63312,PASS,
302,s07_drive_turn,g000037_c4,37,,,,,,,,,0.37368360497390274,0.9983891692526857,,,,,3.2972,12.0531,8.4864,0.0,0.1301,0.007202,0.0,0.93,8.0,,,,,,0.63722,PASS,
303,s07_drive_turn,g000037_c5,37,,,,,,,,,0.3119956994758187,1.1113890008340213,,,,,3.2943,12.0509,8.4827,0.0,0.1252,0.007201,0.0,0.93,8.0,,,,,,0.63198,PASS,
304,s07_drive_turn,g000037_c6,37,,,,,,,,,0.34261504770472107,1.2641924340368433,,,,,3.2951,12.053,8.4845,0.0,0.1273,0.007202,0.0,0.93,8.0,,,,,,0.63356,PASS,
305,s07_drive_turn,g000037_c7,37,,,,,,,,,0.3901919605079483,1.470643769367881,,,,,3.2975,12.0498,8.4887,0.0,0.1334,0.007202,0.0,0.93,8.0,,,,,,0.6419,PASS,
306,s07_drive_turn,g000038_c0,38,,,,,,,,,0.40578082777209323,1.067260284491995,,,,,3.2984,12.0498,8.4892,0.0,0.134,0.007201,0.0,0.93,8.0,,,,,,0.64244,PASS,
307,s07_drive_turn,g000038_c1,38,,,,,,,,,0.2876783235888698,1.2302714577879341,,,,,3.2938,12.0502,8.4827,0.0,0.1247,0.007201,0.0,0.93,8.0,,,,,,0.63298,PASS,
308,s07_drive_turn,g000038_c2,38,,,,,,,,,0.3216991132942662,1.142426375326072,,,,,3.2943,12.0522,8.4831,0.0,0.1258,0.007202,0.0,0.93,8.0,,,,,,0.63228,PASS,
309,s07_drive_turn,g000038_c3,38,,,,,,,,,0.2960035307311132,1.2165101275781962,,,,,3.2937,12.052,8.4826,0.0,0.1248,0.007201,0.0,0.93,8.0,,,,,,0.63222,PASS,
310,s07_drive_turn,g000038_c4,38,,,,,,,,,0.287453742360117,1.1644565392132196,,,,,3.2933,12.0563,8.4823,0.0,0.1246,0.007201,0.0,0.93,8.0,,,,,,0.63278,PASS,
311,s07_drive_turn,g000038_c5,38,,,,,,,,,0.3007636534658978,0.9280540119494556,,,,,3.2946,12.0533,8.4825,0.0,0.1248,0.007201,0.0,0.93,8.0,,,,,,0.63231,PASS,
312,s07_drive_turn,g000038_c6,38,,,,,,,,,0.3155788110683536,1.2753525152147571,,,,,3.2942,12.0513,8.4831,0.0,0.1259,0.007202,0.0,0.93,8.0,,,,,,0.63287,PASS,
313,s07_drive_turn,g000038_c7,38,,,,,,,,,0.37154924267012596,0.8434946413349909,,,,,3.2977,12.0543,8.4869,0.0,0.1302,0.007202,0.0,0.93,8.0,,,,,,0.63772,PASS,
314,s07_drive_turn,g000039_c0,39,,,,,,,,,0.3339986551676676,0.9933397134152654,,,,,3.2949,12.056,8.4835,0.0,0.1262,0.007201,0.0,0.93,8.0,,,,,,0.63234,PASS,
315,s07_drive_turn,g000039_c1,39,,,,,,,,,0.4059465821177354,1.398333866767199,,,,,3.2975,12.0523,8.4884,0.0,0.1332,0.007202,0.0,0.93,8.0,,,,,,0.641,PASS,
316,s07_drive_turn,g000039_c2,39,,,,,,,,,0.29542498841803366,1.5230609450367483,,,,,3.2928,12.0482,8.4825,0.0,0.1251,0.007202,0.0,0.93,8.0,,,,,,0.63273,PASS,
317,s07_drive_turn,g000039_c3,39,,,,,,,,,0.2903706695368592,1.0930117374122936,,,,,3.294,12.0512,8.4827,0.0,0.1247,0.007201,0.0,0.93,8.0,,,,,,0.63285,PASS,
318,s07_drive_turn,g000039_c4,39,,,,,,,,,0.32055291124872437,1.0204340545683674,,,,,3.295,12.0531,8.4832,0.0,0.1255,0.007201,0.0,0.93,8.0,,,,,,0.63205,PASS,
319,s07_drive_turn,g000039_c5,39,,,,,,,,,0.3653884636927585,1.2661407448970243,,,,,3.2958,12.0522,8.4854,0.0,0.1291,0.007202,0.0,0.93,8.0,,,,,,0.63558,PASS,
320,s07_drive_turn,g000039_c6,39,,,,,,,,,0.2932717996335945,0.9477822805236946,,,,,3.2946,12.0582,8.4825,0.0,0.1247,0.007201,0.0,0.93,8.0,,,,,,0.63291,PASS,
321,s07_drive_turn,g000039_c7,39,,,,,,,,,0.3340204732579929,1.1592041304822316,,,,,3.2951,12.0555,8.4838,0.0,0.1266,0.007201,0.0,0.93,8.0,,,,,,0.63281,PASS,
322,s07_drive_turn,g000040_c0,40,,,,,,,,,0.28297878665321563,1.2271429535243925,,,,,3.293,12.0497,8.4821,0.0,0.1245,0.007201,0.0,0.93,8.0,,,,,,0.63305,PASS,
323,s07_drive_turn,g000040_c1,40,,,,,,,,,0.36386071982515084,1.3503526710430493,,,,,3.2959,12.0485,8.4861,0.0,0.1298,0.007201,0.0,0.93,8.0,,,,,,0.63679,PASS,
324,s07_drive_turn,g000040_c2,40,,,,,,,,,0.31461243759920854,1.003557943613131,,,,,3.2945,12.0523,8.483,0.0,0.1252,0.007201,0.0,0.93,8.0,,,,,,0.63185,PASS,
325,s07_drive_turn,g000040_c3,40,,,,,,,,,0.3111394531981695,1.257423199573472,,,,,3.2941,12.054,8.4831,0.0,0.1256,0.007202,0.0,0.93,8.0,,,,,,0.63256,PASS,
326,s07_drive_turn,g000040_c4,40,,,,,,,,,0.278997798557857,1.0084810537767175,,,,,3.2939,12.0537,8.4822,0.0,0.1246,0.007201,0.0,0.93,8.0,,,,,,0.63404,PASS,
327,s07_drive_turn,g000040_c5,40,,,,,,,,,0.3030512594325893,0.9739512380721685,,,,,3.2946,12.0561,8.4828,0.0,0.1251,0.007201,0.0,0.93,8.0,,,,,,0.63261,PASS,
328,s07_drive_turn,g000040_c6,40,,,,,,,,,0.3141775421704787,0.9771076289334968,,,,,3.2951,12.0519,8.483,0.0,0.1255,0.007201,0.0,0.93,8.0,,,,,,0.63251,PASS,
329,s07_drive_turn,g000040_c7,40,,,,,,,,,0.3388154996848178,0.837514969024637,,,,,3.2962,12.0555,8.4842,0.0,0.1268,0.007201,0.0,0.93,8.0,,,,,,0.63337,PASS,
330,s07_drive_turn,g000041_c0,41,,,,,,,,,0.31077712608856917,1.0418109567362006,,,,,3.2939,12.052,8.4824,0.0,0.125,0.007201,0.0,0.93,8.0,,,,,,0.63164,PASS,
331,s07_drive_turn,g000041_c1,41,,,,,,,,,0.33102127810542026,0.9641944276791131,,,,,3.295,12.0525,8.4838,0.0,0.1262,0.007201,0.0,0.93,8.0,,,,,,0.6325,PASS,
332,s07_drive_turn,g000041_c2,41,,,,,,,,,0.3237348560712696,1.1725296078845338,,,,,3.2945,12.0546,8.483,0.0,0.1259,0.007201,0.0,0.93,8.0,,,,,,0.6323,PASS,
333,s07_drive_turn,g000041_c3,41,,,,,,,,,0.33594559682235836,1.038632479766881,,,,,3.2946,12.0515,8.4835,0.0,0.1264,0.007201,0.0,0.93,8.0,,,,,,0.63246,PASS,
334,s07_drive_turn,g000041_c4,41,,,,,,,,,0.2844266309267814,1.1294238266442527,,,,,3.2935,12.052,8.4824,0.0,0.1247,0.007201,0.0,0.93,8.0,,,,,,0.6334,PASS,
335,s07_drive_turn,g000041_c5,41,,,,,,,,,0.33808619779334675,1.1932661051930629,,,,,3.2954,12.0535,8.4843,0.0,0.1272,0.007202,0.0,0.93,8.0,,,,,,0.63374,PASS,
336,s07_drive_turn,g000041_c6,41,,,,,,,,,0.2935720036814707,0.9770825760349016,,,,,3.2942,12.0504,8.4823,0.0,0.1246,0.007201,0.0,0.93,8.0,,,,,,0.63257,PASS,
337,s07_drive_turn,g000041_c7,41,,,,,,,,,0.2719364566313167,0.8999073458124403,,,,,3.2945,12.0555,8.4827,0.0,0.1246,0.007201,0.0,0.93,8.0,,,,,,0.635,PASS,
338,s07_drive_turn,g000042_c0,42,,,,,,,,,0.2689635347356592,0.9035481795492927,,,,,3.2944,12.0571,8.4822,0.0,0.1245,0.007201,0.0,0.93,8.0,,,,,,0.63529,PASS,
339,s07_drive_turn,g000042_c1,42,,,,,,,,,0.36427333657262434,1.184308230611449,,,,,3.2958,12.0519,8.4855,0.0,0.1291,0.007201,0.0,0.93,8.0,,,,,,0.63573,PASS,
340,s07_drive_turn,g000042_c2,42,,,,,,,,,0.26603541047982326,0.9125514303816309,,,,,3.2939,12.0561,8.4822,0.0,0.1245,0.007201,0.0,0.93,8.0,,,,,,0.63569,PASS,
341,s07_drive_turn,g000042_c3,42,,,,,,,,,0.3380527472821186,0.8995646595098223,,,,,3.2955,12.0556,8.4841,0.0,0.1268,0.007201,0.0,0.93,8.0,,,,,,0.6333,PASS,
342,s07_drive_turn,g000042_c4,42,,,,,,,,,0.3168242170350283,1.226293625151465,,,,,3.2939,12.0506,8.4827,0.0,0.1252,0.007201,0.0,0.93,8.0,,,,,,0.63149,PASS,
343,s07_drive_turn,g000042_c5,42,,,,,,,,,0.32945782110242955,1.133664553283571,,,,,3.2949,12.0532,8.4838,0.0,0.1267,0.007201,0.0,0.93,8.0,,,,,,0.63339,PASS,
344,s07_drive_turn,g000042_c6,42,,,,,,,,,0.27250948602502273,1.087750040156542,,,,,3.294,12.058,8.4825,0.0,0.1246,0.007201,0.0,0.93,8.0,,,,,,0.63465,PASS,
345,s07_drive_turn,g000042_c7,42,,,,,,,,,0.3122998108500697,1.0540084378657426,,,,,3.2948,12.0574,8.4828,0.0,0.1252,0.007201,0.0,0.93,8.0,,,,,,0.63203,PASS,
346,s07_drive_turn,g000043_c0,43,,,,,,,,,0.2963680676035811,0.9810345716371932,,,,,3.2944,12.0553,8.4825,0.0,0.1248,0.007201,0.0,0.93,8.0,,,,,,0.63259,PASS,
347,s07_drive_turn,g000043_c1,43,,,,,,,,,0.3145058773820391,1.230769694005867,,,,,3.2949,12.0565,8.4834,0.0,0.126,0.007202,0.0,0.93,8.0,,,,,,0.63324,PASS,
348,s07_drive_turn,g000043_c2,43,,,,,,,,,0.28876198384345797,1.4931923452455949,,,,,3.2927,12.0483,8.4823,0.0,0.1248,0.007201,0.0,0.93,8.0,,,,,,0.63272,PASS,
349,s07_drive_turn,g000043_c3,43,,,,,,,,,0.3555585257630946,1.4435959029625467,,,,,3.2955,12.0509,8.4851,0.0,0.1287,0.007202,0.0,0.93,8.0,,,,,,0.63525,PASS,
350,s07_drive_turn,g000043_c4,43,,,,,,,,,0.3322525424952192,1.4870137447923648,,,,,3.2951,12.0533,8.4849,0.0,0.1281,0.007202,0.0,0.93,8.0,,,,,,0.63551,PASS,
351,s07_drive_turn,g000043_c5,43,,,,,,,,,0.28494407210159967,0.9770568494269521,,,,,3.2942,12.0527,8.4823,0.0,0.1246,0.007201,0.0,0.93,8.0,,,,,,0.63347,PASS,
352,s07_drive_turn,g000043_c6,43,,,,,,,,,0.3300328121298198,1.1817162304081783,,,,,3.2949,12.0533,8.4842,0.0,0.1267,0.007201,0.0,0.93,8.0,,,,,,0.63324,PASS,
353,s07_drive_turn,g000043_c7,43,,,,,,,,,0.31167601044369214,1.5631583490296337,,,,,3.2933,12.0469,8.4825,0.0,0.1255,0.007202,0.0,0.93,8.0,,,,,,0.63218,PASS,
354,s07_drive_turn,g000044_c0,44,,,,,,,,,0.3360585878392306,1.303228511759498,,,,,3.2952,12.0514,8.4845,0.0,0.1273,0.007202,0.0,0.93,8.0,,,,,,0.63387,PASS,
355,s07_drive_turn,g000044_c1,44,,,,,,,,,0.3875587256040989,0.8913949542252272,,,,,3.2976,12.0511,8.4872,0.0,0.1307,0.007201,0.0,0.93,8.0,,,,,,0.63771,PASS,
356,s07_drive_turn,g000044_c2,44,,,,,,,,,0.28378878273353014,1.0148089299612035,,,,,3.2942,12.0581,8.4824,0.0,0.1246,0.007201,0.0,0.93,8.0,,,,,,0.63347,PASS,
357,s07_drive_turn,g000044_c3,44,,,,,,,,,0.38067545300742756,1.1773593837805443,,,,,3.2977,12.0544,8.4878,0.0,0.1322,0.007202,0.0,0.93,8.0,,,,,,0.64027,PASS,
358,s07_drive_turn,g000044_c4,44,,,,,,,,,0.3523634027975896,1.1695277863326539,,,,,3.2961,12.0541,8.4851,0.0,0.1287,0.007202,0.0,0.93,8.0,,,,,,0.63561,PASS,
359,s07_drive_turn,g000044_c5,44,,,,,,,,,0.36081190394523405,1.0368506365291383,,,,,3.2959,12.0506,8.4854,0.0,0.1286,0.007202,0.0,0.93,8.0,,,,,,0.63514,PASS,
360,s07_drive_turn,g000044_c6,44,,,,,,,,,0.3715314533730817,1.2297245216017525,,,,,3.2959,12.0468,8.4859,0.0,0.1297,0.007201,0.0,0.93,8.0,,,,,,0.63634,PASS,
361,s07_drive_turn,g000044_c7,44,,,,,,,,,0.2838973571650497,1.03982188475937,,,,,3.2941,12.0585,8.4824,0.0,0.1246,0.007201,0.0,0.93,8.0,,,,,,0.63346,PASS,
362,s07_drive_turn,g000045_c0,45,,,,,,,,,0.32728344868076364,0.870822772410462,,,,,3.2957,12.0601,8.4835,0.0,0.1259,0.007201,0.0,0.93,8.0,,,,,,0.63257,PASS,
363,s07_drive_turn,g000045_c1,45,,,,,,,,,0.2726396915494557,1.4986474030475312,,,,,3.2925,12.0482,8.4818,0.0,0.1245,0.007201,0.0,0.93,8.0,,,,,,0.63405,PASS,
364,s07_drive_turn,g000045_c2,45,,,,,,,,,0.2846735971521467,1.6381108655594208,,,,,3.2926,12.0505,8.4825,0.0,0.1248,0.007202,0.0,0.93,8.0,,,,,,0.63316,PASS,
365,s07_drive_turn,g000045_c3,45,,,,,,,,,0.23457708141976547,0.9682476595009911,,,,,3.2935,12.0535,8.4821,0.0,0.1245,0.007201,0.0,0.93,8.0,,,,,,0.64135,PASS,
366,s07_drive_turn,g000045_c4,45,,,,,,,,,0.3217249830162748,1.5674588711844855,,,,,3.2939,12.048,8.4834,0.0,0.1263,0.007202,0.0,0.93,8.0,,,,,,0.63299,PASS,
367,s07_drive_turn,g000045_c5,45,,,,,,,,,0.5361189626786939,1.3179074178590018,,,,,3.3028,12.0516,8.4965,0.0,0.146,0.007202,0.0,0.93,8.0,,,,,,0.65923,PASS,
368,s07_drive_turn,g000045_c6,45,,,,,,,,,0.2402990382241122,1.063437138087381,,,,,3.2932,12.0547,8.4819,0.0,0.1245,0.007201,0.0,0.93,8.0,,,,,,0.63982,PASS,
369,s07_drive_turn,g000045_c7,45,,,,,,,,,0.37902554714761355,1.1636739017463298,,,,,3.2979,12.0542,8.4877,0.0,0.1322,0.007202,0.0,0.93,8.0,,,,,,0.64044,PASS,
370,s07_drive_turn,g000046_c0,46,,,,,,,,,0.35420292294078826,1.540271280880307,,,,,3.2954,12.0518,8.4858,0.0,0.1289,0.007202,0.0,0.93,8.0,,,,,,0.63569,PASS,
371,s07_drive_turn,g000046_c1,46,,,,,,,,,0.30646931705429925,1.1850017747684976,,,,,3.294,12.0519,8.4825,0.0,0.125,0.007201,0.0,0.93,8.0,,,,,,0.63195,PASS,
372,s07_drive_turn,g000046_c2,46,,,,,,,,,0.45890160595791873,0.6594879197273452,,,,,3.3007,12.0513,8.4912,0.0,0.137,0.007201,0.0,0.93,8.0,,,,,,0.64672,PASS,
373,s07_drive_turn,g000046_c3,46,,,,,,,,,0.4336632752925254,1.6371041360136116,,,,,3.2979,12.0487,8.4904,0.0,0.1359,0.007202,0.0,0.93,8.0,,,,,,0.64464,PASS,
374,s07_drive_turn,g000046_c4,46,,,,,,,,,0.2280918595802017,1.27313423503126,,,,,3.2924,12.0496,8.4818,0.0,0.1245,0.007201,0.0,0.93,8.0,,,,,,0.64229,PASS,
375,s07_drive_turn,g000046_c5,46,,,,,,,,,0.34696242878247885,1.5462931478027533,,,,,3.2952,12.0472,8.485,0.0,0.1288,0.007202,0.0,0.93,8.0,,,,,,0.63582,PASS,
376,s07_drive_turn,g000046_c6,46,,,,,,,,,0.2428334656271195,0.8792156696009655,,,,,3.2939,12.0537,8.4821,0.0,0.1245,0.007201,0.0,0.93,8.0,,,,,,0.63974,PASS,
377,s07_drive_turn,g000046_c7,46,,,,,,,,,0.49174081901769157,2.0425471751212463,,,,,3.3006,12.0478,8.4945,0.0,0.1427,0.007202,0.0,0.93,8.0,,,,,,0.65481,PASS,
378,s07_drive_turn,g000047_c0,47,,,,,,,,,0.23549108356307072,1.5030092030768214,,,,,3.292,12.0526,8.4818,0.0,0.1245,0.007202,0.0,0.93,8.0,,,,,,0.6403,PASS,
379,s07_drive_turn,g000047_c1,47,,,,,,,,,0.3024600237253865,1.279934738410092,,,,,3.294,12.058,8.4827,0.0,0.1251,0.007201,0.0,0.93,8.0,,,,,,0.63225,PASS,
380,s07_drive_turn,g000047_c2,47,,,,,,,,,0.27765280887676397,1.4240180768518933,,,,,3.2931,12.0488,8.4823,0.0,0.1246,0.007201,0.0,0.93,8.0,,,,,,0.63366,PASS,
381,s07_drive_turn,g000047_c3,47,,,,,,,,,0.36714807787835263,1.8450742174855992,,,,,3.2957,12.0551,8.4866,0.0,0.1306,0.007202,0.0,0.93,8.0,,,,,,0.63797,PASS,
382,s07_drive_turn,g000047_c4,47,,,,,,,,,0.2738862349093057,1.0031310429784792,,,,,3.2943,12.0554,8.4824,0.0,0.1245,0.007201,0.0,0.93,8.0,,,,,,0.63438,PASS,
