run_id,scenario,label,gen,timestamp,Q_PITCH,Q_PITCH_RATE,Q_VEL,R,KP_V,KI_V,KFF_V,KP_YAW,KI_YAW,LEG_K_S,LEG_B_S,LEG_K_ROLL,LEG_D_ROLL,rms_pitch_deg,max_pitch_deg,wheel_travel_m,wheel_liftoff_s,vel_track_rms_ms,hip_track_rms_rad,hip_cmd_rate_rms,settle_time_s,survived_s,fitness_balance,fitness_disturbance,fitness_drive_slow,fitness_drive_med,fitness_obstacle,fitness,status,fail_reason
1,s01_lqr_pitch_step,evo_seed,0,,0.01,0.1884,0.00508442,100.0,,,,,,,,,,4.7346,6.6321,3.4366,0.0,0.7753,0.119324,0.0,5.0,5.0,,,,,,5.1378,PASS,
2,s01_lqr_pitch_step,g000000_c0,0,,0.01,0.15448069435572168,0.00029492564840508535,100.0,,,,,,,,,,4.5867,6.4371,3.6144,0.0,0.8173,0.11926,0.0,0.078,5.0,,,,,,4.870425,PASS,
3,s01_lqr_pitch_step,g000000_c1,0,,0.01,0.5130493515556687,0.0003080413468476157,100.0,,,,,,,,,,4.5873,6.4367,3.6129,0.0,0.8169,0.11925,0.0,0.078,5.0,,,,,,4.918325,PASS,
4,s01_lqr_pitch_step,g000000_c2,0,,0.03344493446605964,0.4371341415558432,0.012183677899200407,71.31337546110143,,,,,,,,,,4.8747,6.8269,3.2512,0.0,0.7323,0.119229,0.0,5.0,5.0,,,,,,5.3453,PASS,
5,s01_lqr_pitch_step,g000000_c3,0,,0.15626724260971903,0.001,0.36589770937743366,100.0,,,,,,,,,,5.4357,7.7565,2.251,0.0,0.5089,0.118488,0.0,5.0,5.0,,,,,,7.262725,PASS,
6,s01_lqr_pitch_step,g000000_c4,0,,0.01,0.711660739634208,0.010910504841505674,3.8617663201932833,,,,,,,,,,5.4058,7.6657,2.4511,0.0,0.5365,0.120475,0.0,5.0,5.0,,,,,,7.67725,PASS,
7,s01_lqr_pitch_step,g000000_c5,0,,0.012038215892620016,0.9130915202584224,0.0008668320793264415,100.0,,,,,,,,,,4.6233,6.4849,3.5725,0.0,0.8074,0.119275,0.0,0.078,5.0,,,,,,4.932225,PASS,
8,s01_lqr_pitch_step,g000000_c6,0,,0.40667669891528335,10.0,0.023084963244723145,25.092351498200888,,,,,,,,,,5.1711,7.2748,2.8335,0.0,0.6368,0.119307,0.0,5.0,5.0,,,,,,6.405775,PASS,
9,s01_lqr_pitch_step,g000000_c7,0,,0.017280255036663784,3.6326936088137676,0.026396068321535522,41.494345660844075,,,,,,,,,,5.0953,7.1545,2.9284,0.0,0.6576,0.118968,0.0,5.0,5.0,,,,,,6.105175,PASS,
10,s01_lqr_pitch_step,g000001_c0,1,,0.01,1.2023973307516578,0.00014266068599061852,29.61941217072716,,,,,,,,,,4.5998,6.4525,3.6003,0.0,0.8139,0.119248,0.0,0.078,5.0,,,,,,4.8908,PASS,
11,s01_lqr_pitch_step,g000001_c1,1,,0.01,0.03910006418069465,0.0030203712255222684,100.0,,,,,,,,,,4.6922,6.5709,3.4831,0.0,0.7862,0.119186,0.0,5.0,5.0,,,,,,5.03505,PASS,
12,s01_lqr_pitch_step,g000001_c2,1,,0.01,1.3326805428465178,0.0013889606921352834,30.577490561341254,,,,,,,,,,4.7239,6.6171,3.4469,0.0,0.7777,0.119226,0.0,5.0,5.0,,,,,,5.10155,PASS,
13,s01_lqr_pitch_step,g000001_c3,1,,0.10671847276993086,0.00637857071844562,7.92760159191025e-05,100.0,,,,,,,,,,4.5623,6.4084,3.6407,0.0,0.8236,0.119196,0.0,0.078,5.0,,,,,,4.8256,PASS,
14,s01_lqr_pitch_step,g000001_c4,1,,0.013476343903120675,5.503463180961026,0.00014055325231698596,100.0,,,,,,,,,,4.5698,6.4162,3.6354,0.0,0.8222,0.119254,0.0,0.078,5.0,,,,,,4.840725,PASS,
15,s01_lqr_pitch_step,g000001_c5,1,,0.01,0.5813317993409992,0.0005417883560305102,100.0,,,,,,,,,,4.6042,6.4583,3.5927,0.0,0.8121,0.119228,0.0,0.078,5.0,,,,,,4.8919,PASS,
16,s01_lqr_pitch_step,g000001_c6,1,,0.01,0.2280127365007498,6.202739264853724e-06,100.0,,,,,,,,,,4.5418,6.3879,3.6676,0.0,0.83,0.119268,0.0,0.078,5.0,,,,,,4.85865,PASS,
17,s01_lqr_pitch_step,g000001_c7,1,,0.015462592414529665,0.25550035390664455,0.0006076200902350958,15.611099194736477,,,,,,,,,,4.7118,6.6026,3.459,0.0,0.7805,0.119194,0.0,5.0,5.0,,,,,,5.0883,PASS,
18,s01_lqr_pitch_step,g000002_c0,2,,0.01,0.001,0.0004858133181537718,79.01554260988799,,,,,,,,,,4.6086,6.4625,3.5873,0.0,0.8109,0.11924,0.0,0.078,5.0,,,,,,4.90235,PASS,
19,s01_lqr_pitch_step,g000002_c1,2,,0.01,0.001,0.0004712103029175534,100.0,,,,,,,,,,4.5996,6.452,3.6006,0.0,0.814,0.119292,0.0,0.078,5.0,,,,,,4.890075,PASS,
20,s01_lqr_pitch_step,g000002_c2,2,,0.01,0.14435781695889643,7.379721034911974e-07,100.0,,,,,,,,,,4.5367,6.3863,3.6733,0.0,0.8314,0.119272,0.0,0.078,5.0,,,,,,4.790675,PASS,
21,s01_lqr_pitch_step,g000002_c3,2,,0.01,0.001,0.000265025865215721,22.73421851549622,,,,,,,,,,4.6358,6.5006,3.5554,0.0,0.8033,0.119253,0.0,5.0,5.0,,,,,,4.98085,PASS,
22,s01_lqr_pitch_step,g000002_c4,2,,0.21685017409446664,0.024704899864811256,0.00016176639789850297,4.996447694422201,,,,,,,,,,4.697,6.5809,3.4772,0.0,0.7848,0.119196,0.0,5.0,5.0,,,,,,5.055975,PASS,
23,s01_lqr_pitch_step,g000002_c5,2,,0.01,0.00318742408796638,0.00126196990774546,11.254976100907466,,,,,,,,,,4.8187,6.7471,3.3271,0.0,0.7498,0.119276,0.0,5.0,5.0,,,,,,5.318575,PASS,
24,s01_lqr_pitch_step,g000002_c6,2,,1.2199282847886963,0.0012235732239502452,0.001651775606092208,100.0,,,,,,,,,,4.6533,6.5212,3.5329,0.0,0.7979,0.11922,0.0,5.0,5.0,,,,,,5.0444,PASS,
25,s01_lqr_pitch_step,g000002_c7,2,,0.17596951540942954,0.005764954877275223,0.0035164458929654308,27.400125022418667,,,,,,,,,,4.8357,6.7714,3.3049,0.0,0.7445,0.119296,0.0,5.0,5.0,,,,,,5.423925,PASS,
26,s01_lqr_pitch_step,g000003_c0,3,,0.01,0.12358736009562636,1.588941684316396e-07,41.20036074134959,,,,,,,,,,4.5372,6.3858,3.6747,0.0,0.8317,0.119282,0.0,0.078,5.0,,,,,,4.79555,PASS,
27,s01_lqr_pitch_step,g000003_c1,3,,0.5143525482988888,10.0,2.449323596124229e-05,100.0,,,,,,,,,,4.5494,6.3963,3.6629,0.0,0.8287,0.119276,0.0,0.08,5.0,,,,,,4.827675,PASS,
28,s01_lqr_pitch_step,g000003_c2,3,,0.01717440202560257,0.11659971632210779,4.366612103528889e-06,100.0,,,,,,,,,,4.5402,6.3881,3.6703,0.0,0.8307,0.119287,0.0,0.078,5.0,,,,,,4.81,PASS,
29,s01_lqr_pitch_step,g000003_c3,3,,0.39435335593926835,2.581357334533907,1e-07,100.0,,,,,,,,,,4.5359,6.3841,3.6767,0.0,0.8321,0.119281,0.0,0.078,5.0,,,,,,4.78375,PASS,
30,s01_lqr_pitch_step,g000003_c4,3,,0.016951928856936565,0.06840411099022195,3.1459923772378513e-06,100.0,,,,,,,,,,4.5393,6.3854,3.6695,0.0,0.8304,0.119266,0.0,0.078,5.0,,,,,,4.79805,PASS,
31,s01_lqr_pitch_step,g000003_c5,3,,0.01,0.0011749963199636547,1e-07,67.85798620633776,,,,,,,,,,4.5357,6.3847,3.6761,0.0,0.8321,0.119313,0.0,0.078,5.0,,,,,,4.80505,PASS,
32,s01_lqr_pitch_step,g000003_c6,3,,0.01,0.25279479358740414,1.8957292119615496e-06,100.0,,,,,,,,,,4.5389,6.3867,3.6713,0.0,0.8309,0.119265,0.0,0.078,5.0,,,,,,4.796775,PASS,
33,s01_lqr_pitch_step,g000003_c7,3,,0.01,0.5846381603110778,0.0001107884263839791,100.0,,,,,,,,,,4.5665,6.4164,3.639,0.0,0.8232,0.119265,0.0,0.078,5.0,,,,,,4.841275,PASS,
34,s01_lqr_pitch_step,g000004_c0,4,,0.3222063110043537,10.0,1e-07,59.68939363178096,,,,,,,,,,4.5338,6.383,3.6979,0.0,0.8368,0.11974,0.0,0.08,5.0,,,,,,4.7651,PASS,
35,s01_lqr_pitch_step,g000004_c1,4,,0.01,7.870131771327297,1e-07,100.0,,,,,,,,,,4.5347,6.383,3.6786,0.0,0.8325,0.119279,0.0,0.08,5.0,,,,,,4.865575,PASS,
36,s01_lqr_pitch_step,g000004_c2,4,,0.020323989691905898,0.3035437068897014,2.583206088893111e-07,25.882251463183774,,,,,,,,,,4.5379,6.3852,3.673,0.0,0.8313,0.11926,0.0,0.078,5.0,,,,,,4.785475,PASS,
37,s01_lqr_pitch_step,g000004_c3,4,,0.037324549174656454,10.0,1e-07,4.618989521488714,,,,,,,,,,4.5232,6.3917,3.8002,0.0,0.8439,0.11968,0.0,0.096,5.0,,,,,,6.3269,PASS,
38,s01_lqr_pitch_step,g000004_c4,4,,0.06991469355861481,2.999076449002717,1e-07,100.0,,,,,,,,,,4.5356,6.3854,3.6782,0.0,0.8325,0.119322,0.0,0.078,5.0,,,,,,4.8111,PASS,
39,s01_lqr_pitch_step,g000004_c5,4,,0.09848338208723845,10.0,5.0106130150702e-07,100.0,,,,,,,,,,4.5353,6.3858,3.6785,0.0,0.8325,0.119284,0.0,0.08,5.0,,,,,,4.790025,PASS,
40,s01_lqr_pitch_step,g000004_c6,4,,0.28944250611329236,1.8501054919450752,5.970996309187041e-07,4.497190511818514,,,,,,,,,,4.5423,6.3932,3.7,0.0,0.836,0.119828,0.0,0.082,5.0,,,,,,5.08645,PASS,
41,s01_lqr_pitch_step,g000004_c7,4,,6.498464688202464,10.0,1e-07,100.0,,,,,,,,,,4.5346,6.3851,3.6795,0.0,0.8327,0.11928,0.0,0.08,5.0,,,,,,4.84225,PASS,
42,s01_lqr_pitch_step,g000005_c0,5,,0.23913077622626025,10.0,5.131895547586381e-07,82.07442439971467,,,,,,,,,,4.5358,6.3846,3.6771,0.0,0.8321,0.119252,0.0,0.08,5.0,,,,,,4.814625,PASS,
43,s01_lqr_pitch_step,g000005_c1,5,,0.05981871012247352,10.0,2.737366047125117e-07,100.0,,,,,,,,,,4.5353,6.386,3.6796,0.0,0.8328,0.11928,0.0,0.08,5.0,,,,,,4.795,PASS,
44,s01_lqr_pitch_step,g000005_c2,5,,0.3266294352164654,10.0,5.300480224357587e-07,49.77637156969341,,,,,,,,,,4.5354,6.3863,3.7003,0.0,0.8373,0.119786,0.0,0.08,5.0,,,,,,4.769775,PASS,
45,s01_lqr_pitch_step,g000005_c3,5,,0.9215906151385228,10.0,2.0498006308818758e-07,100.0,,,,,,,,,,4.5355,6.3875,3.6764,0.0,0.832,0.119245,0.0,0.08,5.0,,,,,,4.778075,PASS,
46,s01_lqr_pitch_step,g000005_c4,5,,0.9454881246699626,10.0,1e-07,100.0,,,,,,,,,,4.5351,6.3843,3.6726,0.0,0.8311,0.119175,0.0,0.08,5.0,,,,,,4.843275,PASS,
47,s01_lqr_pitch_step,g000005_c5,5,,0.014361882729727929,6.552072838672432,1e-07,26.270069403848034,,,,,,,,,,4.5343,6.3893,3.6946,0.0,0.8357,0.119614,0.0,0.08,5.0,,,,,,4.915925,PASS,
48,s01_lqr_pitch_step,g000005_c6,5,,0.37856491381382124,2.709858143087376,1e-07,17.11481054089009,,,,,,,,,,4.5353,6.3844,3.6806,0.0,0.8329,0.119282,0.0,0.08,5.0,,,,,,4.81155,PASS,
49,s01_lqr_pitch_step,g000005_c7,5,,0.21072012656854716,10.0,1e-07,100.0,,,,,,,,,,4.5343,6.3836,3.6794,0.0,0.8327,0.119291,0.0,0.08,5.0,,,,,,4.8048,PASS,
50,s01_lqr_pitch_step,g000006_c0,6,,0.03635928537364218,10.0,9.290177447637985e-07,100.0,,,,,,,,,,4.5371,6.385,3.6725,0.0,0.831,0.119198,0.0,0.08,5.0,,,,,,4.824475,PASS,
51,s01_lqr_pitch_step,g000006_c1,6,,8.769676627781623,10.0,1.0127443555427041e-07,100.0,,,,,,,,,,4.5354,6.3854,3.6789,0.0,0.8326,0.119279,0.0,0.08,5.0,,,,,,4.811075,PASS,
52,s01_lqr_pitch_step,g000006_c2,6,,0.035088483764807006,10.0,1e-07,100.0,,,,,,,,,,4.5347,6.3821,3.68,0.0,0.8329,0.119299,0.0,0.08,5.0,,,,,,4.808825,PASS,
53,s01_lqr_pitch_step,g000006_c3,6,,0.23242466321827102,10.0,1e-07,61.25422999043937,,,,,,,,,,4.5345,6.3838,3.698,0.0,0.8367,0.119739,0.0,0.08,5.0,,,,,,4.860875,PASS,
54,s01_lqr_pitch_step,g000006_c4,6,,2.849999995707842,0.05397375603866722,1e-07,61.9390171424521,,,,,,,,,,4.5361,6.386,3.6735,0.0,0.8314,0.119247,0.0,0.078,5.0,,,,,,4.801225,PASS,
55,s01_lqr_pitch_step,g000006_c5,6,,2.1361043410058005,6.5337982197882365,1e-07,87.209381164175,,,,,,,,,,4.5347,6.3831,3.6817,0.0,0.8333,0.119339,0.0,0.08,5.0,,,,,,4.803425,PASS,
56,s01_lqr_pitch_step,g000006_c6,6,,1.2083372643181287,10.0,1.5720944146955597e-07,10.517737169481572,,,,,,,,,,4.5294,6.3876,3.733,0.0,0.8436,0.11988,0.0,0.086,5.0,,,,,,5.164125,PASS,
57,s01_lqr_pitch_step,g000006_c7,6,,0.2164437864012469,0.3315700300358926,1e-07,1.1874299953104424,,,,,,,,,,4.5406,6.3912,3.6936,0.0,0.8353,0.119728,0.0,0.08,5.0,,,,,,4.96535,PASS,
58,s01_lqr_pitch_step,g000007_c0,7,,0.0793019147961556,9.56975568595149,1e-07,27.84843413085259,,,,,,,,,,4.5334,6.387,3.7004,0.0,0.8373,0.119744,0.0,0.082,5.0,,,,,,5.088225,PASS,
59,s01_lqr_pitch_step,g000007_c1,7,,0.2546510954743078,10.0,1e-07,6.764677543522545,,,,,,,,,,4.5259,6.3913,3.7563,0.0,0.8479,0.119908,0.0,0.09,5.0,,,,,,5.01935,PASS,
60,s01_lqr_pitch_step,g000007_c2,7,,0.019296849367065227,10.0,1e-07,100.0,,,,,,,,,,4.5342,6.3823,3.6774,0.0,0.8322,0.119253,0.0,0.08,5.0,,,,,,4.801175,PASS,
61,s01_lqr_pitch_step,g000007_c3,7,,2.511152508079046,0.09530529505728894,1.84360195400471e-07,100.0,,,,,,,,,,4.5352,6.3815,3.6776,0.0,0.8324,0.119322,0.0,0.078,5.0,,,,,,4.78825,PASS,
62,s01_lqr_pitch_step,g000007_c4,7,,0.5157637867074223,10.0,1e-07,46.70888050611875,,,,,,,,,,4.5343,6.3831,3.7,0.0,0.8371,0.119767,0.0,0.08,5.0,,,,,,4.86975,PASS,
63,s01_lqr_pitch_step,g000007_c5,7,,6.879667565010349,0.3985843300719942,7.0414384249342e-07,25.173585431146375,,,,,,,,,,4.5392,6.3864,3.6724,0.0,0.8312,0.119267,0.0,0.078,5.0,,,,,,4.800575,PASS,
64,s01_lqr_pitch_step,g000007_c6,7,,0.7786574134264693,0.289306759795722,1e-07,100.0,,,,,,,,,,4.5359,6.3838,3.6767,0.0,0.8322,0.119295,0.0,0.078,5.0,,,,,,4.7929,PASS,
65,s01_lqr_pitch_step,g000007_c7,7,,0.9494541706485208,4.337711123962511,1.0414376359865287e-07,2.0554567690435404,,,,,,,,,,4.5236,6.3925,3.782,0.0,0.8434,0.119654,0.0,0.096,5.0,,,,,,6.24565,PASS,
66,s01_lqr_pitch_step,g000008_c0,8,,10.596873842757637,7.762253901464505,1e-07,100.0,,,,,,,,,,4.5346,6.3857,3.6818,0.0,0.8334,0.119343,0.0,0.08,5.0,,,,,,4.77795,PASS,
67,s01_lqr_pitch_step,g000008_c1,8,,1.4980222585240504,10.0,1e-07,100.0,,,,,,,,,,4.5351,6.3835,3.6757,0.0,0.8318,0.11921,0.0,0.08,5.0,,,,,,4.791475,PASS,
68,s01_lqr_pitch_step,g000008_c2,8,,0.017780732658587275,10.0,1e-07,100.0,,,,,,,,,,4.5348,6.3841,3.6792,0.0,0.8327,0.119265,0.0,0.08,5.0,,,,,,4.799675,PASS,
69,s01_lqr_pitch_step,g000008_c3,8,,0.35283430941211513,4.100169049458221,1.5139627470977796e-07,3.2029477776126223,,,,,,,,,,4.5303,6.3885,3.7801,0.0,0.8441,0.119981,0.0,0.088,5.0,,,,,,5.434125,PASS,
70,s01_lqr_pitch_step,g000008_c4,8,,0.014802871043633228,10.0,1.3688029598480625e-07,100.0,,,,,,,,,,4.5349,6.3849,3.6797,0.0,0.8326,0.119301,0.0,0.08,5.0,,,,,,4.8812,PASS,
71,s01_lqr_pitch_step,g000008_c5,8,,2.1608233572856013,10.0,1.5656980185609257e-06,100.0,,,,,,,,,,4.5374,6.3873,3.6764,0.0,0.832,0.119296,0.0,0.08,5.0,,,,,,4.821075,PASS,
72,s01_lqr_pitch_step,g000008_c6,8,,4.391418570716886,10.0,1.2654032722769186e-06,8.28121935799396,,,,,,,,,,4.535,6.3977,3.8106,0.0,0.8465,0.120403,0.0,0.088,5.0,,,,,,5.436375,PASS,
73,s01_lqr_pitch_step,g000008_c7,8,,0.8870631975742972,1.68255354526772,1e-07,100.0,,,,,,,,,,4.535,6.3816,3.6757,0.0,0.8319,0.119262,0.0,0.078,5.0,,,,,,4.785225,PASS,
74,s01_lqr_pitch_step,g000009_c0,9,,4.015332800105916,10.0,2.4553747171732114e-06,37.9874541428446,,,,,,,,,,4.54,6.3892,3.6979,0.0,0.8366,0.119818,0.0,0.08,5.0,,,,,,4.855125,PASS,
75,s01_lqr_pitch_step,g000009_c1,9,,0.22818695149242627,10.0,1e-07,100.0,,,,,,,,,,4.5355,6.3843,3.6828,0.0,0.8335,0.119362,0.0,0.08,5.0,,,,,,4.891225,PASS,
76,s01_lqr_pitch_step,g000009_c2,9,,0.13543344957617398,10.0,6.892118865293718e-06,10.813230460161455,,,,,,,,,,4.5519,6.4105,3.6997,0.0,0.8347,0.119724,0.0,0.086,5.0,,,,,,5.37675,PASS,
77,s01_lqr_pitch_step,g000009_c3,9,,0.01,10.0,1e-07,5.9074504497816545,,,,,,,,,,4.5232,6.3908,3.8778,0.0,0.8631,0.121491,0.0,0.092,5.0,,,,,,5.863775,PASS,
78,s01_lqr_pitch_step,g000009_c4,9,,0.44343951349220406,2.6267048390012455,2.7562085419753984e-07,100.0,,,,,,,,,,4.5363,6.3874,3.678,0.0,0.8325,0.119331,0.0,0.078,5.0,,,,,,4.863775,PASS,
79,s01_lqr_pitch_step,g000009_c5,9,,1.833429106182868,7.255788871153979,2.1323191388488848e-07,3.8196827473275374,,,,,,,,,,4.5256,6.3927,3.8401,0.0,0.8441,0.120113,0.0,0.094,5.0,,,,,,6.388025,PASS,
80,s01_lqr_pitch_step,g000009_c6,9,,0.010607973783064238,10.0,1e-07,28.868991239221597,,,,,,,,,,4.5334,6.3866,3.7068,0.0,0.8379,0.119817,0.0,0.082,5.0,,,,,,5.0345,PASS,
81,s01_lqr_pitch_step,g000009_c7,9,,0.017668805050378444,10.0,1e-07,100.0,,,,,,,,,,4.5345,6.3854,3.6809,0.0,0.8331,0.11931,0.0,0.08,5.0,,,,,,4.814225,PASS,
82,s01_lqr_pitch_step,g000010_c0,10,,15.58496916069112,0.25767222740801665,1e-07,75.67621949762237,,,,,,,,,,4.5362,6.3838,3.6757,0.0,0.832,0.11928,0.0,0.078,5.0,,,,,,4.81625,PASS,
83,s01_lqr_pitch_step,g000010_c1,10,,11.927420923853779,3.3197490332143293,1.5660625911708508e-06,9.004835623299238,,,,,,,,,,4.541,6.3902,3.6971,0.0,0.8362,0.119733,0.0,0.082,5.0,,,,,,4.906525,PASS,
84,s01_lqr_pitch_step,g000010_c2,10,,0.146478629372267,10.0,1.5960331512042795e-06,21.456435547095847,,,,,,,,,,4.5381,6.3901,3.704,0.0,0.8374,0.119793,0.0,0.082,5.0,,,,,,4.96175,PASS,
85,s01_lqr_pitch_step,g000010_c3,10,,1.1159215266580313,10.0,1.3743801200307261e-06,1.3659190940271322,,,,,,,,,,1.8279,4.4267,0.5845,0.1,0.0,0.256918,0.0,5.0,0.488,,,,,,208.4496,FAIL,wheels off ground
86,s01_lqr_pitch_step,g000010_c4,10,,0.05176427664040384,0.38531504421377405,1e-07,3.1990913354229153,,,,,,,,,,4.5389,6.3868,3.6722,0.0,0.831,0.119237,0.0,0.08,5.0,,,,,,4.7954,PASS,
87,s01_lqr_pitch_step,g000010_c5,10,,0.01662757554614592,2.5937873333176,1e-07,7.753941794226214,,,,,,,,,,4.5349,6.3857,3.7024,0.0,0.8373,0.119756,0.0,0.082,5.0,,,,,,4.943025,PASS,
88,s01_lqr_pitch_step,g000010_c6,10,,0.1306338400944727,10.0,1e-07,39.80931324380817,,,,,,,,,,4.5342,6.3853,3.7008,0.0,0.8373,0.119749,0.0,0.08,5.0,,,,,,4.8129,PASS,
89,s01_lqr_pitch_step,g000010_c7,10,,2.833068955285619,10.0,1.8926436614895137e-06,100.0,,,,,,,,,,4.5378,6.3837,3.6708,0.0,0.8306,0.119193,0.0,0.08,5.0,,,,,,4.79615,PASS,
90,s01_lqr_pitch_step,g000011_c0,11,,0.38017709734630206,0.08841197841244441,1.3519007123742553e-06,25.43377295354889,,,,,,,,,,4.5418,6.3897,3.6679,0.0,0.83,0.119265,0.0,0.078,5.0,,,,,,4.80055,PASS,
91,s01_lqr_pitch_step,g000011_c1,11,,0.5807758527213955,1.0534345392627138,5.401159815096929e-07,100.0,,,,,,,,,,4.5373,6.388,3.673,0.0,0.8313,0.119257,0.0,0.078,5.0,,,,,,4.81845,PASS,
92,s01_lqr_pitch_step,g000011_c2,11,,0.5488008454444703,1.7400226945539112,1e-07,100.0,,,,,,,,,,4.536,6.3859,3.6782,0.0,0.8326,0.119319,0.0,0.078,5.0,,,,,,4.836775,PASS,
93,s01_lqr_pitch_step,g000011_c3,11,,0.3163746640879565,0.22670657313568107,2.9970483382643557e-07,100.0,,,,,,,,,,4.5371,6.384,3.6737,0.0,0.8315,0.119272,0.0,0.078,5.0,,,,,,4.8043,PASS,
94,s01_lqr_pitch_step,g000011_c4,11,,0.1594268933404952,1.25065432653754,1e-07,24.303374643772234,,,,,,,,,,4.5363,6.3859,3.6762,0.0,0.832,0.119266,0.0,0.08,5.0,,,,,,4.834125,PASS,
95,s01_lqr_pitch_step,g000011_c5,11,,0.2850237962572571,10.0,1e-07,2.8803823863456026,,,,,,,,,,4.5154,6.3976,4.3205,0.09,0.8491,0.122558,0.0,1.482,5.0,,,,,,9.053425,PASS,
96,s01_lqr_pitch_step,g000011_c6,11,,0.15254032658321384,0.6617149556363003,1e-07,100.0,,,,,,,,,,4.5355,6.3833,3.6754,0.0,0.8319,0.119288,0.0,0.078,5.0,,,,,,4.81325,PASS,
97,s01_lqr_pitch_step,g000011_c7,11,,0.5091202581517759,1.0054539111852498,1.4828380562821372e-07,73.50278169593581,,,,,,,,,,4.5366,6.3849,3.677,0.0,0.8323,0.119332,0.0,0.078,5.0,,,,,,4.793825,PASS,
98,s01_lqr_pitch_step,g000012_c0,12,,3.820939515056141,10.0,1e-07,0.40035910232647104,,,,,,,,,,2.2066,4.4267,1.1009,0.1,0.0,0.201253,0.0,5.0,0.972,,,,,,228.21845,FAIL,wheels off ground
99,s01_lqr_pitch_step,g000012_c1,12,,4.511074966942746,1.5517434840068647,1e-07,100.0,,,,,,,,,,4.5351,6.3836,3.6776,0.0,0.8324,0.11928,0.0,0.078,5.0,,,,,,4.797025,PASS,
100,s01_lqr_pitch_step,g000012_c2,12,,1.884965856783494,10.0,1e-07,100.0,,,,,,,,,,4.535,6.3858,3.6777,0.0,0.8323,0.119253,0.0,0.08,5.0,,,,,,4.781925,PASS,
101,s01_lqr_pitch_step,g000012_c3,12,,2.5253151093152413,0.22906324822192065,5.934412363731851e-07,9.365071529238923,,,,,,,,,,4.5418,6.3891,3.6708,0.0,0.8308,0.119286,0.0,0.078,5.0,,,,,,4.798825,PASS,
102,s01_lqr_pitch_step,g000012_c4,12,,7.615684788953917,10.0,1e-07,0.9801657695286614,,,,,,,,,,1.8814,4.4267,0.8164,0.1,0.0,0.255131,0.0,5.0,0.512,,,,,,210.39605,FAIL,wheels off ground
103,s01_lqr_pitch_step,g000012_c5,12,,0.4736565836155807,3.9388100138849187,1e-07,17.51528807135841,,,,,,,,,,4.5354,6.3863,3.6991,0.0,0.8369,0.119743,0.0,0.08,5.0,,,,,,4.850125,PASS,
104,s01_lqr_pitch_step,g000012_c6,12,,0.039320831280448734,2.9440903933246227,1e-07,0.23972241107363174,,,,,,,,,,2.2796,4.4267,0.5146,0.1,0.0,0.252765,0.0,5.0,0.352,,,,,,208.09205,FAIL,wheels off ground
105,s01_lqr_pitch_step,g000012_c7,12,,0.15965875282578518,0.07214660380590109,5.261098482574232e-07,100.0,,,,,,,,,,4.5365,6.3828,3.6731,0.0,0.8313,0.119254,0.0,0.078,5.0,,,,,,4.790525,PASS,
106,s01_lqr_pitch_step,g000013_c0,13,,0.12814281578824957,10.0,1.2289561037814666e-06,100.0,,,,,,,,,,4.5368,6.3872,3.6756,0.0,0.8318,0.119261,0.0,0.08,5.0,,,,,,4.814275,PASS,
107,s01_lqr_pitch_step,g000013_c1,13,,0.8183882543605717,10.0,1e-07,17.183076394660997,,,,,,,,,,4.5319,6.3877,3.7157,0.0,0.84,0.119815,0.0,0.084,5.0,,,,,,5.15445,PASS,
108,s01_lqr_pitch_step,g000013_c2,13,,0.5488526307795587,10.0,1e-07,11.373230395452177,,,,,,,,,,4.5288,6.3845,3.7456,0.0,0.8422,0.119893,0.0,0.086,5.0,,,,,,5.402425,PASS,
109,s01_lqr_pitch_step,g000013_c3,13,,0.2317138099951407,10.0,1e-07,68.57841988800423,,,,,,,,,,4.5343,6.3842,3.6968,0.0,0.8365,0.119721,0.0,0.08,5.0,,,,,,4.8048,PASS,
110,s01_lqr_pitch_step,g000013_c4,13,,0.11737542610612826,5.237124593423824,1e-07,4.739699139398398,,,,,,,,,,4.5288,6.3915,3.8274,0.0,0.8485,0.120483,0.0,0.088,5.0,,,,,,5.503125,PASS,
111,s01_lqr_pitch_step,g000013_c5,13,,0.2578577729253043,3.6787622685059844,1.522919265174147e-07,100.0,,,,,,,,,,4.5358,6.3847,3.6761,0.0,0.8319,0.119263,0.0,0.08,5.0,,,,,,4.817075,PASS,
112,s01_lqr_pitch_step,g000013_c6,13,,1.0115916736102084,0.3627071918330808,2.1428044000038367e-07,7.542807560987389,,,,,,,,,,4.539,6.385,3.6734,0.0,0.8313,0.119283,0.0,0.078,5.0,,,,,,4.78775,PASS,
113,s01_lqr_pitch_step,g000013_c7,13,,0.08043613962121006,2.347254794131558,1.2127445229303465e-06,36.30823351479477,,,,,,,,,,4.539,6.3872,3.6725,0.0,0.8311,0.119277,0.0,0.08,5.0,,,,,,4.811775,PASS,
114,s01_lqr_pitch_step,g000014_c0,14,,0.010190244077532117,10.0,6.146482685741764e-07,100.0,,,,,,,,,,4.5359,6.3848,3.6769,0.0,0.8321,0.11927,0.0,0.08,5.0,,,,,,4.7851,PASS,
115,s01_lqr_pitch_step,g000014_c1,14,,0.1882699415781165,0.29522560362390227,3.8715227905474816e-07,100.0,,,,,,,,,,4.537,6.3854,3.6756,0.0,0.8319,0.119307,0.0,0.078,5.0,,,,,,4.793725,PASS,
116,s01_lqr_pitch_step,g000014_c2,14,,0.5133996581667732,3.614105595016969,1.3345417199553085e-06,100.0,,,,,,,,,,4.5378,6.3853,3.6736,0.0,0.8314,0.119273,0.0,0.078,5.0,,,,,,4.7859,PASS,
117,s01_lqr_pitch_step,g000014_c3,14,,1.3231298299258363,10.0,2.792235666735017e-07,9.302610819229894,,,,,,,,,,4.5296,6.3925,3.7689,0.0,0.849,0.120368,0.0,0.088,5.0,,,,,,5.2642,PASS,
118,s01_lqr_pitch_step,g000014_c4,14,,0.28808915612434755,3.2898495481868664,1e-07,5.4273076457664295,,,,,,,,,,4.5332,6.3858,3.7235,0.0,0.8405,0.119905,0.0,0.084,5.0,,,,,,5.0709,PASS,
119,s01_lqr_pitch_step,g000014_c5,14,,0.08689742926455693,0.8321924751065621,1e-07,1.973601851508242,,,,,,,,,,4.5382,6.3897,3.7016,0.0,0.8369,0.119775,0.0,0.082,5.0,,,,,,4.95315,PASS,
120,s01_lqr_pitch_step,g000014_c6,14,,2.016602296818573,2.5395942045211246,1e-07,51.15316386651977,,,,,,,,,,4.5352,6.383,3.6801,0.0,0.8329,0.119327,0.0,0.078,5.0,,,,,,4.8541,PASS,
121,s01_lqr_pitch_step,g000014_c7,14,,0.21935840565018175,5.3871116657635865,4.338349927340722e-07,100.0,,,,,,,,,,4.5362,6.3853,3.6783,0.0,0.8325,0.119322,0.0,0.08,5.0,,,,,,4.844925,PASS,
122,s01_lqr_pitch_step,g000015_c0,15,,1.7453053276171397,10.0,3.079792096332387e-07,73.98313272537821,,,,,,,,,,4.5354,6.3818,3.6805,0.0,0.8329,0.119287,0.0,0.08,5.0,,,,,,4.86545,PASS,
123,s01_lqr_pitch_step,g000015_c1,15,,0.45797059685047,6.371849593293667,1.5325319307803682e-07,18.533568357485187,,,,,,,,,,4.5346,6.389,3.7056,0.0,0.8378,0.119786,0.0,0.082,5.0,,,,,,4.985525,PASS,
124,s01_lqr_pitch_step,g000015_c2,15,,0.906922169302127,10.0,4.5980925652932697e-07,100.0,,,,,,,,,,4.5357,6.382,3.678,0.0,0.8323,0.119279,0.0,0.08,5.0,,,,,,4.78305,PASS,
125,s01_lqr_pitch_step,g000015_c3,15,,0.5415639270529691,6.567154588077944,1e-07,3.260739767223776,,,,,,,,,,4.5243,6.3925,3.9336,0.0,0.8478,0.120632,0.0,0.094,5.0,,,,,,6.426525,PASS,
126,s01_lqr_pitch_step,g000015_c4,15,,1.6735597687017258,10.0,1e-07,13.074073128003075,,,,,,,,,,4.5302,6.3856,3.7139,0.0,0.8399,0.1197,0.0,0.084,5.0,,,,,,5.392425,PASS,
127,s01_lqr_pitch_step,g000015_c5,15,,0.7819208296612162,10.0,1e-07,100.0,,,,,,,,,,4.5351,6.3836,3.6787,0.0,0.8326,0.119271,0.0,0.08,5.0,,,,,,4.7867,PASS,
128,s01_lqr_pitch_step,g000015_c6,15,,0.01,10.0,1.6569378577582007e-07,100.0,,,,,,,,,,4.5352,6.3845,3.6786,0.0,0.8326,0.11928,0.0,0.08,5.0,,,,,,4.776825,PASS,
129,s01_lqr_pitch_step,g000015_c7,15,,0.20016684972567306,10.0,1e-07,22.80528162542392,,,,,,,,,,4.5328,6.3842,3.6995,0.0,0.8377,0.119714,0.0,0.082,5.0,,,,,,5.08455,PASS,
130,s01_lqr_pitch_step,g000016_c0,16,,0.07912713618702846,10.0,1e-07,100.0,,,,,,,,,,4.5353,6.3831,3.6778,0.0,0.8323,0.119246,0.0,0.08,5.0,,,,,,4.77425,PASS,
131,s01_lqr_pitch_step,g000016_c1,16,,0.10743476708332693,10.0,1e-07,56.60553361619599,,,,,,,,,,4.534,6.3833,3.6935,0.0,0.8355,0.119615,0.0,0.08,5.0,,,,,,4.891975,PASS,
132,s01_lqr_pitch_step,g000016_c2,16,,0.22840995007108064,6.482341337430508,1e-07,29.15923377899423,,,,,,,,,,4.5346,6.385,3.6992,0.0,0.837,0.119741,0.0,0.08,5.0,,,,,,4.782,PASS,
133,s01_lqr_pitch_step,g000016_c3,16,,0.3100163322144027,3.0260821558136106,1e-07,100.0,,,,,,,,,,4.5358,6.3874,3.6775,0.0,0.8323,0.119287,0.0,0.078,5.0,,,,,,4.79795,PASS,
134,s01_lqr_pitch_step,g000016_c4,16,,0.26585276806676483,10.0,1e-07,100.0,,,,,,,,,,4.5354,6.3868,3.6797,0.0,0.8326,0.1193,0.0,0.08,5.0,,,,,,4.943175,PASS,
135,s01_lqr_pitch_step,g000016_c5,16,,0.03803205710117535,10.0,5.939788006107696e-07,42.56504568775736,,,,,,,,,,4.5359,6.3861,3.6974,0.0,0.8366,0.119739,0.0,0.08,5.0,,,,,,4.763975,PASS,
136,s01_lqr_pitch_step,g000016_c6,16,,0.3911948580141512,9.09864451406707,1.0276459986251338e-07,11.563955110525438,,,,,,,,,,4.5308,6.3876,3.7604,0.0,0.8442,0.120095,0.0,0.086,5.0,,,,,,5.09185,PASS,
137,s01_lqr_pitch_step,g000016_c7,16,,0.5588376522547442,10.0,2.2177577307939863e-07,60.749322512236674,,,,,,,,,,4.5346,6.3846,3.697,0.0,0.8365,0.119735,0.0,0.08,5.0,,,,,,4.777575,PASS,
138,s01_lqr_pitch_step,g000017_c0,17,,0.0359102617466943,7.2478963190989205,1.0115118871142321e-06,100.0,,,,,,,,,,4.5374,6.3854,3.678,0.0,0.8325,0.119312,0.0,0.08,5.0,,,,,,4.806075,PASS,
139,s01_lqr_pitch_step,g000017_c1,17,,0.1153272235074171,10.0,2.3307265360310947e-06,47.7527610527763,,,,,,,,,,4.5397,6.3921,3.697,0.0,0.8365,0.119819,0.0,0.08,5.0,,,,,,4.780025,PASS,
140,s01_lqr_pitch_step,g000017_c2,17,,0.0165695678888239,5.383336343570156,3.973074259278686e-07,20.509019049120074,,,,,,,,,,4.5367,6.3885,3.7018,0.0,0.8377,0.119821,0.0,0.08,5.0,,,,,,4.78465,PASS,
141,s01_lqr_pitch_step,g000017_c3,17,,0.02747576393996925,10.0,3.6537569054558e-07,68.78263891894416,,,,,,,,,,4.5355,6.3886,3.6777,0.0,0.8322,0.119259,0.0,0.08,5.0,,,,,,4.772675,PASS,
142,s01_lqr_pitch_step,g000017_c4,17,,0.02718355499280735,10.0,1e-07,26.806174862328273,,,,,,,,,,4.5329,6.3826,3.7053,0.0,0.8383,0.119739,0.0,0.082,5.0,,,,,,4.754275,PASS,
143,s01_lqr_pitch_step,g000017_c5,17,,0.01,10.0,1.7130993526953532e-06,12.000986218144625,,,,,,,,,,4.5402,6.3977,3.7622,0.0,0.8402,0.120082,0.0,0.086,5.0,,,,,,5.33455,PASS,
144,s01_lqr_pitch_step,g000017_c6,17,,0.02391416272716666,6.867630459491774,3.416247881604629e-07,90.31646698225654,,,,,,,,,,4.537,6.3915,3.6763,0.0,0.832,0.119269,0.0,0.08,5.0,,,,,,4.78345,PASS,
145,s01_lqr_pitch_step,g000017_c7,17,,0.02574041406877601,3.3653696199425664,2.5799839513983165e-07,6.444019876705011,,,,,,,,,,4.5359,6.3893,3.7117,0.0,0.8398,0.119856,0.0,0.084,5.0,,,,,,4.786175,PASS,
146,s01_lqr_pitch_step,g000018_c0,18,,0.04052945564241484,10.0,2.0081988502336255e-07,23.269097778272766,,,,,,,,,,4.5334,6.3871,3.7006,0.0,0.837,0.119612,0.0,0.082,5.0,,,,,,4.8605,PASS,
147,s01_lqr_pitch_step,g000018_c1,18,,0.018977799041840417,3.7695855713015822,1.0230640663251253e-07,78.47703092907128,,,,,,,,,,4.5352,6.3846,3.6803,0.0,0.833,0.119327,0.0,0.08,5.0,,,,,,4.828475,PASS,
148,s01_lqr_pitch_step,g000018_c2,18,,0.026843041803482112,10.0,2.0812214092436144e-07,25.88112230041827,,,,,,,,,,4.5342,6.3875,3.7044,0.0,0.8381,0.119729,0.0,0.082,5.0,,,,,,4.756275,PASS,
149,s01_lqr_pitch_step,g000018_c3,18,,0.05100396041095919,10.0,3.652279403029878e-07,29.380383203130975,,,,,,,,,,4.535,6.3871,3.6947,0.0,0.8358,0.11958,0.0,0.082,5.0,,,,,,4.75035,PASS,
150,s01_lqr_pitch_step,g000018_c4,18,,0.0206986733902242,10.0,1.618163943963315e-07,31.71418049433032,,,,,,,,,,4.5332,6.3869,3.7065,0.0,0.8382,0.119801,0.0,0.082,5.0,,,,,,4.9545,PASS,
151,s01_lqr_pitch_step,g000018_c5,18,,0.032614259785688826,4.660348388537468,1.76712710562353e-07,6.440236127286795,,,,,,,,,,4.5341,6.3927,3.717,0.0,0.8399,0.119799,0.0,0.084,5.0,,,,,,5.131175,PASS,
152,s01_lqr_pitch_step,g000018_c6,18,,0.020278015630997313,4.3599888279463785,2.7962107937478016e-07,10.298280772134154,,,,,,,,,,4.536,6.3906,3.7097,0.0,0.8384,0.119904,0.0,0.082,5.0,,,,,,5.02325,PASS,
153,s01_lqr_pitch_step,g000018_c7,18,,0.03768825532192693,6.919336606385397,1.4463846642951272e-07,20.023766018867857,,,,,,,,,,4.5342,6.3863,3.6985,0.0,0.8366,0.119628,0.0,0.082,5.0,,,,,,4.841575,PASS,
154,s01_lqr_pitch_step,g000019_c0,19,,0.05996541527713106,3.8576743072836646,1.1039922730707677e-07,18.26663927340028,,,,,,,,,,4.5351,6.3868,3.699,0.0,0.8369,0.119751,0.0,0.08,5.0,,,,,,4.81015,PASS,
155,s01_lqr_pitch_step,g000019_c1,19,,0.06487651459448943,10.0,3.958429365835254e-07,16.178320124576526,,,,,,,,,,4.5348,6.3896,3.726,0.0,0.8402,0.119932,0.0,0.084,5.0,,,,,,5.198725,PASS,
156,s01_lqr_pitch_step,g000019_c2,19,,0.11442839128270346,6.38191156353663,3.306451118539633e-07,49.03017548820284,,,,,,,,,,4.5362,6.3855,3.6786,0.0,0.8325,0.119279,0.0,0.08,5.0,,,,,,4.77495,PASS,
157,s01_lqr_pitch_step,g000019_c3,19,,0.05241470008299165,3.6863689707857965,5.562145117556835e-07,98.51130161226529,,,,,,,,,,4.5363,6.3839,3.6737,0.0,0.8314,0.119271,0.0,0.078,5.0,,,,,,4.79805,PASS,
158,s01_lqr_pitch_step,g000019_c4,19,,0.08036721438727755,10.0,2.1811422050900388e-07,23.347516639510268,,,,,,,,,,4.5343,6.3864,3.7101,0.0,0.8385,0.119835,0.0,0.082,5.0,,,,,,5.024675,PASS,
159,s01_lqr_pitch_step,g000019_c5,19,,0.049861196843836754,10.0,2.5317247235894435e-07,9.991702021345018,,,,,,,,,,4.5299,6.3901,3.7751,0.0,0.8489,0.120436,0.0,0.086,5.0,,,,,,5.28795,PASS,
160,s01_lqr_pitch_step,g000019_c6,19,,0.013834722040729212,9.10730539049029,6.519728624785572e-07,2.5962265884226277,,,,,,,,,,4.5253,6.4085,4.0774,0.06,0.8501,0.121682,0.0,0.106,5.0,,,,,,8.86115,PASS,
161,s01_lqr_pitch_step,g000019_c7,19,,0.13122421061540177,3.2055876505704917,6.777055591206e-07,21.043186540044715,,,,,,,,,,4.5385,6.389,3.6794,0.0,0.8327,0.119339,0.0,0.08,5.0,,,,,,4.78055,PASS,
162,s01_lqr_pitch_step,g000020_c0,20,,0.09527806582204441,7.062048471645987,1.2971281117067457e-07,34.0081128208352,,,,,,,,,,4.5346,6.3838,3.6993,0.0,0.8371,0.119761,0.0,0.08,5.0,,,,,,4.79315,PASS,
163,s01_lqr_pitch_step,g000020_c1,20,,0.07117710904132826,7.660596430979072,1.695361383466897e-06,100.0,,,,,,,,,,4.5372,6.3841,3.6703,0.0,0.8305,0.119185,0.0,0.08,5.0,,,,,,4.7775,PASS,
164,s01_lqr_pitch_step,g000020_c2,20,,0.1319481076483259,10.0,1.6259905253619867e-06,52.622619557883624,,,,,,,,,,4.5378,6.3897,3.6889,0.0,0.8344,0.119629,0.0,0.08,5.0,,,,,,4.9097,PASS,
165,s01_lqr_pitch_step,g000020_c3,20,,0.04084383456696647,1.733782382595813,8.443393076223862e-07,24.074934808720958,,,,,,,,,,4.5395,6.3873,3.6736,0.0,0.8314,0.119293,0.0,0.08,5.0,,,,,,4.7883,PASS,
166,s01_lqr_pitch_step,g000020_c4,20,,0.027155916692991958,10.0,4.1357260397146895e-07,29.116786999331598,,,,,,,,,,4.5357,6.3856,3.695,0.0,0.8359,0.119614,0.0,0.082,5.0,,,,,,4.790075,PASS,
167,s01_lqr_pitch_step,g000020_c5,20,,0.16181787330773076,5.2515642265254225,1.7837271649576701e-07,85.16914876779286,,,,,,,,,,4.5362,6.3833,3.6677,0.0,0.8299,0.119092,0.0,0.08,5.0,,,,,,4.781375,PASS,
168,s01_lqr_pitch_step,g000020_c6,20,,0.061100264143421734,10.0,1e-07,48.57494596358363,,,,,,,,,,4.5341,6.3867,3.6981,0.0,0.8368,0.119727,0.0,0.08,5.0,,,,,,4.79195,PASS,
169,s01_lqr_pitch_step,g000020_c7,20,,0.018665016060916237,4.826813631548675,7.436883231472275e-07,100.0,,,,,,,,,,4.5364,6.3851,3.6693,0.0,0.8303,0.119138,0.0,0.078,5.0,,,,,,4.789625,PASS,
170,s01_lqr_pitch_step,g000021_c0,21,,0.054923281452245086,7.210516270818646,1.4666048106269326e-06,25.150833811415993,,,,,,,,,,4.5393,6.3917,3.6984,0.0,0.8368,0.119815,0.0,0.08,5.0,,,,,,4.804325,PASS,
171,s01_lqr_pitch_step,g000021_c1,21,,0.09017106363196539,2.481170625766665,1.893643259720523e-07,38.48610885859697,,,,,,,,,,4.5369,6.3903,3.6774,0.0,0.8323,0.119294,0.0,0.08,5.0,,,,,,4.7985,PASS,
172,s01_lqr_pitch_step,g000021_c2,21,,0.05738509745198895,10.0,7.18147511783503e-07,7.191682865676021,,,,,,,,,,4.5328,6.3942,3.8394,0.0,0.8457,0.120354,0.0,0.09,5.0,,,,,,5.930425,PASS,
173,s01_lqr_pitch_step,g000021_c3,21,,0.08783416900753513,3.9965752708650495,3.970574168019507e-07,100.0,,,,,,,,,,4.5366,6.3844,3.6757,0.0,0.8319,0.119293,0.0,0.078,5.0,,,,,,4.82175,PASS,
174,s01_lqr_pitch_step,g000021_c4,21,,0.08406119087516035,10.0,1.1764897176967663e-06,30.288470932075878,,,,,,,,,,4.5384,6.3915,3.6998,0.0,0.8369,0.119781,0.0,0.082,5.0,,,,,,4.9123,PASS,
175,s01_lqr_pitch_step,g000021_c5,21,,0.012867749475607636,3.7067041528869997,2.5558598573102207e-07,23.563772621391752,,,,,,,,,,4.5366,6.3854,3.6797,0.0,0.8328,0.119299,0.0,0.08,5.0,,,,,,4.776825,PASS,
176,s01_lqr_pitch_step,g000021_c6,21,,0.16410573559480737,10.0,5.42205007307338e-07,100.0,,,,,,,,,,4.5356,6.3871,3.6795,0.0,0.8327,0.119296,0.0,0.08,5.0,,,,,,4.801375,PASS,
177,s01_lqr_pitch_step,g000021_c7,21,,0.04635931800457218,9.82256750354794,1.1877164159747056e-06,56.037362132071465,,,,,,,,,,4.5385,6.3888,3.6866,0.0,0.8339,0.119598,0.0,0.08,5.0,,,,,,4.905775,PASS,
178,s01_lqr_pitch_step,g000022_c0,22,,0.09089981644354604,4.583923782180367,7.457612397567149e-07,24.62042351185801,,,,,,,,,,4.538,6.3873,3.6937,0.0,0.8357,0.119739,0.0,0.08,5.0,,,,,,4.7854,PASS,
179,s01_lqr_pitch_step,g000022_c1,22,,0.013198460638679988,10.0,3.0168468110427857e-07,11.45687436741515,,,,,,,,,,4.5321,6.391,3.7236,0.0,0.8412,0.119814,0.0,0.086,5.0,,,,,,5.41615,PASS,
180,s01_lqr_pitch_step,g000022_c2,22,,0.01,10.0,3.6584802176193724e-07,100.0,,,,,,,,,,4.5361,6.3849,3.6788,0.0,0.8326,0.119287,0.0,0.08,5.0,,,,,,4.79435,PASS,
181,s01_lqr_pitch_step,g000022_c3,22,,0.028265668741650183,5.44908163788078,9.318564065615861e-07,100.0,,,,,,,,,,4.5368,6.3828,3.6761,0.0,0.832,0.119276,0.0,0.08,5.0,,,,,,4.786775,PASS,
182,s01_lqr_pitch_step,g000022_c4,22,,0.23837977756424056,10.0,1.1084201597475119e-07,40.66733121514635,,,,,,,,,,4.5347,6.3855,3.7007,0.0,0.837,0.119758,0.0,0.08,5.0,,,,,,4.94385,PASS,
183,s01_lqr_pitch_step,g000022_c5,22,,0.014301654762646025,10.0,1.9371208422226816e-07,4.909348178297416,,,,,,,,,,4.5246,6.3919,3.8762,0.0,0.8461,0.120249,0.0,0.096,5.0,,,,,,6.08015,PASS,
184,s01_lqr_pitch_step,g000022_c6,22,,0.05510440126838782,6.656757278669899,1.6672000645502984e-06,67.57189359892726,,,,,,,,,,4.5389,6.3873,3.6706,0.0,0.8306,0.119208,0.0,0.08,5.0,,,,,,4.789575,PASS,
185,s01_lqr_pitch_step,g000022_c7,22,,0.03165905927332522,0.6405774681611613,4.052214990253011e-07,100.0,,,,,,,,,,4.5371,6.3852,3.6744,0.0,0.8316,0.119293,0.0,0.078,5.0,,,,,,4.79775,PASS,
186,s01_lqr_pitch_step,g000023_c0,23,,0.01026217637679136,0.18680864469299002,1e-07,65.92630039281093,,,,,,,,,,4.5359,6.3854,3.6753,0.0,0.8319,0.119275,0.0,0.078,5.0,,,,,,4.80695,PASS,
187,s01_lqr_pitch_step,g000023_c1,23,,0.01257815129717349,2.34169608941987,2.896145003713207e-07,19.862690088979868,,,,,,,,,,4.5378,6.387,3.676,0.0,0.8319,0.119287,0.0,0.08,5.0,,,,,,4.797775,PASS,
188,s01_lqr_pitch_step,g000023_c2,23,,1.129661388895042,10.0,6.723826727543853e-07,100.0,,,,,,,,,,4.5364,6.3871,3.6769,0.0,0.8321,0.119285,0.0,0.08,5.0,,,,,,4.785025,PASS,
189,s01_lqr_pitch_step,g000023_c3,23,,0.03998441741770113,10.0,1e-07,3.05539801437862,,,,,,,,,,4.5161,6.398,3.9215,0.026,0.8568,0.120835,0.0,0.104,5.0,,,,,,7.842075,PASS,
190,s01_lqr_pitch_step,g000023_c4,23,,4.9061153917096885,2.6187784447967664,1.2565526142168047e-07,3.949682889237308,,,,,,,,,,4.5313,6.3856,3.7269,0.0,0.8414,0.119915,0.0,0.084,5.0,,,,,,4.999175,PASS,
191,s01_lqr_pitch_step,g000023_c5,23,,0.2398413451594123,10.0,1e-07,100.0,,,,,,,,,,4.5337,6.3812,3.6799,0.0,0.8328,0.119288,0.0,0.08,5.0,,,,,,4.781325,PASS,
192,s01_lqr_pitch_step,g000023_c6,23,,0.01,5.492370667482574,1e-07,100.0,,,,,,,,,,4.535,6.3834,3.6772,0.0,0.8322,0.119267,0.0,0.078,5.0,,,,,,4.8079,PASS,
193,s01_lqr_pitch_step,g000023_c7,23,,0.05353283667467779,10.0,1.5610484624631036e-06,1.233913864125916,,,,,,,,,,1.8639,4.4267,0.3271,0.1,0.0,0.251202,0.0,5.0,0.468,,,,,,207.97705,FAIL,wheels off ground
194,s01_lqr_pitch_step,g000024_c0,24,,0.1315793976279633,10.0,1e-07,98.28230450615538,,,,,,,,,,4.5344,6.3865,3.6759,0.0,0.8319,0.119199,0.0,0.08,5.0,,,,,,4.77165,PASS,
195,s01_lqr_pitch_step,g000024_c1,24,,0.09776344689071971,8.156851084733155,1e-07,49.67230854483085,,,,,,,,,,4.5342,6.3829,3.6972,0.0,0.8363,0.119734,0.0,0.08,5.0,,,,,,4.943525,PASS,
196,s01_lqr_pitch_step,g000024_c2,24,,1.1487727324994919,10.0,1.5381865349631872e-06,37.03469023960318,,,,,,,,,,4.5389,6.3892,3.6947,0.0,0.8359,0.119723,0.0,0.08,5.0,,,,,,4.7924,PASS,
197,s01_lqr_pitch_step,g000024_c3,24,,0.020079005032630434,4.158576525754045,1e-07,100.0,,,,,,,,,,4.5349,6.386,3.6769,0.0,0.8322,0.119269,0.0,0.078,5.0,,,,,,4.7829,PASS,
198,s01_lqr_pitch_step,g000024_c4,24,,0.01,10.0,1e-07,100.0,,,,,,,,,,4.5351,6.3856,3.676,0.0,0.8319,0.119224,0.0,0.08,5.0,,,,,,4.780925,PASS,
199,s01_lqr_pitch_step,g000024_c5,24,,0.19766628852824333,10.0,1e-07,1.933301449725627,,,,,,,,,,1.7723,4.4267,0.4031,0.1,0.0,0.255402,0.0,5.0,0.472,,,,,,206.20315,FAIL,wheels off ground
200,s01_lqr_pitch_step,g000024_c6,24,,0.02608393207768025,2.494818438310619,6.320655760315594e-07,100.0,,,,,,,,,,4.5374,6.3841,3.6732,0.0,0.8313,0.119263,0.0,0.078,5.0,,,,,,4.8016,PASS,
201,s01_lqr_pitch_step,g000024_c7,24,,0.012214112955210316,10.0,1e-07,12.709243269643187,,,,,,,,,,4.5308,6.3909,3.7254,0.0,0.8418,0.119836,0.0,0.086,5.0,,,,,,5.09415,PASS,
202,s01_lqr_pitch_step,g000025_c0,25,,0.01,10.0,1.389734002453374e-07,100.0,,,,,,,,,,4.5352,6.3851,3.6794,0.0,0.8328,0.119298,0.0,0.08,5.0,,,,,,4.779175,PASS,
203,s01_lqr_pitch_step,g000025_c1,25,,0.01,1.2990947733126115,2.2942346607316194e-07,8.446146485295316,,,,,,,,,,4.5384,6.3871,3.677,0.0,0.832,0.119297,0.0,0.08,5.0,,,,,,4.79495,PASS,
204,s01_lqr_pitch_step,g000025_c2,25,,3.002312383211513,6.360658794953981,6.885108748312654e-07,3.9740945768410514,,,,,,,,,,4.5317,6.3982,3.7963,0.0,0.8446,0.119963,0.0,0.092,5.0,,,,,,5.985775,PASS,
205,s01_lqr_pitch_step,g000025_c3,25,,0.01706657135472135,1.0092700446615193,1.0728676751900609e-07,39.358205131409974,,,,,,,,,,4.5362,6.3869,3.6754,0.0,0.8318,0.119292,0.0,0.078,5.0,,,,,,4.788125,PASS,
206,s01_lqr_pitch_step,g000025_c4,25,,0.01,10.0,3.4104452988783755e-07,30.586521496446295,,,,,,,,,,4.5344,6.3838,3.7023,0.0,0.8375,0.119757,0.0,0.082,5.0,,,,,,4.8473,PASS,
207,s01_lqr_pitch_step,g000025_c5,25,,0.01,10.0,1e-07,4.037508487739535,,,,,,,,,,4.5217,6.3952,4.1038,0.014,0.8589,0.121943,0.0,0.098,5.0,,,,,,7.00915,PASS,
208,s01_lqr_pitch_step,g000025_c6,25,,0.05725591689873573,10.0,1.75981676900128e-05,100.0,,,,,,,,,,4.547,6.3939,3.6654,0.0,0.8294,0.119304,0.0,0.08,5.0,,,,,,4.8236,PASS,
209,s01_lqr_pitch_step,g000025_c7,25,,0.032662050226430005,10.0,1.8245600438263318e-07,100.0,,,,,,,,,,4.5354,6.3859,3.6795,0.0,0.8328,0.119305,0.0,0.08,5.0,,,,,,4.825025,PASS,
210,s01_lqr_pitch_step,g000026_c0,26,,0.128231053862103,0.5613363352568045,3.163164753748025e-07,100.0,,,,,,,,,,4.5365,6.3831,3.6756,0.0,0.8319,0.119291,0.0,0.078,5.0,,,,,,4.79,PASS,
211,s01_lqr_pitch_step,g000026_c1,26,,0.06265616752405476,10.0,7.396943599843402e-07,30.195965599896304,,,,,,,,,,4.5365,6.3888,3.7027,0.0,0.8376,0.119792,0.0,0.082,5.0,,,,,,4.905075,PASS,
212,s01_lqr_pitch_step,g000026_c2,26,,0.01,10.0,4.3705301116396145e-06,100.0,,,,,,,,,,4.5402,6.3861,3.674,0.0,0.8314,0.119292,0.0,0.08,5.0,,,,,,4.8406,PASS,
213,s01_lqr_pitch_step,g000026_c3,26,,0.01,5.204325719165132,4.814137783510605e-06,22.034823805845246,,,,,,,,,,4.5468,6.3975,3.684,0.0,0.8333,0.119716,0.0,0.08,5.0,,,,,,4.802025,PASS,
214,s01_lqr_pitch_step,g000026_c4,26,,0.18819605732853867,10.0,1e-07,100.0,,,,,,,,,,4.535,6.3831,3.6795,0.0,0.8328,0.119288,0.0,0.08,5.0,,,,,,4.77805,PASS,
215,s01_lqr_pitch_step,g000026_c5,26,,4.081792657119486,10.0,1e-07,21.272033630647876,,,,,,,,,,4.5324,6.3841,3.7112,0.0,0.8395,0.119806,0.0,0.082,5.0,,,,,,4.88185,PASS,
216,s01_lqr_pitch_step,g000026_c6,26,,0.10446555832348105,0.7905973673612107,1.277802655816714e-05,77.71871763616551,,,,,,,,,,4.5474,6.3946,3.6611,0.0,0.8284,0.119266,0.0,0.078,5.0,,,,,,4.806775,PASS,
217,s01_lqr_pitch_step,g000026_c7,26,,3.5655228944271053,10.0,2.8117504210635165e-07,100.0,,,,,,,,,,4.5355,6.3838,3.6792,0.0,0.8327,0.119287,0.0,0.08,5.0,,,,,,4.778475,PASS,
218,s01_lqr_pitch_step,g000027_c0,27,,0.05647787524619792,10.0,1e-07,100.0,,,,,,,,,,4.5352,6.3861,3.6794,0.0,0.8327,0.119286,0.0,0.08,5.0,,,,,,4.801625,PASS,
219,s01_lqr_pitch_step,g000027_c1,27,,0.021602494532361977,10.0,8.286541958761401e-07,15.234100908077863,,,,,,,,,,4.5357,6.3937,3.7186,0.0,0.8405,0.119924,0.0,0.084,5.0,,,,,,5.2031,PASS,
220,s01_lqr_pitch_step,g000027_c2,27,,0.02552967492663904,10.0,1.1873247582761315e-06,47.84749056635183,,,,,,,,,,4.537,6.3885,3.6947,0.0,0.8359,0.11972,0.0,0.08,5.0,,,,,,4.835025,PASS,
221,s01_lqr_pitch_step,g000027_c3,27,,0.5442277507381503,2.93712737655775,1.5069039157195452e-05,85.40560206138416,,,,,,,,,,4.5471,6.3991,3.663,0.0,0.8288,0.119273,0.0,0.078,5.0,,,,,,4.814325,PASS,
222,s01_lqr_pitch_step,g000027_c4,27,,0.031692427838289315,10.0,1.6325044307396705e-07,100.0,,,,,,,,,,4.5356,6.3845,3.6794,0.0,0.8327,0.11928,0.0,0.08,5.0,,,,,,4.780725,PASS,
223,s01_lqr_pitch_step,g000027_c5,27,,0.01,4.9464541617942865,5.68056302204262e-06,100.0,,,,,,,,,,4.5413,6.39,3.6695,0.0,0.8304,0.119276,0.0,0.078,5.0,,,,,,4.814425,PASS,
224,s01_lqr_pitch_step,g000027_c6,27,,0.022853519078713462,3.244955944327238,1.0177356006464428e-07,8.022490711746844,,,,,,,,,,4.5341,6.3878,3.7069,0.0,0.8385,0.119782,0.0,0.082,5.0,,,,,,4.90035,PASS,
225,s01_lqr_pitch_step,g000027_c7,27,,0.05986259108990743,10.0,3.44595240287691e-07,15.597297505604844,,,,,,,,,,4.534,6.3908,3.7459,0.0,0.8417,0.120042,0.0,0.084,5.0,,,,,,5.053925,PASS,
226,s01_lqr_pitch_step,g000028_c0,28,,0.14528595088720583,7.86185829253776,4.3052407082534013e-07,76.19623186036556,,,,,,,,,,4.5359,6.3858,3.6739,0.0,0.8313,0.119221,0.0,0.08,5.0,,,,,,4.809425,PASS,
227,s01_lqr_pitch_step,g000028_c1,28,,0.29428344502560894,5.5142073917960435,1e-07,14.333224749985327,,,,,,,,,,4.5337,6.3866,3.7062,0.0,0.8382,0.119763,0.0,0.082,5.0,,,,,,4.92315,PASS,
228,s01_lqr_pitch_step,g000028_c2,28,,0.12656320846176763,10.0,1e-07,28.978871100158468,,,,,,,,,,4.5343,6.3873,3.7046,0.0,0.8377,0.11976,0.0,0.082,5.0,,,,,,4.944525,PASS,
229,s01_lqr_pitch_step,g000028_c3,28,,0.01,10.0,1.0750774879889568e-07,5.36807746451656,,,,,,,,,,4.5246,6.3954,3.8248,0.0,0.8534,0.120521,0.0,0.094,5.0,,,,,,5.663425,PASS,
230,s01_lqr_pitch_step,g000028_c4,28,,0.09405848052082663,6.758308278153651,1.0805983754884716e-06,1.34903214002149,,,,,,,,,,1.7144,4.4267,0.553,0.1,0.0,0.245083,0.0,5.0,0.536,,,,,,206.5585,FAIL,wheels off ground
231,s01_lqr_pitch_step,g000028_c5,28,,0.01,3.538616020683785,1e-07,20.08538352202969,,,,,,,,,,4.535,6.3843,3.6985,0.0,0.8364,0.119783,0.0,0.08,5.0,,,,,,4.987725,PASS,
232,s01_lqr_pitch_step,g000028_c6,28,,0.1407146143363929,3.1961084434372693,7.146140391209793e-06,2.484130620960987,,,,,,,,,,4.5755,6.4414,3.6925,0.0,0.8329,0.119886,0.0,0.088,5.0,,,,,,5.5311,PASS,
233,s01_lqr_pitch_step,g000028_c7,28,,0.04806893114955227,10.0,1.429730687940269e-06,100.0,,,,,,,,,,4.5376,6.3887,3.6751,0.0,0.8317,0.119247,0.0,0.08,5.0,,,,,,4.795275,PASS,
234,s01_lqr_pitch_step,g000029_c0,29,,0.05363358684075869,9.140949534079784,1.0380133757409966e-07,59.94339108037095,,,,,,,,,,4.5343,6.3879,3.6787,0.0,0.8324,0.119231,0.0,0.08,5.0,,,,,,4.840625,PASS,
235,s01_lqr_pitch_step,g000029_c1,29,,0.16164628742231063,10.0,3.074855082879065e-06,20.769468223016307,,,,,,,,,,4.542,6.396,3.706,0.0,0.8368,0.119876,0.0,0.082,5.0,,,,,,5.161525,PASS,
236,s01_lqr_pitch_step,g000029_c2,29,,0.013641906846102931,6.608455797514501,9.207691417049787e-07,53.3138374907083,,,,,,,,,,4.537,6.3881,3.6727,0.0,0.8311,0.119218,0.0,0.08,5.0,,,,,,4.788125,PASS,
237,s01_lqr_pitch_step,g000029_c3,29,,0.12538424425981307,8.226817256023624,1e-07,100.0,,,,,,,,,,4.536,6.3862,3.677,0.0,0.8321,0.119278,0.0,0.08,5.0,,,,,,4.803725,PASS,
238,s01_lqr_pitch_step,g000029_c4,29,,0.04868315063496029,1.2121041165486715,8.464680328012545e-07,87.84758813908373,,,,,,,,,,4.5374,6.3847,3.6747,0.0,0.8317,0.119288,0.0,0.078,5.0,,,,,,4.79585,PASS,
239,s01_lqr_pitch_step,g000029_c5,29,,0.15611421370712125,5.2876880234281485,2.08169784297829e-06,15.829267874344255,,,,,,,,,,4.5426,6.397,3.6881,0.0,0.8343,0.119644,0.0,0.082,5.0,,,,,,4.812225,PASS,
240,s01_lqr_pitch_step,g000029_c6,29,,0.03906515061213536,0.7160534343037128,1.2659141127072135e-07,6.099729108765531,,,,,,,,,,4.5387,6.3849,3.6711,0.0,0.8307,0.119213,0.0,0.08,5.0,,,,,,4.77965,PASS,
241,s01_lqr_pitch_step,g000029_c7,29,,0.14165244611434602,9.798762593284968,6.298198129060817e-06,100.0,,,,,,,,,,4.5418,6.3928,3.6714,0.0,0.8308,0.119285,0.0,0.08,5.0,,,,,,4.79555,PASS,
242,s01_lqr_pitch_step,g000030_c0,30,,0.03656983193081484,3.3042343244339074,2.44186072809921e-07,20.024410478791232,,,,,,,,,,4.5363,6.3878,3.6952,0.0,0.8361,0.119728,0.0,0.08,5.0,,,,,,4.7858,PASS,
243,s01_lqr_pitch_step,g000030_c1,30,,0.07283890862389591,10.0,6.980478037372697e-07,50.75220019419672,,,,,,,,,,4.5365,6.3863,3.6993,0.0,0.8371,0.119805,0.0,0.08,5.0,,,,,,4.8041,PASS,
244,s01_lqr_pitch_step,g000030_c2,30,,0.11798630499233106,10.0,1.5233276801324547e-07,18.247470302672987,,,,,,,,,,4.532,6.385,3.7155,0.0,0.84,0.11987,0.0,0.084,5.0,,,,,,5.02565,PASS,
245,s01_lqr_pitch_step,g000030_c3,30,,0.12066502311990106,6.161314922061734,2.271909909009485e-07,9.803175231741065,,,,,,,,,,4.5335,6.3876,3.7356,0.0,0.8416,0.119999,0.0,0.084,5.0,,,,,,5.045325,PASS,
246,s01_lqr_pitch_step,g000030_c4,30,,0.048154471341470766,10.0,8.190020117214673e-07,1.7949854068500832,,,,,,,,,,1.7524,4.4267,0.4198,0.1,0.0,0.238512,0.0,5.0,0.55,,,,,,207.12175,FAIL,wheels off ground
247,s01_lqr_pitch_step,g000030_c5,30,,0.08642459766955624,4.690176755908783,3.6883257001955646e-07,55.630461652478715,,,,,,,,,,4.5367,6.386,3.6785,0.0,0.8326,0.119316,0.0,0.08,5.0,,,,,,4.7825,PASS,
248,s01_lqr_pitch_step,g000030_c6,30,,0.07571673867090627,10.0,1e-07,70.93151859677496,,,,,,,,,,4.5348,6.385,3.6971,0.0,0.8365,0.119731,0.0,0.08,5.0,,,,,,4.858125,PASS,
249,s01_lqr_pitch_step,g000030_c7,30,,0.1676353521824666,10.0,3.724545455123217e-07,55.93692698822172,,,,,,,,,,4.5358,6.3856,3.696,0.0,0.8362,0.119736,0.0,0.08,5.0,,,,,,4.86345,PASS,
250,s01_lqr_pitch_step,g000031_c0,31,,0.24439973703795903,10.0,4.477898510920297e-07,30.056027344788454,,,,,,,,,,4.5359,6.3897,3.692,0.0,0.8351,0.119576,0.0,0.082,5.0,,,,,,4.7653,PASS,
251,s01_lqr_pitch_step,g000031_c1,31,,0.08034625213675672,10.0,1.4085369444081058e-07,9.512751456281062,,,,,,,,,,4.5302,6.3911,3.7459,0.0,0.8437,0.119887,0.0,0.086,5.0,,,,,,5.35405,PASS,
252,s01_lqr_pitch_step,g000031_c2,31,,0.199332846853196,4.9307242639284175,1.3864109292077282e-07,8.453334874329391,,,,,,,,,,4.5335,6.3902,3.7027,0.0,0.8392,0.119749,0.0,0.084,5.0,,,,,,5.1285,PASS,
253,s01_lqr_pitch_step,g000031_c3,31,,0.09841806568580615,7.637438804795038,4.48822145487589e-07,13.720177873206561,,,,,,,,,,4.5358,6.3884,3.7114,0.0,0.8389,0.119815,0.0,0.084,5.0,,,,,,4.984,PASS,
254,s01_lqr_pitch_step,g000031_c4,31,,0.08626530946880713,1.8083133728110972,4.356997945618051e-07,2.635972112023068,,,,,,,,,,4.5412,6.3957,3.7362,0.0,0.8397,0.120005,0.0,0.084,5.0,,,,,,5.0177,PASS,
255,s01_lqr_pitch_step,g000031_c5,31,,0.03936569020859991,8.080938512645659,1.9425649262960203e-07,75.52504564463787,,,,,,,,,,4.5359,6.3834,3.6778,0.0,0.8323,0.119283,0.0,0.08,5.0,,,,,,4.81215,PASS,
256,s01_lqr_pitch_step,g000031_c6,31,,0.019183988002283665,10.0,6.169489193125439e-07,25.088651785786226,,,,,,,,,,4.536,6.3873,3.6954,0.0,0.8358,0.119615,0.0,0.082,5.0,,,,,,4.84865,PASS,
257,s01_lqr_pitch_step,g000031_c7,31,,0.07790008917833124,10.0,4.744231300334057e-07,64.92946811856115,,,,,,,,,,4.5358,6.3832,3.681,0.0,0.8331,0.119319,0.0,0.08,5.0,,,,,,4.7773,PASS,
258,s01_lqr_pitch_step,g000032_c0,32,,0.06582671164397277,7.622914418126321,1.7537898558689361e-07,23.799037774200976,,,,,,,,,,4.5342,6.3876,3.6921,0.0,0.8367,0.119698,0.0,0.082,5.0,,,,,,5.1448,PASS,
259,s01_lqr_pitch_step,g000032_c1,32,,0.011241946092432838,6.294823534776361,3.335013387048581e-07,7.9495931960874096,,,,,,,,,,4.5343,6.3948,3.7115,0.0,0.8401,0.119757,0.0,0.086,5.0,,,,,,5.0963,PASS,
260,s01_lqr_pitch_step,g000032_c2,32,,0.09086585512979148,5.369312075831193,6.320401893921344e-07,8.339334876362782,,,,,,,,,,4.5379,6.3924,3.7008,0.0,0.8378,0.119706,0.0,0.084,5.0,,,,,,5.0987,PASS,
261,s01_lqr_pitch_step,g000032_c3,32,,0.027387972437202042,8.940406546987571,7.819285149170386e-07,22.872574320655218,,,,,,,,,,4.5369,6.3883,3.7099,0.0,0.8371,0.11982,0.0,0.082,5.0,,,,,,5.1224,PASS,
262,s01_lqr_pitch_step,g000032_c4,32,,0.14721143909215853,10.0,1.8585271033835985e-07,46.02809562173145,,,,,,,,,,4.535,6.3859,3.7004,0.0,0.8373,0.119761,0.0,0.08,5.0,,,,,,4.8398,PASS,
263,s01_lqr_pitch_step,g000032_c5,32,,0.05904709197188702,10.0,7.463330668026206e-07,31.091971412280497,,,,,,,,,,4.5366,6.3911,3.7002,0.0,0.8368,0.119765,0.0,0.082,5.0,,,,,,4.9417,PASS,
264,s01_lqr_pitch_step,g000032_c6,32,,0.05613592471047445,8.819132139611227,5.680413455079215e-07,46.14088643862461,,,,,,,,,,4.5364,6.3886,3.6941,0.0,0.8357,0.119716,0.0,0.08,5.0,,,,,,4.838875,PASS,
265,s01_lqr_pitch_step,g000032_c7,32,,0.01065295803123653,10.0,3.0437707193041476e-07,29.435771853910357,,,,,,,,,,4.5349,6.3856,3.6931,0.0,0.8354,0.119572,0.0,0.082,5.0,,,,,,4.78235,PASS,
266,s01_lqr_pitch_step,g000033_c0,33,,0.0956430119590774,10.0,3.5103416837609996e-07,12.788629090966566,,,,,,,,,,4.5329,6.3875,3.7384,0.0,0.8424,0.119983,0.0,0.086,5.0,,,,,,5.038775,PASS,
267,s01_lqr_pitch_step,g000033_c1,33,,0.02438049865620497,3.5884785984786514,6.271615359367208e-07,21.532618567039986,,,,,,,,,,4.5379,6.3862,3.6787,0.0,0.8325,0.119317,0.0,0.08,5.0,,,,,,4.786675,PASS,
268,s01_lqr_pitch_step,g000033_c2,33,,0.056061179981016326,4.986282889970894,5.516318172012859e-07,32.86131781465663,,,,,,,,,,4.5368,6.3887,3.693,0.0,0.8356,0.119713,0.0,0.08,5.0,,,,,,4.789425,PASS,
269,s01_lqr_pitch_step,g000033_c3,33,,0.12350333803075667,5.680121955887377,6.797690007916552e-07,26.545514701103713,,,,,,,,,,4.5379,6.3886,3.6943,0.0,0.8357,0.119739,0.0,0.08,5.0,,,,,,4.901575,PASS,
270,s01_lqr_pitch_step,g000033_c4,33,,0.03236854504059916,10.0,9.42879749998444e-07,18.51322060453201,,,,,,,,,,4.5369,6.3933,3.7411,0.0,0.8404,0.12005,0.0,0.084,5.0,,,,,,5.069625,PASS,
271,s01_lqr_pitch_step,g000033_c5,33,,0.11795208303615655,6.437067173765548,3.3694247524457883e-07,16.329030077952236,,,,,,,,,,4.5359,6.39,3.7204,0.0,0.8394,0.119963,0.0,0.082,5.0,,,,,,5.106725,PASS,
272,s01_lqr_pitch_step,g000033_c6,33,,0.08062506134996227,9.139059998726093,3.8640282130337134e-07,35.600461806620906,,,,,,,,,,4.5353,6.3876,3.7017,0.0,0.8368,0.119807,0.0,0.08,5.0,,,,,,5.033075,PASS,
273,s01_lqr_pitch_step,g000033_c7,33,,0.02616281005595629,10.0,3.516777530668455e-07,38.78636531971655,,,,,,,,,,4.5349,6.3849,3.6997,0.0,0.8371,0.119749,0.0,0.08,5.0,,,,,,4.7653,PASS,
274,s01_lqr_pitch_step,g000034_c0,34,,0.0808068532150313,10.0,4.969231276034855e-07,32.57503863805879,,,,,,,,,,4.5355,6.3873,3.7051,0.0,0.8384,0.119822,0.0,0.082,5.0,,,,,,4.818025,PASS,
275,s01_lqr_pitch_step,g000034_c1,34,,0.04681744752538895,10.0,3.3269008263714324e-07,50.275729546070245,,,,,,,,,,4.5356,6.3848,3.6963,0.0,0.8363,0.119717,0.0,0.08,5.0,,,,,,4.845675,PASS,
276,s01_lqr_pitch_step,g000034_c2,34,,0.03636790825466178,10.0,4.613427933120842e-07,33.123154324129885,,,,,,,,,,4.5355,6.388,3.6935,0.0,0.8355,0.119594,0.0,0.082,5.0,,,,,,4.75455,PASS,
277,s01_lqr_pitch_step,g000034_c3,34,,0.051553035364312126,10.0,5.769187654485928e-07,42.74815986106707,,,,,,,,,,4.5365,6.3871,3.6961,0.0,0.8363,0.11972,0.0,0.08,5.0,,,,,,4.781825,PASS,
278,s01_lqr_pitch_step,g000034_c4,34,,0.05402609630318844,10.0,4.7499560506900454e-07,29.4891122542184,,,,,,,,,,4.5361,6.3879,3.7025,0.0,0.8377,0.119754,0.0,0.082,5.0,,,,,,4.7547,PASS,
279,s01_lqr_pitch_step,g000034_c5,34,,0.05844615120153625,10.0,2.0904575867696533e-07,43.942726528050585,,,,,,,,,,4.534,6.3838,3.7001,0.0,0.8371,0.119737,0.0,0.08,5.0,,,,,,4.8606,PASS,
280,s01_lqr_pitch_step,g000034_c6,34,,0.07738014863922107,10.0,3.561885137470179e-07,41.94085589629217,,,,,,,,,,4.5355,6.387,3.7025,0.0,0.8379,0.119831,0.0,0.08,5.0,,,,,,4.762275,PASS,
281,s01_lqr_pitch_step,g000034_c7,34,,0.06515629212236175,10.0,5.183808188181705e-07,27.77419337286168,,,,,,,,,,4.5355,6.3859,3.7052,0.0,0.8377,0.119828,0.0,0.082,5.0,,,,,,4.989,PASS,
282,s01_lqr_pitch_step,g000035_c0,35,,0.0638961493094551,7.9387581710305515,2.572883923823096e-07,18.13384347203602,,,,,,,,,,4.5347,6.3916,3.7107,0.0,0.8394,0.119877,0.0,0.082,5.0,,,,,,4.889975,PASS,
283,s01_lqr_pitch_step,g000035_c1,35,,0.08543706218117324,8.376738989265798,4.258948383749489e-07,17.983604448711255,,,,,,,,,,4.5357,6.3898,3.7117,0.0,0.839,0.119903,0.0,0.082,5.0,,,,,,4.9946,PASS,
284,s01_lqr_pitch_step,g000035_c2,35,,0.0501734674375288,10.0,3.1921829688067803e-07,19.906592060160676,,,,,,,,,,4.5344,6.3889,3.6935,0.0,0.8373,0.11962,0.0,0.084,5.0,,,,,,5.183525,PASS,
285,s01_lqr_pitch_step,g000035_c3,35,,0.036303773968740786,10.0,3.0019781672630197e-07,30.488466201915045,,,,,,,,,,4.5348,6.3857,3.7017,0.0,0.8375,0.119812,0.0,0.082,5.0,,,,,,5.059125,PASS,
286,s01_lqr_pitch_step,g000035_c4,35,,0.06372976560094185,10.0,2.1631308070116205e-07,18.879000127573104,,,,,,,,,,4.5325,6.3856,3.7136,0.0,0.8395,0.119792,0.0,0.084,5.0,,,,,,5.07505,PASS,
287,s01_lqr_pitch_step,g000035_c5,35,,0.05245514968847789,10.0,4.5343048455375484e-07,30.55708554798569,,,,,,,,,,4.5354,6.3904,3.7018,0.0,0.8374,0.119744,0.0,0.082,5.0,,,,,,4.8371,PASS,
288,s01_lqr_pitch_step,g000035_c6,35,,0.04810137371369223,7.515751294462843,4.837600361180838e-07,25.03246548582922,,,,,,,,,,4.5362,6.388,3.702,0.0,0.8375,0.119799,0.0,0.082,5.0,,,,,,4.85245,PASS,
289,s01_lqr_pitch_step,g000035_c7,35,,0.04678381476793579,6.91636833989911,3.831799536975584e-07,36.14428503643606,,,,,,,,,,4.5363,6.3879,3.6972,0.0,0.8366,0.119761,0.0,0.08,5.0,,,,,,4.794275,PASS,
290,s01_lqr_pitch_step,g000036_c0,36,,0.05237871896304631,10.0,4.942655088718675e-07,27.497969985093057,,,,,,,,,,4.5359,6.3866,3.7047,0.0,0.8382,0.119789,0.0,0.082,5.0,,,,,,4.776675,PASS,
291,s01_lqr_pitch_step,g000036_c1,36,,0.03931220677266454,9.409068246702102,6.451936682986547e-07,20.948618727175294,,,,,,,,,,4.5366,6.3902,3.7166,0.0,0.8375,0.119814,0.0,0.082,5.0,,,,,,4.988475,PASS,
292,s01_lqr_pitch_step,g000036_c2,36,,0.0669258059610315,7.967292920813807,3.4245596199543595e-07,28.90183717269361,,,,,,,,,,4.5351,6.3896,3.7002,0.0,0.8371,0.119754,0.0,0.08,5.0,,,,,,4.84085,PASS,
293,s01_lqr_pitch_step,g000036_c3,36,,0.053040916157714134,7.87783767302515,3.032055254171254e-07,30.912803130286246,,,,,,,,,,4.5346,6.3846,3.6996,0.0,0.837,0.119748,0.0,0.08,5.0,,,,,,4.8064,PASS,
294,s01_lqr_pitch_step,g000036_c4,36,,0.027213162738014145,10.0,3.731655006487179e-07,38.336293356802486,,,,,,,,,,4.5351,6.3844,3.7036,0.0,0.8381,0.11981,0.0,0.08,5.0,,,,,,4.7747,PASS,
295,s01_lqr_pitch_step,g000036_c5,36,,0.07298640608593435,10.0,2.027413901906727e-07,44.50577138469693,,,,,,,,,,4.5346,6.3814,3.698,0.0,0.8367,0.119717,0.0,0.08,5.0,,,,,,4.775325,PASS,
296,s01_lqr_pitch_step,g000036_c6,36,,0.13156329740437359,6.231528203820854,3.428605513199932e-07,15.749072160556903,,,,,,,,,,4.5354,6.3875,3.7059,0.0,0.8381,0.119867,0.0,0.082,5.0,,,,,,5.091075,PASS,
297,s01_lqr_pitch_step,g000036_c7,36,,0.07991197632570857,10.0,4.2606045770194987e-07,17.787945189072026,,,,,,,,,,4.5341,6.3875,3.7314,0.0,0.8399,0.119939,0.0,0.084,5.0,,,,,,5.030425,PASS,
298,s01_lqr_pitch_step,g000037_c0,37,,0.043696203929363124,8.680863668793963,3.7453669092475185e-07,49.531821717674575,,,,,,,,,,4.5367,6.3858,3.6803,0.0,0.8329,0.119283,0.0,0.08,5.0,,,,,,4.78,PASS,
299,s01_lqr_pitch_step,g000037_c1,37,,0.036964180729986904,10.0,3.0977455575071144e-07,36.17778809788043,,,,,,,,,,4.535,6.3865,3.7039,0.0,0.838,0.119832,0.0,0.08,5.0,,,,,,4.836875,PASS,
300,s01_lqr_pitch_step,g000037_c2,37,,0.04498849696634345,10.0,3.180457958613634e-07,22.206406074249163,,,,,,,,,,4.5346,6.3886,3.7237,0.0,0.8389,0.119899,0.0,0.082,5.0,,,,,,5.02945,PASS,
301,s01_lqr_pitch_step,g000037_c3,37,,0.06903254480202049,9.61786193855202,4.5430140183178036e-07,48.5628542907983,,,,,,,,,,4.5362,6.3884,3.6962,0.0,0.8363,0.119739,0.0,0.08,5.0,,,,,,4.796575,PASS,
302,s01_lqr_pitch_step,g000037_c4,37,,0.04163604997689965,10.0,3.0622146291110306e-07,26.96636695731911,,,,,,,,,,4.5351,6.3884,3.6981,0.0,0.8366,0.11965,0.0,0.082,5.0,,,,,,4.793525,PASS,
303,s01_lqr_pitch_step,g000037_c5,37,,0.061716293295746995,9.614406885710869,2.62051923403308e-07,28.19517969087657,,,,,,,,,,4.534,6.387,3.7097,0.0,0.8387,0.119874,0.0,0.082,5.0,,,,,,5.023875,PASS,
304,s01_lqr_pitch_step,g000037_c6,37,,0.04925579401365727,10.0,3.5452101935011955e-07,59.00323263396797,,,,,,,,,,4.5354,6.3855,3.6958,0.0,0.836,0.119759,0.0,0.08,5.0,,,,,,4.929325,PASS,
305,s01_lqr_pitch_step,g000037_c7,37,,0.03617584165016853,6.291796082393411,3.130282456429115e-07,26.716685492160053,,,,,,,,,,4.5355,6.3882,3.6972,0.0,0.8365,0.119711,0.0,0.08,5.0,,,,,,4.762725,PASS,
306,s01_lqr_pitch_step,g000038_c0,38,,0.04048501989189549,9.021473228649912,3.958762029096931e-07,26.81627396448399,,,,,,,,,,4.5349,6.3873,3.7027,0.0,0.8376,0.119773,0.0,0.082,5.0,,,,,,4.859325,PASS,
307,s01_lqr_pitch_step,g000038_c1,38,,0.05451185742633391,10.0,3.099519440628591e-07,32.12317738282044,,,,,,,,,,4.535,6.3863,3.7073,0.0,0.8385,0.119849,0.0,0.082,5.0,,,,,,4.964925,PASS,
308,s01_lqr_pitch_step,g000038_c2,38,,0.04901667816009071,6.457348273869274,2.62542578151527e-07,24.484262345238825,,,,,,,,,,4.5352,6.3867,3.6968,0.0,0.8364,0.119688,0.0,0.08,5.0,,,,,,4.781075,PASS,
309,s01_lqr_pitch_step,g000038_c3,38,,0.04740826887760328,10.0,3.9705007824703286e-07,36.43618089703779,,,,,,,,,,4.5352,6.3848,3.7007,0.0,0.8372,0.11977,0.0,0.08,5.0,,,,,,4.908075,PASS,
310,s01_lqr_pitch_step,g000038_c4,38,,0.04220559588079909,10.0,3.684541135497847e-07,29.13975569908825,,,,,,,,,,4.5349,6.3848,3.6965,0.0,0.8362,0.119621,0.0,0.082,5.0,,,,,,4.79085,PASS,
311,s01_lqr_pitch_step,g000038_c5,38,,0.06149472637162324,10.0,4.2969690025896097e-07,25.504863883232453,,,,,,,,,,4.5343,6.3901,3.7097,0.0,0.8388,0.119835,0.0,0.082,5.0,,,,,,4.97985,PASS,
312,s01_lqr_pitch_step,g000038_c6,38,,0.03883764893482465,10.0,5.682541533774456e-07,29.75505929644914,,,,,,,,,,4.5361,6.3866,3.696,0.0,0.8361,0.119654,0.0,0.082,5.0,,,,,,4.8204,PASS,
313,s01_lqr_pitch_step,g000038_c7,38,,0.053671071158886356,9.797526916738065,2.790536708131345e-07,33.075820029701525,,,,,,,,,,4.535,6.3866,3.7063,0.0,0.838,0.119842,0.0,0.082,5.0,,,,,,5.01145,PASS,
314,s01_lqr_pitch_step,g000039_c0,39,,0.0689071195411865,8.115044673177362,2.8014171867644105e-07,32.434910745966505,,,,,,,,,,4.5347,6.3859,3.6992,0.0,0.837,0.119742,0.0,0.08,5.0,,,,,,4.77625,PASS,
315,s01_lqr_pitch_step,g000039_c1,39,,0.04551305480744358,9.958508642344093,4.76279992751857e-07,20.199874748097997,,,,,,,,,,4.5349,6.3892,3.7097,0.0,0.8392,0.119805,0.0,0.082,5.0,,,,,,4.816,PASS,
316,s01_lqr_pitch_step,g000039_c2,39,,0.050173486721973644,10.0,3.9489234070458083e-07,25.806662318346206,,,,,,,,,,4.5348,6.3882,3.7035,0.0,0.8377,0.119769,0.0,0.082,5.0,,,,,,4.90805,PASS,
317,s01_lqr_pitch_step,g000039_c3,39,,0.0541592096032521,10.0,4.0180185662803493e-07,24.669529961953234,,,,,,,,,,4.5355,6.3865,3.7,0.0,0.8377,0.119756,0.0,0.082,5.0,,,,,,5.09375,PASS,
318,s01_lqr_pitch_step,g000039_c4,39,,0.049178869761886713,10.0,3.7784756957960144e-07,25.853895405908922,,,,,,,,,,4.5346,6.3863,3.7145,0.0,0.8381,0.11986,0.0,0.082,5.0,,,,,,5.162675,PASS,
319,s01_lqr_pitch_step,g000039_c5,39,,0.046657927205466326,10.0,3.444681579874461e-07,24.25437251737281,,,,,,,,,,4.5344,6.3872,3.7063,0.0,0.8385,0.11977,0.0,0.082,5.0,,,,,,4.7483,PASS,
320,s01_lqr_pitch_step,g000039_c6,39,,0.047323148660356744,9.681847731644824,3.3740730666908935e-07,31.551783174868223,,,,,,,,,,4.5353,6.3899,3.7019,0.0,0.8375,0.119758,0.0,0.082,5.0,,,,,,4.846425,PASS,
321,s01_lqr_pitch_step,g000039_c7,39,,0.07696057671997295,10.0,3.8174646212540245e-07,31.092846875658456,,,,,,,,,,4.5342,6.385,3.7076,0.0,0.8382,0.11987,0.0,0.082,5.0,,,,,,5.016875,PASS,
322,s01_lqr_pitch_step,g000040_c0,40,,0.04576554664472855,10.0,4.4272905549163207e-07,32.722268579282144,,,,,,,,,,4.5359,6.3872,3.6934,0.0,0.8355,0.119635,0.0,0.082,5.0,,,,,,4.798375,PASS,
323,s01_lqr_pitch_step,g000040_c1,40,,0.04123093705063377,9.83482626318231,3.3589765524294446e-07,20.805636111698043,,,,,,,,,,4.5342,6.3875,3.7184,0.0,0.8395,0.119902,0.0,0.082,5.0,,,,,,5.016475,PASS,
324,s01_lqr_pitch_step,g000040_c2,40,,0.05226584882667841,10.0,3.7572326049693443e-07,23.690290701443065,,,,,,,,,,4.5358,6.3874,3.7033,0.0,0.8378,0.119734,0.0,0.082,5.0,,,,,,4.751875,PASS,
