run_id,scenario,label,gen,timestamp,Q_PITCH,Q_PITCH_RATE,Q_VEL,R,KP_V,KI_V,KFF_V,KP_YAW,KI_YAW,LEG_K_S,LEG_B_S,LEG_K_ROLL,LEG_D_ROLL,rms_pitch_deg,max_pitch_deg,wheel_travel_m,wheel_liftoff_s,vel_track_rms_ms,hip_track_rms_rad,hip_cmd_rate_rms,settle_time_s,survived_s,fitness_balance,fitness_disturbance,fitness_drive_slow,fitness_drive_med,fitness_obstacle,fitness,status,fail_reason
1,s08_terrain_compliance,evo_seed,0,,,,,,,,,,,12.9624,0.109151,45.2559,0.491916,3.8981,14.2776,14.7882,0.314,0.8934,0.019747,6.0119,0.992,12.0,,,,,,2.092579,PASS,
2,s08_terrain_compliance,g000000_c0,0,,,,,,,,,,,92.70123364832583,0.34784089132580126,473.3839384956285,0.009403457535870215,10.244,31.175,41.5105,6.744,4.5084,0.119266,34.5867,12.0,12.0,,,,,,25.570299,PASS,
3,s08_terrain_compliance,g000000_c1,0,,,,,,,,,,,100.0,0.01,0.17542882063162304,1.6741794625670317,5.8207,27.2825,19.4872,0.662,1.932,0.040263,111.8619,12.0,12.0,,,,,,9.434999,PASS,
4,s08_terrain_compliance,g000000_c2,0,,,,,,,,,,,100.0,0.011254117573543148,3.083897924026789,0.03567355484824315,3.8705,12.8216,14.7433,0.33,0.9133,0.010541,0.4329,0.992,12.0,,,,,,3.344967,PASS,
5,s08_terrain_compliance,g000000_c3,0,,,,,,,,,,,0.21251796340934967,0.0713409382141583,129.6613252382324,0.012534247395998087,3.8688,18.1849,14.0642,0.282,0.6688,0.02002,11.7308,0.992,12.0,,,,,,7.913811,PASS,
6,s08_terrain_compliance,g000000_c4,0,,,,,,,,,,,10.436699788679297,0.01056136861471639,499.99999999999994,0.11444575336037859,8.2925,27.9072,32.3327,3.118,3.5207,0.117125,27.974,12.0,12.0,,,,,,19.746967,PASS,
7,s08_terrain_compliance,g000000_c5,0,,,,,,,,,,,20.42864324194541,0.8298677409247415,16.162547745899136,0.5250986383128191,3.8032,13.7278,14.7126,0.314,0.8709,0.017337,2.6647,0.994,12.0,,,,,,2.637396,PASS,
8,s08_terrain_compliance,g000000_c6,0,,,,,,,,,,,0.1,0.01,37.198108956545795,0.06470700504419546,3.8781,18.3112,13.9647,0.482,0.6117,0.02985,4.1546,0.992,12.0,,,,,,8.321551,PASS,
9,s08_terrain_compliance,g000000_c7,0,,,,,,,,,,,2.530168615370214,1.0038909419769233,3.3422414609055093,0.04885751947212854,3.8034,17.3835,14.6447,0.294,0.8902,0.009357,0.5777,0.994,12.0,,,,,,6.89637,PASS,
10,s08_terrain_compliance,g000001_c0,1,,,,,,,,,,,3.0248226897143087,0.017123212899334855,0.7127600511352181,0.08987705941711217,3.8639,18.4325,14.1525,0.266,0.6945,0.014355,0.4758,0.992,12.0,,,,,,7.412537,PASS,
11,s08_terrain_compliance,g000001_c1,1,,,,,,,,,,,0.4182735459149169,0.05906514252930562,499.99999999999994,0.06659759268009023,3.8705,18.2453,14.0498,0.282,0.661,0.020338,35.8053,0.992,12.0,,,,,,7.975191,PASS,
12,s08_terrain_compliance,g000001_c2,1,,,,,,,,,,,16.24705538354176,0.01,0.546188542097713,0.7586570719919589,3.9985,13.8804,15.2301,0.402,1.053,0.020861,1.7464,0.994,12.0,,,,,,5.826959,PASS,
13,s08_terrain_compliance,g000001_c3,1,,,,,,,,,,,16.466673407225027,0.6506527347454061,37.06787165537315,1.2281080142963774,3.8164,13.9617,14.7682,0.318,0.8963,0.018031,7.9136,0.992,12.0,,,,,,2.824699,PASS,
14,s08_terrain_compliance,g000001_c4,1,,,,,,,,,,,4.937781026715522,0.19853249032238826,499.99999999999994,0.16912025833310956,3.95,13.7762,15.2859,0.352,1.0848,0.033109,31.2934,1.006,12.0,,,,,,4.527199,PASS,
15,s08_terrain_compliance,g000001_c5,1,,,,,,,,,,,100.0,0.19002417503191127,499.99999999999994,1.0446973656189258,5.9783,23.0568,20.677,0.62,2.1374,0.032619,73.54,12.0,12.0,,,,,,12.155825,PASS,
16,s08_terrain_compliance,g000001_c6,1,,,,,,,,,,,2.324991108845776,0.12270980009798063,104.4724279102974,1.1942968218918195,3.795,17.7372,14.6707,0.282,0.8878,0.021187,11.3634,0.992,12.0,,,,,,5.3956,PASS,
17,s08_terrain_compliance,g000001_c7,1,,,,,,,,,,,0.23235677463797816,1.0745571804563274,10.256712878456314,0.09650689891147544,3.7696,17.0757,14.646,0.292,0.8875,0.008713,1.3809,0.992,12.0,,,,,,7.355637,PASS,
18,s08_terrain_compliance,g000002_c0,2,,,,,,,,,,,2.6100324487790387,3.785880282850297,0.4247511030067326,3.674492719157139,3.7493,17.0186,14.7501,0.294,0.9305,0.008643,10.9201,0.992,12.0,,,,,,6.933198,PASS,
19,s08_terrain_compliance,g000002_c1,2,,,,,,,,,,,1.7063378345331046,0.3059392225603141,1.2434376970862508,2.6319496490937033,3.8193,17.737,14.2643,0.272,0.7777,0.012975,5.5563,0.992,12.0,,,,,,7.047433,PASS,
20,s08_terrain_compliance,g000002_c2,2,,,,,,,,,,,1.722189740704369,1.174930356530184,28.769147571363643,12.076932450471338,3.7763,17.2773,14.6295,0.288,0.8828,0.009137,24.8966,0.992,12.0,,,,,,7.07605,PASS,
21,s08_terrain_compliance,g000002_c3,2,,,,,,,,,,,100.0,10.368352143946614,22.207327480691927,0.10789479889315469,3.8552,13.7302,15.0606,0.352,1.0183,0.019804,3.582,0.994,12.0,,,,,,3.348795,PASS,
22,s08_terrain_compliance,g000002_c4,2,,,,,,,,,,,10.66035920588168,0.049760524061199025,499.99999999999994,0.683255513849898,4.2834,13.76,15.9958,0.448,1.3194,0.063675,45.0333,1.288,12.0,,,,,,4.124586,PASS,
23,s08_terrain_compliance,g000002_c5,2,,,,,,,,,,,3.228691490083227,0.01,15.037067748398483,0.5024671254699137,3.9617,18.0802,14.8524,0.326,0.9453,0.035724,2.6879,0.992,12.0,,,,,,3.750805,PASS,
24,s08_terrain_compliance,g000002_c6,2,,,,,,,,,,,42.35343142493798,0.3805980701864571,26.275724337479783,2.3100774818984156,5.8649,20.2087,19.7549,0.538,1.9669,0.078022,128.7441,12.0,12.0,,,,,,8.664088,PASS,
25,s08_terrain_compliance,g000002_c7,2,,,,,,,,,,,6.93714197407999,0.20426190928629345,18.240936181390996,0.2025491069265489,3.9069,17.6764,14.9253,0.304,0.9967,0.023941,2.3665,0.994,12.0,,,,,,2.964167,PASS,
26,s08_terrain_compliance,g000003_c0,3,,,,,,,,,,,100.0,1.0607188146332762,2.3477840556047584,1.0849688699288729,4.4209,15.2963,16.0722,0.414,1.5447,0.028512,78.9457,12.0,12.0,,,,,,10.036096,PASS,
27,s08_terrain_compliance,g000003_c1,3,,,,,,,,,,,23.758990703959913,1.6776321136106505,63.78153921290484,0.10227619162303567,3.8051,13.7484,14.8521,0.318,0.9494,0.019773,7.6325,0.992,12.0,,,,,,2.9576,PASS,
28,s08_terrain_compliance,g000003_c2,3,,,,,,,,,,,4.793272801873354,0.014292647973900006,22.60657606237748,43.72296218277795,3.7176,13.5645,14.6749,0.356,0.8865,0.047071,139.7856,1.026,12.0,,,,,,6.684526,PASS,
29,s08_terrain_compliance,g000003_c3,3,,,,,,,,,,,100.0,0.12037767335955425,166.9627051277928,4.1258696848922,6.5893,27.9743,18.9985,0.812,1.8474,0.03908,137.2671,12.0,12.0,,,,,,15.275883,PASS,
30,s08_terrain_compliance,g000003_c4,3,,,,,,,,,,,29.959371362396496,0.01,499.99999999999994,0.0016719843841535836,14.1347,33.6148,17.529,2.264,7.0649,0.125785,29.1243,12.0,3.318,,,,,,345.196521,FAIL,fell over
31,s08_terrain_compliance,g000003_c5,3,,,,,,,,,,,1.6367762786843625,0.014903647979500778,141.25296173703424,1.1756903551790838,3.8427,18.1474,14.1123,0.256,0.6729,0.019578,13.6796,0.992,12.0,,,,,,6.903011,PASS,
32,s08_terrain_compliance,g000003_c6,3,,,,,,,,,,,100.0,0.05200666213766659,4.931822811456776,8.116838569229726,4.7687,15.6929,17.7891,0.498,1.7162,0.03722,143.2889,12.0,12.0,,,,,,13.252318,PASS,
33,s08_terrain_compliance,g000003_c7,3,,,,,,,,,,,7.543409946558586,1.2938081181633163,12.951400061594233,39.42471711409014,3.6465,14.2933,14.6809,0.332,0.9743,0.074918,144.713,1.01,12.0,,,,,,6.528803,PASS,
34,s08_terrain_compliance,g000004_c0,4,,,,,,,,,,,11.885091489219331,0.04545774425099229,205.46465817196218,0.6685901364770958,4.0045,14.4035,14.9023,0.328,0.9376,0.023903,20.1913,0.994,12.0,,,,,,2.988378,PASS,
35,s08_terrain_compliance,g000004_c1,4,,,,,,,,,,,4.053957215920658,0.04565125288074642,499.99999999999994,0.3528271458853655,3.8878,14.4171,14.7912,0.328,0.8884,0.025681,32.9092,0.988,12.0,,,,,,2.678065,PASS,
36,s08_terrain_compliance,g000004_c2,4,,,,,,,,,,,1.3126395690462431,0.16548354327524212,10.787913188901554,0.09324474179331671,3.8455,17.9163,14.1984,0.27,0.739,0.013833,1.3508,0.992,12.0,,,,,,7.566405,PASS,
37,s08_terrain_compliance,g000004_c3,4,,,,,,,,,,,100.0,0.4708130647494348,18.29012928238815,4.836374669272316,4.7389,14.6693,17.6467,0.602,1.8123,0.033043,144.1233,12.0,12.0,,,,,,13.900141,PASS,
38,s08_terrain_compliance,g000004_c4,4,,,,,,,,,,,0.3500470844112805,1.7444262829238728,159.87231911066473,0.6999767973907041,3.7783,17.0843,14.7017,0.294,0.9097,0.008419,14.3557,0.992,12.0,,,,,,7.288972,PASS,
39,s08_terrain_compliance,g000004_c5,4,,,,,,,,,,,100.0,0.013960374750498484,135.1381972547495,4.573348830534753,5.4309,18.6738,19.0378,0.776,1.9278,0.045198,140.4534,12.0,12.0,,,,,,13.952091,PASS,
40,s08_terrain_compliance,g000004_c6,4,,,,,,,,,,,100.0,2.368828571454179,3.583811693359517,2.099107867619761,4.696,16.7159,16.3233,0.382,1.6079,0.028579,132.4949,12.0,12.0,,,,,,9.626064,PASS,
41,s08_terrain_compliance,g000004_c7,4,,,,,,,,,,,71.97556607294372,0.01,91.78601579686536,100.0,7.0829,29.9397,21.3991,0.602,2.0817,0.067284,142.634,12.0,12.0,,,,,,13.021871,PASS,
42,s08_terrain_compliance,g000005_c0,5,,,,,,,,,,,7.650510633866126,1.1745172107347204,2.2858831238022104,0.29802373251901615,3.8305,17.472,14.6532,0.294,0.9115,0.013222,1.2313,0.992,12.0,,,,,,5.202185,PASS,
43,s08_terrain_compliance,g000005_c1,5,,,,,,,,,,,13.969145013801894,0.01,367.01224101013474,0.027175944870905352,7.5194,16.6775,32.4679,3.456,3.4329,0.116077,30.7788,12.0,12.0,,,,,,12.493154,PASS,
44,s08_terrain_compliance,g000005_c2,5,,,,,,,,,,,0.3584063034654887,0.9399160535314913,92.53725480419695,100.0,3.7704,17.1665,14.602,0.29,0.8758,0.008983,68.4253,0.994,12.0,,,,,,7.391446,PASS,
45,s08_terrain_compliance,g000005_c3,5,,,,,,,,,,,5.437294066119974,0.44635806566339425,499.99999999999994,1.0362129440238028,3.9062,16.8908,15.0419,0.32,1.0628,0.023961,40.0993,0.994,12.0,,,,,,4.157591,PASS,
46,s08_terrain_compliance,g000005_c4,5,,,,,,,,,,,4.680064439047094,0.035877106665329984,499.99999999999994,0.04850662364998648,3.7779,13.6294,14.8209,0.348,0.9566,0.035986,27.3472,0.99,12.0,,,,,,4.225241,PASS,
47,s08_terrain_compliance,g000005_c5,5,,,,,,,,,,,27.169350815330276,6.862195161978698,119.79952703226802,1.1234521285245096,4.1026,17.213,16.3426,0.472,1.413,0.025961,26.6061,0.992,12.0,,,,,,6.08335,PASS,
48,s08_terrain_compliance,g000005_c6,5,,,,,,,,,,,13.348685770341895,0.01,499.99999999999994,0.09643423358906868,7.4046,22.3995,29.3497,3.3,3.0773,0.117036,30.7226,12.0,12.0,,,,,,11.016035,PASS,
49,s08_terrain_compliance,g000005_c7,5,,,,,,,,,,,100.0,0.1087381939663213,1.6521289740134601,0.9221186320065562,4.9997,18.5028,16.4434,0.384,1.5732,0.031838,67.4272,12.0,12.0,,,,,,10.100543,PASS,
50,s08_terrain_compliance,g000006_c0,6,,,,,,,,,,,9.291668276555756,0.09482714747734816,3.672567555800826,5.264196296593035,3.9897,14.5266,14.772,0.298,0.8596,0.023668,24.4694,0.992,12.0,,,,,,4.131993,PASS,
51,s08_terrain_compliance,g000006_c1,6,,,,,,,,,,,19.874550841765547,0.06302088884581243,192.7304177477481,0.7580264311458186,3.8529,14.0901,14.8334,0.342,0.9348,0.021796,21.5507,0.994,12.0,,,,,,3.582728,PASS,
52,s08_terrain_compliance,g000006_c2,6,,,,,,,,,,,2.130244877974198,3.246476978389316,140.18411700892565,0.4587427847435594,3.7751,17.0939,14.9193,0.3,0.9884,0.008477,12.9732,0.994,12.0,,,,,,7.073241,PASS,
53,s08_terrain_compliance,g000006_c3,6,,,,,,,,,,,36.306168751649736,27.899123869676977,47.75715491291563,6.474826135408407,5.7586,27.6073,16.5241,0.448,1.5728,0.019472,137.2976,12.0,12.0,,,,,,11.672377,PASS,
54,s08_terrain_compliance,g000006_c4,6,,,,,,,,,,,1.4837043434763721,9.05314549547851,499.99999999999994,5.016754532254732,3.7692,16.989,14.8602,0.296,0.9648,0.008118,41.2784,0.994,12.0,,,,,,7.198069,PASS,
55,s08_terrain_compliance,g000006_c5,6,,,,,,,,,,,100.0,0.02178862870574575,499.99999999999994,0.5967828866606546,7.1017,15.6395,26.1345,1.826,2.6023,0.056137,50.4998,12.0,12.0,,,,,,13.802683,PASS,
56,s08_terrain_compliance,g000006_c6,6,,,,,,,,,,,62.067279388077914,0.24411942556686847,16.834180631006426,0.5642639458764972,4.0882,16.7392,14.8205,0.376,0.9574,0.016108,7.1317,0.992,12.0,,,,,,2.763606,PASS,
57,s08_terrain_compliance,g000006_c7,6,,,,,,,,,,,8.619645173223994,0.04192691330955131,338.9569995634234,0.15785327915301856,6.2017,15.1351,20.4076,0.78,2.1092,0.102269,28.3616,1.024,12.0,,,,,,4.870571,PASS,
58,s08_terrain_compliance,g000007_c0,7,,,,,,,,,,,36.54206840455192,0.07247642870250141,7.077430942003723,0.5175195104382015,3.8482,13.3517,14.8362,0.382,0.9364,0.01676,1.4762,0.992,12.0,,,,,,2.814992,PASS,
59,s08_terrain_compliance,g000007_c1,7,,,,,,,,,,,100.0,0.05328481819908098,5.762141884062988,0.29415561337738116,4.1528,17.6954,14.7598,0.416,0.9829,0.01422,1.6844,0.992,12.0,,,,,,2.819397,PASS,
60,s08_terrain_compliance,g000007_c2,7,,,,,,,,,,,100.0,0.10351119785931262,6.655213814765263,0.3603581633098782,4.1353,17.5491,14.7436,0.418,0.9781,0.014499,3.3165,0.992,12.0,,,,,,2.671013,PASS,
61,s08_terrain_compliance,g000007_c3,7,,,,,,,,,,,4.3889934220057025,0.8638941349650514,209.9093679607061,0.013800144763146026,3.8066,17.168,15.2664,0.316,1.1258,0.01739,18.0821,0.992,12.0,,,,,,5.376595,PASS,
62,s08_terrain_compliance,g000007_c4,7,,,,,,,,,,,100.0,3.948129740589001,499.99999999999994,0.14827548430842494,6.5557,25.8315,24.0814,0.958,2.36,0.075351,49.0034,12.0,12.0,,,,,,8.080046,PASS,
63,s08_terrain_compliance,g000007_c5,7,,,,,,,,,,,100.0,0.01,10.600642477782909,0.03952411595171979,4.0527,16.773,14.7899,0.364,0.9776,0.015423,1.3951,0.992,12.0,,,,,,2.522224,PASS,
64,s08_terrain_compliance,g000007_c6,7,,,,,,,,,,,24.80330869068622,0.26028908609531887,499.99999999999994,0.003734303568849044,8.7997,30.8605,28.9796,2.454,3.0062,0.112662,40.4715,12.0,12.0,,,,,,21.362386,PASS,
65,s08_terrain_compliance,g000007_c7,7,,,,,,,,,,,65.98921763354222,25.105274416424116,499.99999999999994,0.00018122739579431063,6.4836,26.3957,19.836,0.612,2.0923,0.093803,35.8119,12.0,12.0,,,,,,13.979891,PASS,
66,s08_terrain_compliance,g000008_c0,8,,,,,,,,,,,6.3408567807704355,0.8025022693535316,487.2765763512851,0.13574261496462972,3.9964,13.6521,15.3222,0.342,1.0859,0.033211,37.5678,0.99,12.0,,,,,,4.733565,PASS,
67,s08_terrain_compliance,g000008_c1,8,,,,,,,,,,,61.57217103957434,0.07511925665075,2.1907221531661785,0.16365608797745035,3.861,13.1157,14.7067,0.312,0.8962,0.010609,0.4923,0.992,12.0,,,,,,4.182754,PASS,
68,s08_terrain_compliance,g000008_c2,8,,,,,,,,,,,15.857724245011259,0.8152515237511959,3.064330621200792,0.11057828577108143,3.8034,13.3249,14.6392,0.3,0.8387,0.012266,0.5587,0.992,12.0,,,,,,3.809286,PASS,
69,s08_terrain_compliance,g000008_c3,8,,,,,,,,,,,100.0,0.01,328.70636683155567,1.1887409337035968,5.7065,20.6847,20.4343,0.658,2.11,0.032253,77.5522,12.0,12.0,,,,,,12.822716,PASS,
70,s08_terrain_compliance,g000008_c4,8,,,,,,,,,,,48.61147422939997,0.37946888491554936,270.17159711684906,10.606494667286483,6.6379,27.7668,20.1329,0.71,2.114,0.072814,143.3379,12.0,12.0,,,,,,13.999807,PASS,
71,s08_terrain_compliance,g000008_c5,8,,,,,,,,,,,55.823360487579976,0.30740503218921134,0.5057955609153787,0.30550542778473816,3.8093,13.3196,14.6258,0.356,0.8562,0.013994,0.6039,0.992,12.0,,,,,,5.966991,PASS,
72,s08_terrain_compliance,g000008_c6,8,,,,,,,,,,,7.646375546280156,0.29515337711081807,3.346086002241591,1.112348720303491,3.8627,14.1378,14.5884,0.286,0.7911,0.016482,2.1296,0.992,12.0,,,,,,3.475295,PASS,
73,s08_terrain_compliance,g000008_c7,8,,,,,,,,,,,17.762639952996352,0.5976317908380901,10.182147128223567,0.0041737426489163775,3.8119,13.5295,14.6985,0.31,0.8648,0.017112,1.1803,0.992,12.0,,,,,,2.411281,PASS,
74,s08_terrain_compliance,g000009_c0,9,,,,,,,,,,,100.0,2.085563706811766,256.0159261697252,0.29184028557259867,6.5719,28.3537,20.4234,0.934,2.1424,0.035462,46.4256,12.0,12.0,,,,,,13.431486,PASS,
75,s08_terrain_compliance,g000009_c1,9,,,,,,,,,,,0.8966535674524752,0.27833466808335544,3.168190276806508,0.4428699321373781,3.833,17.8149,14.2514,0.276,0.7712,0.012216,2.0595,0.994,12.0,,,,,,7.578897,PASS,
76,s08_terrain_compliance,g000009_c2,9,,,,,,,,,,,90.15227511872767,0.24457346501137242,468.9650093043057,36.58830472389501,6.1679,27.2103,20.2829,0.716,2.2201,0.04337,142.7101,12.0,12.0,,,,,,13.064952,PASS,
77,s08_terrain_compliance,g000009_c3,9,,,,,,,,,,,4.511838121965131,7.2487771761079545,259.95005997355463,3.029069342396702,3.7637,17.0444,15.024,0.302,1.0284,0.009343,27.3257,0.994,12.0,,,,,,6.819598,PASS,
78,s08_terrain_compliance,g000009_c4,9,,,,,,,,,,,0.3268755251271899,0.9173032926109251,17.32981803081278,3.5313067797873563,3.7713,17.1912,14.6174,0.29,0.8809,0.008939,11.6728,0.992,12.0,,,,,,7.403985,PASS,
79,s08_terrain_compliance,g000009_c5,9,,,,,,,,,,,2.7605236252411895,41.51861045910666,499.99999999999994,0.03713217416731188,4.2191,18.0006,15.8385,0.47,1.4951,0.008376,37.0828,12.0,12.0,,,,,,12.752506,PASS,
80,s08_terrain_compliance,g000009_c6,9,,,,,,,,,,,0.8294757123479201,0.22925835772577363,79.12843869565367,0.8320848350122504,3.8461,18.0139,14.1924,0.268,0.7424,0.012618,8.8609,0.992,12.0,,,,,,7.437682,PASS,
81,s08_terrain_compliance,g000009_c7,9,,,,,,,,,,,0.8011657984254209,0.29846813346303286,26.594990453687533,0.17739703968990897,3.8298,17.801,14.2376,0.274,0.7658,0.011656,3.1348,0.992,12.0,,,,,,7.497385,PASS,
82,s08_terrain_compliance,g000010_c0,10,,,,,,,,,,,8.645604470397268,0.03396446759169975,4.263816845880586,1.5396450557482633,4.1266,14.2022,14.8792,0.296,0.8697,0.022107,2.4795,0.992,12.0,,,,,,3.686633,PASS,
83,s08_terrain_compliance,g000010_c1,10,,,,,,,,,,,0.8153933391451479,0.09802602976099219,2.8672299710254356,0.2831103706446405,3.8497,17.9288,14.1423,0.264,0.7104,0.01644,1.4254,0.992,12.0,,,,,,7.849261,PASS,
84,s08_terrain_compliance,g000010_c2,10,,,,,,,,,,,21.31892118258696,0.29383470836855224,327.0956130929986,0.053457066165871016,6.0767,20.826,23.1156,1.434,2.354,0.107083,40.6415,12.0,12.0,,,,,,13.980605,PASS,
85,s08_terrain_compliance,g000010_c3,10,,,,,,,,,,,9.797429109882984,0.8310423501698432,22.747608576451395,0.020804419502502967,3.9184,17.112,15.24,0.4,1.1292,0.021762,2.886,0.994,12.0,,,,,,4.156962,PASS,
86,s08_terrain_compliance,g000010_c4,10,,,,,,,,,,,100.0,0.18798834981078555,14.985453564270118,0.17755583876018213,4.3029,18.0288,14.8658,0.478,1.0231,0.017072,2.68,0.992,12.0,,,,,,3.191929,PASS,
87,s08_terrain_compliance,g000010_c5,10,,,,,,,,,,,100.0,0.06813015820177779,33.94834245128046,0.22725227365615713,3.8358,13.4144,15.1628,0.504,1.0449,0.018924,7.3556,0.998,12.0,,,,,,4.441013,PASS,
88,s08_terrain_compliance,g000010_c6,10,,,,,,,,,,,100.0,0.2563795731037084,129.82604046523116,0.007191253945945291,7.8986,26.1826,28.372,4.094,2.9234,0.073671,34.1428,12.0,12.0,,,,,,12.194345,PASS,
89,s08_terrain_compliance,g000010_c7,10,,,,,,,,,,,10.194044578110244,1.0206715877071022,121.28902965978594,0.43518933411103594,3.8703,16.716,15.138,0.402,1.0921,0.023045,12.765,0.994,12.0,,,,,,4.111732,PASS,
90,s08_terrain_compliance,g000011_c0,11,,,,,,,,,,,7.6917480155798446,0.0635956865812815,9.017966425903849,0.1767784848500573,3.9142,14.0838,14.6445,0.298,0.8139,0.019595,1.281,0.994,12.0,,,,,,2.136637,PASS,
91,s08_terrain_compliance,g000011_c1,11,,,,,,,,,,,5.546056910319386,0.1157134496720981,499.99999999999994,1.2922229166813683,4.021,17.2873,15.2258,0.32,1.1054,0.031751,41.4086,0.992,12.0,,,,,,3.07779,PASS,
92,s08_terrain_compliance,g000011_c2,11,,,,,,,,,,,1.5868802610347899,0.07914659818242198,11.355108815116122,0.3210318045452201,3.8556,18.28,14.106,0.264,0.6893,0.015946,1.9502,0.992,12.0,,,,,,7.129552,PASS,
93,s08_terrain_compliance,g000011_c3,11,,,,,,,,,,,28.72464837315911,1.6115207528507725,82.89341944908129,0.17335723400455905,3.8302,14.0663,14.8981,0.324,0.9613,0.019475,9.7364,0.994,12.0,,,,,,2.962417,PASS,
94,s08_terrain_compliance,g000011_c4,11,,,,,,,,,,,43.38136468714939,0.0448667220752646,3.4728926892792304,0.8712424408425232,3.8286,13.4058,14.9723,0.396,0.9642,0.017964,2.6987,0.992,12.0,,,,,,4.57436,PASS,
95,s08_terrain_compliance,g000011_c5,11,,,,,,,,,,,14.144256202146234,0.039322539351096225,44.32019424250649,11.085732703337134,4.0602,18.8178,15.2199,0.404,1.0144,0.102375,142.2549,12.0,12.0,,,,,,7.604269,PASS,
96,s08_terrain_compliance,g000011_c6,11,,,,,,,,,,,27.173628907578433,0.0670982412837988,180.43055956609982,6.242687533154942,6.4396,27.2413,20.692,0.668,2.1576,0.109526,137.9578,12.0,12.0,,,,,,12.959761,PASS,
97,s08_terrain_compliance,g000011_c7,11,,,,,,,,,,,7.891145057224376,0.0409531812878674,6.842185356733498,0.1843005313156778,4.0163,18.5189,14.6595,0.296,0.9362,0.027767,1.1075,0.992,12.0,,,,,,2.511904,PASS,
98,s08_terrain_compliance,g000012_c0,12,,,,,,,,,,,4.043994524494243,0.08563002879742494,499.99999999999994,1.0022056698989545,3.9569,17.0938,15.1759,0.308,1.0722,0.034201,39.138,0.992,12.0,,,,,,3.534318,PASS,
99,s08_terrain_compliance,g000012_c1,12,,,,,,,,,,,27.30840085534948,0.5949015092631721,40.86868986045689,1.6155893987481411,3.8249,13.9788,14.8384,0.33,0.9289,0.018148,21.7827,0.992,12.0,,,,,,3.028389,PASS,
100,s08_terrain_compliance,g000012_c2,12,,,,,,,,,,,25.977347974518214,0.2884149824747154,2.2989132153783416,0.43751539711782994,3.7823,13.2915,14.6808,0.306,0.8721,0.014731,0.8612,0.992,12.0,,,,,,4.4365,PASS,
101,s08_terrain_compliance,g000012_c3,12,,,,,,,,,,,35.075420197599996,0.01598315709327239,292.95070332809854,0.7953494180264163,4.2717,14.1397,15.3485,0.468,1.2211,0.030281,39.0379,12.0,12.0,,,,,,8.650876,PASS,
102,s08_terrain_compliance,g000012_c4,12,,,,,,,,,,,100.0,0.22991037716493382,64.36422359444991,1.2048080099272043,6.6994,29.3487,18.5194,0.602,2.025,0.031474,85.9262,12.0,12.0,,,,,,11.94343,PASS,
103,s08_terrain_compliance,g000012_c5,12,,,,,,,,,,,41.3383957213383,0.045019496434619465,13.123890627453349,3.683326672929068,6.9885,29.6284,19.4846,0.644,1.8835,0.090492,140.4729,12.0,12.0,,,,,,14.70208,PASS,
104,s08_terrain_compliance,g000012_c6,12,,,,,,,,,,,11.04556995515865,0.11490804755666047,2.0915502696324877,0.4464171600895534,3.8662,13.9622,14.628,0.288,0.821,0.014822,1.5319,0.992,12.0,,,,,,4.100026,PASS,
105,s08_terrain_compliance,g000012_c7,12,,,,,,,,,,,6.267128877946588,0.1479454968547676,1.8729028222548878,0.16761309797109275,3.8933,18.7107,14.4753,0.294,0.8716,0.016907,0.7534,0.992,12.0,,,,,,4.64292,PASS,
106,s08_terrain_compliance,g000013_c0,13,,,,,,,,,,,1.2958170879811504,0.09254829832552616,24.496073985784584,1.0760134157593688,3.8675,18.4202,14.0589,0.26,0.6697,0.015888,4.6947,0.992,12.0,,,,,,7.44629,PASS,
107,s08_terrain_compliance,g000013_c1,13,,,,,,,,,,,4.112639608485662,0.01,76.92511136637432,4.5123551153933175,3.9611,17.3202,14.7153,0.29,0.9174,0.034675,13.1291,0.992,12.0,,,,,,2.381662,PASS,
108,s08_terrain_compliance,g000013_c2,13,,,,,,,,,,,12.094121403731515,0.03976235670843827,61.5773773381332,0.5254033106932329,3.8855,14.2994,14.7989,0.316,0.9019,0.020004,8.0051,0.992,12.0,,,,,,2.218759,PASS,
109,s08_terrain_compliance,g000013_c3,13,,,,,,,,,,,11.810580350452566,0.034970023327102855,21.31858481726537,0.030648784844128047,3.9886,14.5832,14.6698,0.306,0.8117,0.02134,2.4687,0.992,12.0,,,,,,1.465577,PASS,
110,s08_terrain_compliance,g000013_c4,13,,,,,,,,,,,2.2259010911562145,0.024411364948325947,117.73440461496874,0.14882736812998276,3.8491,17.9051,14.2496,0.27,0.7624,0.029014,11.4217,0.992,12.0,,,,,,5.157854,PASS,
111,s08_terrain_compliance,g000013_c5,13,,,,,,,,,,,34.75895277949089,0.4085528382574842,145.1963632916706,0.1220311106739597,5.4982,16.348,20.2168,0.734,2.0078,0.073221,39.2454,12.0,12.0,,,,,,13.970345,PASS,
112,s08_terrain_compliance,g000013_c6,13,,,,,,,,,,,4.7608333542898515,0.23982336358286233,20.91259351715078,0.1940133004561301,3.9104,17.631,15.0293,0.308,1.0515,0.023394,2.7965,0.992,12.0,,,,,,3.872853,PASS,
113,s08_terrain_compliance,g000013_c7,13,,,,,,,,,,,40.274394155955946,0.08287009978159368,74.75642983243995,1.6732170232996564,5.6566,18.5874,18.5614,0.532,1.7219,0.05349,75.7181,12.0,12.0,,,,,,9.081438,PASS,
114,s08_terrain_compliance,g000014_c0,14,,,,,,,,,,,12.920798256459763,0.013742692698266291,7.569364217046051,0.014453323201161205,3.8783,13.8349,14.7187,0.31,0.8672,0.019357,0.8757,0.992,12.0,,,,,,2.24202,PASS,
115,s08_terrain_compliance,g000014_c1,14,,,,,,,,,,,4.753826568144406,0.027457926946562725,64.93195205064907,0.00783623264175665,4.1381,17.5425,15.3319,0.332,1.0761,0.042791,7.9169,0.992,12.0,,,,,,2.300525,PASS,
116,s08_terrain_compliance,g000014_c2,14,,,,,,,,,,,11.672042330996176,0.031134818753228096,47.16516604620187,0.03165234745427699,4.244,14.5039,15.0254,0.36,0.9297,0.024507,5.9165,0.992,12.0,,,,,,2.104716,PASS,
117,s08_terrain_compliance,g000014_c3,14,,,,,,,,,,,6.1723470160566976,0.04853047861670606,25.874859310115585,0.05564836233139205,4.0084,17.8399,14.9778,0.306,1.0052,0.029497,3.0683,0.992,12.0,,,,,,2.305921,PASS,
118,s08_terrain_compliance,g000014_c4,14,,,,,,,,,,,5.679247417514347,0.01,10.825706385208205,0.016987537561373677,4.4948,18.424,15.398,0.304,1.0881,0.037607,1.4274,0.992,12.0,,,,,,2.460545,PASS,
119,s08_terrain_compliance,g000014_c5,14,,,,,,,,,,,3.6789717551065944,0.030516488333918547,11.15541963713744,0.023874659479125312,3.9427,18.431,15.1169,0.356,1.0473,0.032649,1.5553,0.992,12.0,,,,,,4.015406,PASS,
120,s08_terrain_compliance,g000014_c6,14,,,,,,,,,,,39.07662404894955,0.06385575214393388,49.765288736791305,0.018789192255922026,7.3717,26.471,27.588,2.704,2.8626,0.07297,25.5058,12.0,12.0,,,,,,5.434841,PASS,
121,s08_terrain_compliance,g000014_c7,14,,,,,,,,,,,11.568717084177917,0.14523821357533434,73.8951580842412,0.007845724363501512,3.9551,14.9634,14.6518,0.322,1.0377,0.068072,17.7426,0.992,12.0,,,,,,2.61673,PASS,
122,s08_terrain_compliance,g000015_c0,15,,,,,,,,,,,16.49327512360239,0.02051645101645979,8.48260954876735,0.045768984201310633,3.9061,13.7817,14.7152,0.306,0.8569,0.018609,1.0211,0.992,12.0,,,,,,1.856297,PASS,
123,s08_terrain_compliance,g000015_c1,15,,,,,,,,,,,25.48470941155315,0.024254344397616884,11.321735495093794,0.13301468568222924,3.8199,13.2226,14.7977,0.382,0.9136,0.018815,1.4254,0.992,12.0,,,,,,2.261782,PASS,
124,s08_terrain_compliance,g000015_c2,15,,,,,,,,,,,4.967017662807197,0.031231724517070715,5.032919495610316,0.030145929550120232,4.0062,18.9587,15.0787,0.34,1.0472,0.030242,0.7987,0.992,12.0,,,,,,4.032769,PASS,
125,s08_terrain_compliance,g000015_c3,15,,,,,,,,,,,38.20543508893426,0.032479797109368325,25.723091213210214,0.01664766588694886,6.1626,17.2503,21.0417,1.496,2.2303,0.048992,12.6305,0.99,12.0,,,,,,11.663762,PASS,
126,s08_terrain_compliance,g000015_c4,15,,,,,,,,,,,9.608672811177453,0.03661185453662516,14.26491586158193,0.022673433283291643,3.9407,14.0888,14.7605,0.302,0.8613,0.020792,1.6866,0.992,12.0,,,,,,1.977963,PASS,
127,s08_terrain_compliance,g000015_c5,15,,,,,,,,,,,4.976218266422013,0.03446013281601073,12.157196479340032,0.04647356946493581,4.0371,18.4313,14.9991,0.312,1.0299,0.033109,1.6052,0.992,12.0,,,,,,2.897851,PASS,
128,s08_terrain_compliance,g000015_c6,15,,,,,,,,,,,44.04990010665908,0.02181609138995514,40.86242284553807,0.016913651709408558,8.9534,22.6463,34.5745,4.98,3.6824,0.081994,23.1244,12.0,12.0,,,,,,14.149417,PASS,
129,s08_terrain_compliance,g000015_c7,15,,,,,,,,,,,2.5708128377105717,0.026779466349309746,20.3808120264858,0.021863267344951403,3.8419,18.2425,14.7108,0.278,0.9011,0.030241,2.5939,0.992,12.0,,,,,,5.138208,PASS,
130,s08_terrain_compliance,g000016_c0,16,,,,,,,,,,,7.61521501691048,0.017611395415920526,28.206552731331637,0.03179541942399699,4.468,17.7493,15.0943,0.302,0.9947,0.032219,3.5549,0.992,12.0,,,,,,2.117339,PASS,
131,s08_terrain_compliance,g000016_c1,16,,,,,,,,,,,11.006391377717836,0.096179049733628,40.845851969556385,0.033608417619842394,4.0694,14.3946,14.9759,0.352,0.9349,0.022935,5.1341,0.992,12.0,,,,,,2.004275,PASS,
132,s08_terrain_compliance,g000016_c2,16,,,,,,,,,,,56.21099214572566,0.018874252207170174,46.5418592833073,0.037359569447664914,7.3806,26.3998,26.2017,2.316,2.8131,0.05604,24.2841,12.0,12.0,,,,,,15.648289,PASS,
133,s08_terrain_compliance,g000016_c3,16,,,,,,,,,,,9.407017642336498,0.04708220516184335,9.804479368083395,0.046931794972856704,3.9953,14.5525,14.5474,0.298,0.7474,0.020463,1.1409,0.992,12.0,,,,,,1.971262,PASS,
134,s08_terrain_compliance,g000016_c4,16,,,,,,,,,,,11.23712235539281,0.11508113119817506,11.385528963251643,0.02073424114105155,3.8587,13.9637,14.7123,0.314,0.8615,0.018964,1.342,0.992,12.0,,,,,,2.227967,PASS,
135,s08_terrain_compliance,g000016_c5,16,,,,,,,,,,,16.12587927116089,0.0371303975831942,38.62284700007674,0.02054558770063788,4.3098,14.0862,15.2661,0.406,1.0135,0.026529,6.1182,0.994,12.0,,,,,,1.897082,PASS,
136,s08_terrain_compliance,g000016_c6,16,,,,,,,,,,,18.747744762763453,0.018179299025721827,56.062984999291,0.040926866627475,6.0493,17.7434,22.0114,1.202,2.4033,0.082418,18.5016,0.998,12.0,,,,,,1.850985,PASS,
137,s08_terrain_compliance,g000016_c7,16,,,,,,,,,,,10.631257161294394,0.022859567513929466,49.21364159009749,0.021049902059788836,6.182,14.4522,21.063,1.028,2.1226,0.088758,14.1837,0.992,12.0,,,,,,2.903387,PASS,
138,s08_terrain_compliance,g000017_c0,17,,,,,,,,,,,4.56908791929752,0.07793822509796063,20.88057562320485,0.06090937666598039,3.9501,17.7299,15.0655,0.326,1.0382,0.030884,2.6551,0.992,12.0,,,,,,3.102724,PASS,
139,s08_terrain_compliance,g000017_c1,17,,,,,,,,,,,21.86015834546387,0.03656716173855393,20.27674869558164,0.05735343201004242,3.7984,13.5228,14.6429,0.338,0.8527,0.018776,2.4823,0.992,12.0,,,,,,2.372932,PASS,
140,s08_terrain_compliance,g000017_c2,17,,,,,,,,,,,15.513844435397752,0.015627090843988254,28.48147894279907,0.022012881265320885,4.0663,13.7815,15.0173,0.356,0.9568,0.024395,4.3023,0.992,12.0,,,,,,2.613102,PASS,
141,s08_terrain_compliance,g000017_c3,17,,,,,,,,,,,21.9609066932673,0.03944515391053016,34.4518466321483,0.014195020686641543,5.6873,13.6221,20.7582,1.05,2.1247,0.064448,13.3094,0.994,12.0,,,,,,3.023224,PASS,
142,s08_terrain_compliance,g000017_c4,17,,,,,,,,,,,10.894362036860873,0.08869415970999227,14.395405463827139,0.027431287508523864,3.8788,13.9885,14.7103,0.306,0.8553,0.01964,1.6755,0.992,12.0,,,,,,1.982055,PASS,
143,s08_terrain_compliance,g000017_c5,17,,,,,,,,,,,13.869012144215947,0.015261273733781213,19.677484004113047,0.03755324759184897,4.0093,13.8581,14.8882,0.348,0.8918,0.020454,2.3389,0.992,12.0,,,,,,1.610942,PASS,
144,s08_terrain_compliance,g000017_c6,17,,,,,,,,,,,18.696294187958614,0.024632740081593545,21.103956715016796,0.05266788370002709,4.0075,13.6692,14.8957,0.36,0.9137,0.019457,2.6877,0.992,12.0,,,,,,2.483279,PASS,
145,s08_terrain_compliance,g000017_c7,17,,,,,,,,,,,9.050549644728735,0.02682317426952549,21.612285064239686,0.030665433956893737,3.9172,14.2116,14.7003,0.304,0.8381,0.020895,2.4814,0.992,12.0,,,,,,1.802522,PASS,
146,s08_terrain_compliance,g000018_c0,18,,,,,,,,,,,11.581994707227432,0.03353476030386568,56.1804911797489,0.024305801086123985,5.6091,14.2593,19.7075,0.848,1.9443,0.086025,15.3046,0.992,12.0,,,,,,2.368687,PASS,
147,s08_terrain_compliance,g000018_c1,18,,,,,,,,,,,21.00630563214463,0.04380255474141933,24.154763617458325,0.04964473244796065,3.7823,13.4936,14.6749,0.342,0.8791,0.019083,3.0588,0.992,12.0,,,,,,2.647595,PASS,
148,s08_terrain_compliance,g000018_c2,18,,,,,,,,,,,9.954496828530829,0.05221375706657156,26.756536979713577,0.04923337610283604,3.9257,14.1197,14.799,0.316,0.8906,0.020698,3.2649,0.992,12.0,,,,,,2.001382,PASS,
149,s08_terrain_compliance,g000018_c3,18,,,,,,,,,,,7.109529147286376,0.04216034615552169,31.82642477890758,0.02386702085591047,4.1086,17.5695,14.8152,0.304,0.9493,0.030441,3.8381,0.992,12.0,,,,,,2.221744,PASS,
150,s08_terrain_compliance,g000018_c4,18,,,,,,,,,,,7.397464199171953,0.03894796761959888,13.79248118087628,0.017245765277722678,4.162,17.7484,14.6964,0.302,0.933,0.030245,1.6934,0.992,12.0,,,,,,2.175724,PASS,
151,s08_terrain_compliance,g000018_c5,18,,,,,,,,,,,26.53036572684111,0.04877449991111309,10.677437641906772,0.10763317508913664,3.8256,13.273,14.7834,0.38,0.9142,0.018663,1.3167,0.992,12.0,,,,,,2.203213,PASS,
152,s08_terrain_compliance,g000018_c6,18,,,,,,,,,,,19.66051245150643,0.03950053055618979,19.46605528622986,0.02189922225779145,4.4132,13.821,15.3372,0.414,1.0178,0.02018,2.5447,0.992,12.0,,,,,,2.175194,PASS,
153,s08_terrain_compliance,g000018_c7,18,,,,,,,,,,,7.622429977213713,0.043348887529210116,26.450349076931865,0.0373028611393645,4.0017,14.9644,14.5203,0.3,0.7338,0.02114,3.0396,0.992,12.0,,,,,,1.698436,PASS,
154,s08_terrain_compliance,g000019_c0,19,,,,,,,,,,,12.22253432516619,0.04597417847881016,20.1807793857338,0.03490771725419402,3.9364,14.3868,14.7159,0.31,0.8444,0.020746,2.318,0.992,12.0,,,,,,1.620979,PASS,
155,s08_terrain_compliance,g000019_c1,19,,,,,,,,,,,7.042993340272072,0.05082437992234314,25.610854748129793,0.051360407218350536,4.0123,17.6291,14.7836,0.302,0.9483,0.028576,3.0858,0.992,12.0,,,,,,2.162068,PASS,
156,s08_terrain_compliance,g000019_c2,19,,,,,,,,,,,11.827494822054748,0.030049957425994627,13.610044887962365,0.035960998009356614,4.1328,14.1458,14.915,0.304,0.885,0.021441,1.5793,0.992,12.0,,,,,,1.72466,PASS,
157,s08_terrain_compliance,g000019_c3,19,,,,,,,,,,,9.737821121228665,0.0502336748784366,30.011140693094863,0.03392838714451946,3.9087,14.2678,14.6981,0.302,0.8388,0.020387,3.4895,0.992,12.0,,,,,,1.523634,PASS,
158,s08_terrain_compliance,g000019_c4,19,,,,,,,,,,,15.90811165375199,0.03329560973054792,29.208136971533566,0.029755323343085574,4.0533,13.81,14.9385,0.346,0.9549,0.02292,4.0965,0.992,12.0,,,,,,2.244948,PASS,
159,s08_terrain_compliance,g000019_c5,19,,,,,,,,,,,15.782426105667868,0.02385867197373596,38.796515969948494,0.03151863022832278,4.069,13.667,15.1823,0.374,0.9958,0.026524,5.7881,0.992,12.0,,,,,,2.477061,PASS,
160,s08_terrain_compliance,g000019_c6,19,,,,,,,,,,,19.350260639926763,0.028464356533180364,21.957513028189652,0.0219768470407658,4.1912,13.5824,15.131,0.398,0.9883,0.02062,2.9343,0.994,12.0,,,,,,2.685275,PASS,
161,s08_terrain_compliance,g000019_c7,19,,,,,,,,,,,8.472262201764623,0.03232497077117555,28.980574166670266,0.03698993444476806,4.2684,17.9886,14.8818,0.304,0.9949,0.029914,3.7095,0.992,12.0,,,,,,2.110102,PASS,
162,s08_terrain_compliance,g000020_c0,20,,,,,,,,,,,10.222495134655897,0.04360668835852746,24.19444538658188,0.024983060695097217,3.9328,14.006,14.8072,0.316,0.8865,0.021037,3.0287,0.992,12.0,,,,,,1.994121,PASS,
163,s08_terrain_compliance,g000020_c1,20,,,,,,,,,,,9.857426946128378,0.04967710433879628,23.71158709978314,0.033665759422625535,3.9401,14.4857,14.6887,0.306,0.8271,0.020481,2.7137,0.992,12.0,,,,,,1.741346,PASS,
164,s08_terrain_compliance,g000020_c2,20,,,,,,,,,,,13.003289416605574,0.048200337659229445,16.625512911234434,0.038213058563741444,3.8507,13.6883,14.7094,0.314,0.8614,0.020235,1.9584,0.992,12.0,,,,,,1.857592,PASS,
165,s08_terrain_compliance,g000020_c3,20,,,,,,,,,,,9.620333426797826,0.04926117038282838,15.708080412045348,0.05332997790400408,3.9467,14.3201,14.6404,0.302,0.8041,0.020962,1.803,0.992,12.0,,,,,,1.909667,PASS,
166,s08_terrain_compliance,g000020_c4,20,,,,,,,,,,,10.01211564751276,0.02386058222571819,17.829804797407167,0.02825122092983682,3.8956,13.9865,14.7332,0.306,0.861,0.021122,2.0653,0.992,12.0,,,,,,1.890028,PASS,
167,s08_terrain_compliance,g000020_c5,20,,,,,,,,,,,15.20011198246475,0.028789783128099933,18.3592898827926,0.02122578038235729,4.2728,13.7556,15.2197,0.398,0.9851,0.020434,2.3808,0.992,12.0,,,,,,1.8387,PASS,
168,s08_terrain_compliance,g000020_c6,20,,,,,,,,,,,9.689171739855965,0.03795696055301368,20.04402891986287,0.022494964376940624,4.1228,17.8976,14.6565,0.302,0.9295,0.0268,2.5319,0.992,12.0,,,,,,2.044518,PASS,
169,s08_terrain_compliance,g000020_c7,20,,,,,,,,,,,12.127995244858678,0.01853467855618556,16.376945568615895,0.030774623852525145,4.1578,14.283,14.9686,0.338,0.9002,0.021822,1.9023,0.992,12.0,,,,,,1.682665,PASS,
170,s08_terrain_compliance,g000021_c0,21,,,,,,,,,,,18.14066960610766,0.03970675078873567,20.218823818729128,0.03386670346158328,4.2519,13.4969,15.1703,0.398,0.9776,0.019947,2.637,0.994,12.0,,,,,,2.213039,PASS,
171,s08_terrain_compliance,g000021_c1,21,,,,,,,,,,,10.08396081658461,0.03588348441671143,22.596113072166798,0.03850224465753296,3.9294,14.3361,14.7011,0.306,0.8362,0.020803,2.5986,0.992,12.0,,,,,,1.703871,PASS,
172,s08_terrain_compliance,g000021_c2,21,,,,,,,,,,,7.473005985915842,0.027704752674837716,28.989486856926217,0.0426264651113372,4.1507,17.8153,14.8384,0.302,0.9508,0.030898,3.5994,0.992,12.0,,,,,,2.134347,PASS,
173,s08_terrain_compliance,g000021_c3,21,,,,,,,,,,,8.91719067455471,0.04081130673567839,14.832031408728305,0.028129439472572244,3.935,14.3352,14.6464,0.306,0.8067,0.020625,1.7107,0.992,12.0,,,,,,2.129486,PASS,
174,s08_terrain_compliance,g000021_c4,21,,,,,,,,,,,10.497014685832918,0.046571330691382855,16.41749169805021,0.02482069225788846,3.872,13.9693,14.7321,0.312,0.8688,0.020256,1.877,0.992,12.0,,,,,,2.067783,PASS,
175,s08_terrain_compliance,g000021_c5,21,,,,,,,,,,,11.124789684662819,0.031069900844893732,19.894087619567074,0.02812732455557191,3.927,14.3058,14.7264,0.308,0.8506,0.020982,2.3008,0.992,12.0,,,,,,1.710361,PASS,
176,s08_terrain_compliance,g000021_c6,21,,,,,,,,,,,12.30696567014929,0.03920617869984767,15.578573921500578,0.02574025701241543,3.9548,14.0948,14.8074,0.314,0.8783,0.020504,1.8379,0.992,12.0,,,,,,1.900831,PASS,
177,s08_terrain_compliance,g000021_c7,21,,,,,,,,,,,12.892867194946128,0.037306262047481865,28.833713914040004,0.030576422912396796,4.2989,13.8724,15.2362,0.388,0.9979,0.022362,3.7798,0.992,12.0,,,,,,1.944029,PASS,
178,s08_terrain_compliance,g000022_c0,22,,,,,,,,,,,12.604040048392852,0.039057064950557226,24.211896312248353,0.027604549738015228,4.1451,14.1148,15.1258,0.37,0.9596,0.021081,3.0271,0.992,12.0,,,,,,1.771868,PASS,
179,s08_terrain_compliance,g000022_c1,22,,,,,,,,,,,11.4293441766333,0.02222071998459805,28.615368948347772,0.029154320463862484,4.2196,14.3019,15.1415,0.356,0.9613,0.022703,3.6511,0.992,12.0,,,,,,1.743677,PASS,
180,s08_terrain_compliance,g000022_c2,22,,,,,,,,,,,16.765403024956893,0.02710935358820196,18.475020461960952,0.0276686750913362,4.3327,13.5204,15.3287,0.408,1.0376,0.020397,2.4835,0.992,12.0,,,,,,2.244031,PASS,
181,s08_terrain_compliance,g000022_c3,22,,,,,,,,,,,13.535678383862907,0.030247690601340672,13.790825865940919,0.028408194921427637,4.1352,13.8425,14.9867,0.36,0.9181,0.020988,1.609,0.992,12.0,,,,,,1.82027,PASS,
182,s08_terrain_compliance,g000022_c4,22,,,,,,,,,,,11.444095793130321,0.02731895233588754,19.06736594510236,0.03437506889027684,3.8901,14.1368,14.7288,0.312,0.8611,0.020603,2.2175,0.992,12.0,,,,,,1.85496,PASS,
183,s08_terrain_compliance,g000022_c5,22,,,,,,,,,,,15.014848069005387,0.036758989206282386,25.92019893308869,0.02923369279015598,4.1089,13.7161,15.1242,0.366,0.9659,0.021576,3.5302,0.992,12.0,,,,,,2.122031,PASS,
184,s08_terrain_compliance,g000022_c6,22,,,,,,,,,,,9.366521955465354,0.03813030494150387,26.756607446532225,0.030549381707763754,3.9063,14.3231,14.7073,0.308,0.8435,0.020446,3.1186,0.992,12.0,,,,,,1.739239,PASS,
185,s08_terrain_compliance,g000022_c7,22,,,,,,,,,,,15.517970001428301,0.024914763230081332,18.507765461662842,0.04215621454791154,3.8898,13.5956,14.786,0.352,0.8802,0.019644,2.28,0.992,12.0,,,,,,1.955412,PASS,
186,s08_terrain_compliance,g000023_c0,23,,,,,,,,,,,10.510120971850643,0.03175435143043289,18.26918484489462,0.033036673865707675,3.8918,14.0067,14.727,0.31,0.8596,0.020931,2.0692,0.992,12.0,,,,,,1.861511,PASS,
187,s08_terrain_compliance,g000023_c1,23,,,,,,,,,,,12.144001830166262,0.04998245337186683,22.2928627925792,0.03140977215445305,3.9261,14.421,14.7134,0.31,0.8442,0.020521,2.5791,0.992,12.0,,,,,,1.638469,PASS,
188,s08_terrain_compliance,g000023_c2,23,,,,,,,,,,,13.506987320421418,0.030349175707631595,24.04420188046623,0.03095432301081492,4.2861,13.8841,15.291,0.396,1.0218,0.021763,3.2157,0.992,12.0,,,,,,2.216495,PASS,
189,s08_terrain_compliance,g000023_c3,23,,,,,,,,,,,8.869519130007294,0.03664759492950419,23.10717232381203,0.03336441650560863,3.8577,13.9531,14.726,0.312,0.8643,0.020182,2.7386,0.992,12.0,,,,,,2.045038,PASS,
190,s08_terrain_compliance,g000023_c4,23,,,,,,,,,,,11.755174153541416,0.03709316900194353,20.00277300161344,0.026862649956436106,3.8738,13.9304,14.6931,0.312,0.8472,0.020528,2.3181,0.992,12.0,,,,,,1.726739,PASS,
191,s08_terrain_compliance,g000023_c5,23,,,,,,,,,,,10.10261140059493,0.03202135237944424,26.694940407910995,0.040902300020982676,3.8672,13.9704,14.723,0.312,0.8631,0.020461,3.115,0.992,12.0,,,,,,1.773339,PASS,
192,s08_terrain_compliance,g000023_c6,23,,,,,,,,,,,8.346321333935501,0.028859303499055508,24.822900526870882,0.047792954922377576,4.0516,15.1035,14.5227,0.3,0.7275,0.022413,2.8377,0.992,12.0,,,,,,1.577104,PASS,
193,s08_terrain_compliance,g000023_c7,23,,,,,,,,,,,7.9902417381441895,0.03634105892000203,18.87477757497685,0.026105116289923572,4.1562,18.1247,14.7275,0.3,0.965,0.028638,2.3917,0.992,12.0,,,,,,2.078648,PASS,
194,s08_terrain_compliance,g000024_c0,24,,,,,,,,,,,13.720529745904248,0.03982709704694829,18.873355614154146,0.026059329994547603,4.0864,13.8865,15.0269,0.37,0.936,0.020376,2.3336,0.994,12.0,,,,,,1.99453,PASS,
195,s08_terrain_compliance,g000024_c1,24,,,,,,,,,,,12.47512605146503,0.028755881783151534,23.948639424058502,0.03328738673695383,3.9733,14.448,14.7166,0.308,0.8402,0.020847,2.8112,0.992,12.0,,,,,,1.486996,PASS,
196,s08_terrain_compliance,g000024_c2,24,,,,,,,,,,,12.641555600865514,0.034011525307294,22.290510600256148,0.03058707202162273,4.0334,13.862,14.9591,0.352,0.9178,0.020763,2.672,0.992,12.0,,,,,,1.734788,PASS,
197,s08_terrain_compliance,g000024_c3,24,,,,,,,,,,,11.040039990813307,0.03538022804937967,21.57579601169528,0.030120683803043287,4.0592,14.5994,14.7083,0.304,0.8108,0.022001,2.4801,0.992,12.0,,,,,,1.434784,PASS,
198,s08_terrain_compliance,g000024_c4,24,,,,,,,,,,,11.90188197150951,0.032476672216454415,19.12654410266189,0.027803133557889003,3.9717,14.3633,14.7357,0.308,0.8466,0.021107,2.2212,0.992,12.0,,,,,,1.597174,PASS,
199,s08_terrain_compliance,g000024_c5,24,,,,,,,,,,,12.044309352171535,0.03335352700765138,22.316858274658742,0.03119929251697453,3.9135,14.1134,14.7251,0.312,0.8581,0.020665,2.6551,0.992,12.0,,,,,,1.694483,PASS,
200,s08_terrain_compliance,g000024_c6,24,,,,,,,,,,,11.461607453503362,0.03802635141719484,22.65889783394408,0.030200151470917192,3.9067,14.0935,14.7199,0.312,0.859,0.02074,2.7234,0.992,12.0,,,,,,1.730507,PASS,
201,s08_terrain_compliance,g000024_c7,24,,,,,,,,,,,12.09560739692726,0.041630291543751044,18.34028302871883,0.030091107123694984,3.8809,14.0842,14.7281,0.316,0.8626,0.02026,2.1332,0.992,12.0,,,,,,1.91157,PASS,
202,s08_terrain_compliance,g000025_c0,25,,,,,,,,,,,10.015690163497846,0.034134504755519546,21.53102995831732,0.031748420799213264,3.8794,14.0785,14.7516,0.314,0.8744,0.02036,2.4951,0.992,12.0,,,,,,1.955313,PASS,
203,s08_terrain_compliance,g000025_c1,25,,,,,,,,,,,11.575639459705881,0.033312327116299806,22.438135063639344,0.0279095296754439,3.9176,14.2858,14.6998,0.31,0.8397,0.020848,2.6105,0.992,12.0,,,,,,1.578112,PASS,
204,s08_terrain_compliance,g000025_c2,25,,,,,,,,,,,12.644483944100488,0.034074221853406784,20.580920460039742,0.02688247101852024,3.9214,14.32,14.714,0.31,0.8467,0.020655,2.4086,0.992,12.0,,,,,,1.639723,PASS,
205,s08_terrain_compliance,g000025_c3,25,,,,,,,,,,,10.198597870676084,0.04132709063281195,26.747140445935493,0.022412762567480704,4.1605,14.0022,15.0529,0.35,0.9386,0.022679,3.4775,0.992,12.0,,,,,,1.990592,PASS,
206,s08_terrain_compliance,g000025_c4,25,,,,,,,,,,,10.169361606436844,0.03501188009085055,25.662579578631377,0.02999086257319018,3.9275,14.3264,14.7151,0.306,0.844,0.020906,2.9745,0.992,12.0,,,,,,1.572013,PASS,
207,s08_terrain_compliance,g000025_c5,25,,,,,,,,,,,11.870604371441493,0.041998048142434824,21.109457581335146,0.02780169091079921,3.9252,14.2823,14.7071,0.308,0.8436,0.020796,2.4448,0.992,12.0,,,,,,1.547202,PASS,
208,s08_terrain_compliance,g000025_c6,25,,,,,,,,,,,10.970046457407905,0.03828700380238929,24.137683076606724,0.0337928642542027,3.8988,14.2414,14.725,0.312,0.856,0.020453,2.774,0.992,12.0,,,,,,1.745308,PASS,
209,s08_terrain_compliance,g000025_c7,25,,,,,,,,,,,10.78984593254779,0.040353781311062174,25.880138799443195,0.029936065862141356,3.914,14.3104,14.7132,0.306,0.8464,0.020569,2.9975,0.992,12.0,,,,,,1.543898,PASS,
210,s08_terrain_compliance,g000026_c0,26,,,,,,,,,,,10.453510046637279,0.03396256345252677,19.194835955377023,0.031797940837347036,3.8641,13.9789,14.7381,0.316,0.8712,0.020108,2.2298,0.992,12.0,,,,,,2.095125,PASS,
211,s08_terrain_compliance,g000026_c1,26,,,,,,,,,,,10.848528370925296,0.035576150391657846,21.289395906235203,0.03168189218818315,3.8935,14.2081,14.7351,0.312,0.8624,0.020343,2.4937,0.992,12.0,,,,,,1.867311,PASS,
212,s08_terrain_compliance,g000026_c2,26,,,,,,,,,,,10.7574637738051,0.03455844572165785,23.073564505311627,0.027308984467247742,3.8889,14.1148,14.6943,0.31,0.8425,0.02053,2.6197,0.992,12.0,,,,,,1.692034,PASS,
213,s08_terrain_compliance,g000026_c3,26,,,,,,,,,,,10.328106953362818,0.042205071048298765,23.50406014545432,0.028836558411818224,3.9351,14.3922,14.6883,0.306,0.8278,0.020722,2.7195,0.992,12.0,,,,,,1.64308,PASS,
214,s08_terrain_compliance,g000026_c4,26,,,,,,,,,,,10.820345598165057,0.036082800390943234,22.501764996815226,0.030190663080169617,3.9137,14.3047,14.715,0.308,0.8472,0.020614,2.5442,0.992,12.0,,,,,,1.682539,PASS,
215,s08_terrain_compliance,g000026_c5,26,,,,,,,,,,,10.517092189600255,0.038537699885533655,23.471282398705412,0.029478216083899094,3.9388,14.4208,14.6851,0.306,0.826,0.020931,2.6818,0.992,12.0,,,,,,1.608349,PASS,
216,s08_terrain_compliance,g000026_c6,26,,,,,,,,,,,11.038644988849944,0.031690359035039174,22.06809222901748,0.031026054121757254,3.9055,14.2206,14.7134,0.308,0.8488,0.020644,2.587,0.994,12.0,,,,,,1.694416,PASS,
217,s08_terrain_compliance,g000026_c7,26,,,,,,,,,,,9.606382872967922,0.036171939000867216,19.608440276869544,0.034356233369998726,3.9386,14.168,14.6499,0.3,0.81,0.021465,2.2166,0.992,12.0,,,,,,1.689908,PASS,
218,s08_terrain_compliance,g000027_c0,27,,,,,,,,,,,10.908430763699789,0.0359094557946898,23.38555121292342,0.029544499667830116,3.8841,14.0673,14.7071,0.312,0.8513,0.020484,2.7135,0.992,12.0,,,,,,1.713796,PASS,
219,s08_terrain_compliance,g000027_c1,27,,,,,,,,,,,11.67608574324993,0.03132877126193922,21.930069794331374,0.03223020263759627,3.8701,13.8975,14.6892,0.312,0.8479,0.020576,2.5499,0.992,12.0,,,,,,1.735831,PASS,
220,s08_terrain_compliance,g000027_c2,27,,,,,,,,,,,8.219799968157455,0.03632167708735591,20.56790468062985,0.031015058756568206,3.9421,14.4025,14.6418,0.302,0.8024,0.02075,2.3652,0.992,12.0,,,,,,1.892137,PASS,
221,s08_terrain_compliance,g000027_c3,27,,,,,,,,,,,12.05470473988759,0.03439106283584046,22.89377275410086,0.03407123726922325,4.1387,14.0138,15.0968,0.366,0.9552,0.021235,2.8172,0.992,12.0,,,,,,1.982218,PASS,
222,s08_terrain_compliance,g000027_c4,27,,,,,,,,,,,11.277560737302403,0.03500369993547845,23.67773598375309,0.032146940601385295,3.9063,13.9331,14.7732,0.314,0.8816,0.020869,2.8198,0.992,12.0,,,,,,1.854841,PASS,
223,s08_terrain_compliance,g000027_c5,27,,,,,,,,,,,11.31978986755608,0.03300430138732547,23.765816854071264,0.029578464174392322,3.9614,14.1434,14.8221,0.322,0.8841,0.021185,2.9142,0.992,12.0,,,,,,1.840464,PASS,
224,s08_terrain_compliance,g000027_c6,27,,,,,,,,,,,9.815604700000803,0.037828998752471664,21.720316420708812,0.03046980172862959,4.0353,17.7777,14.515,0.3,0.8819,0.026134,2.7076,0.992,12.0,,,,,,1.994022,PASS,
225,s08_terrain_compliance,g000027_c7,27,,,,,,,,,,,10.37057023860502,0.03394013965716524,18.27153412934884,0.03149807437020077,4.0768,14.5443,14.6629,0.302,0.7845,0.022308,2.083,0.992,12.0,,,,,,1.587424,PASS,
226,s08_terrain_compliance,g000028_c0,28,,,,,,,,,,,11.038259315359713,0.03511285289762778,21.217935408355668,0.03318880108233827,3.9871,14.416,14.6868,0.304,0.8215,0.021482,2.4009,0.992,12.0,,,,,,1.550685,PASS,
227,s08_terrain_compliance,g000028_c1,28,,,,,,,,,,,11.466575443473445,0.03400213138397388,22.272585369020092,0.030300330148533516,3.8839,13.9274,14.6954,0.312,0.8534,0.020713,2.593,0.992,12.0,,,,,,1.759135,PASS,
228,s08_terrain_compliance,g000028_c2,28,,,,,,,,,,,11.691116442691863,0.033727881879087804,21.368487522372487,0.029557980063609195,3.8762,13.9209,14.6905,0.308,0.8454,0.020641,2.4552,0.992,12.0,,,,,,1.637773,PASS,
229,s08_terrain_compliance,g000028_c3,28,,,,,,,,,,,11.17865993958829,0.033835684061906436,22.78200053764448,0.031129172080249057,3.9159,14.4147,14.7267,0.312,0.8528,0.02048,2.6075,0.992,12.0,,,,,,1.761569,PASS,
230,s08_terrain_compliance,g000028_c4,28,,,,,,,,,,,11.287769791748248,0.0347524626529223,22.819358899377036,0.028963186501534025,3.9711,14.6291,14.6715,0.308,0.8143,0.021257,2.6718,0.992,12.0,,,,,,1.522897,PASS,
231,s08_terrain_compliance,g000028_c5,28,,,,,,,,,,,10.894402097017645,0.03805037694114759,20.94796647590046,0.029203559139624042,3.8808,14.0455,14.7277,0.31,0.8635,0.020437,2.39,0.992,12.0,,,,,,1.825992,PASS,
232,s08_terrain_compliance,g000028_c6,28,,,,,,,,,,,11.137040061058208,0.033322305626657764,22.53120773198651,0.030566873364331268,3.9276,14.0827,14.779,0.316,0.8781,0.020981,2.7606,0.992,12.0,,,,,,1.924266,PASS,
233,s08_terrain_compliance,g000028_c7,28,,,,,,,,,,,10.493917486527868,0.03454377210877117,22.608735718263038,0.03108738334929454,3.8899,14.0433,14.6854,0.308,0.8385,0.020742,2.5713,0.992,12.0,,,,,,1.658134,PASS,
234,s08_terrain_compliance,g000029_c0,29,,,,,,,,,,,11.047419008516773,0.03410797118758303,22.583659622619983,0.03089190968180949,4.082,14.6191,14.6928,0.302,0.7992,0.022287,2.6227,0.992,12.0,,,,,,1.364909,PASS,
235,s08_terrain_compliance,g000029_c1,29,,,,,,,,,,,10.958751351899291,0.03397429303994129,22.737375005015224,0.02951515414539403,3.9256,14.4012,14.7155,0.31,0.8451,0.020689,2.6326,0.992,12.0,,,,,,1.692644,PASS,
236,s08_terrain_compliance,g000029_c2,29,,,,,,,,,,,11.204931651352657,0.03470689649344139,20.99619283492648,0.031246873418125022,4.0848,14.4097,14.7677,0.304,0.8281,0.022034,2.4105,0.992,12.0,,,,,,1.445024,PASS,
237,s08_terrain_compliance,g000029_c3,29,,,,,,,,,,,10.395674067848095,0.035607965422102476,22.28080694521837,0.02864591564141742,3.9762,14.5171,14.6486,0.304,0.8002,0.021543,2.4951,0.992,12.0,,,,,,1.554693,PASS,
238,s08_terrain_compliance,g000029_c4,29,,,,,,,,,,,11.11416904864653,0.037364033969869294,20.969225509806748,0.029036834665786847,3.8879,14.0192,14.6827,0.308,0.8394,0.020817,2.4157,0.992,12.0,,,,,,1.661784,PASS,
239,s08_terrain_compliance,g000029_c5,29,,,,,,,,,,,10.79188536917569,0.03521241388631118,23.299862400794783,0.03041353667674207,3.8941,14.1999,14.7288,0.312,0.8587,0.020349,2.6358,0.992,12.0,,,,,,1.755823,PASS,
240,s08_terrain_compliance,g000029_c6,29,,,,,,,,,,,10.906954370107975,0.03395997378414594,22.11531287625739,0.029192879965951685,3.8879,14.0773,14.7335,0.316,0.8682,0.020478,2.6166,0.992,12.0,,,,,,1.971254,PASS,
241,s08_terrain_compliance,g000029_c7,29,,,,,,,,,,,10.702961838122938,0.03546123141808687,20.212050551372833,0.028962188625619164,3.8977,14.0558,14.7141,0.308,0.8517,0.020842,2.3038,0.992,12.0,,,,,,1.734445,PASS,
242,s08_terrain_compliance,g000030_c0,30,,,,,,,,,,,10.547248665584766,0.03593835386840872,22.017666919690413,0.03175125923835349,3.8905,14.124,14.7038,0.31,0.8471,0.02048,2.5253,0.992,12.0,,,,,,1.766787,PASS,
243,s08_terrain_compliance,g000030_c1,30,,,,,,,,,,,11.481229005373196,0.03366940356163242,22.446452442816152,0.031969189991922976,3.8822,14.0203,14.6937,0.312,0.8451,0.020595,2.5593,0.992,12.0,,,,,,1.648499,PASS,
244,s08_terrain_compliance,g000030_c2,30,,,,,,,,,,,10.931206793643037,0.03626707642740581,21.57557924046632,0.031098564223629128,3.8735,14.0289,14.7204,0.312,0.8601,0.020338,2.5136,0.992,12.0,,,,,,1.823977,PASS,
245,s08_terrain_compliance,g000030_c3,30,,,,,,,,,,,10.814472411534092,0.03548388856460226,22.377551038098066,0.03319577535735796,3.896,14.154,14.7014,0.308,0.8449,0.020577,2.5413,0.992,12.0,,,,,,1.692154,PASS,
246,s08_terrain_compliance,g000030_c4,30,,,,,,,,,,,11.190939598625464,0.03496282456958967,23.27968316718274,0.032800115282200844,3.9194,14.2618,14.7024,0.306,0.8406,0.020926,2.6702,0.992,12.0,,,,,,1.529387,PASS,
247,s08_terrain_compliance,g000030_c5,30,,,,,,,,,,,10.409298576725133,0.03388138591420335,21.37932483299809,0.03014100582318498,3.8916,14.0196,14.7079,0.306,0.8501,0.020762,2.4021,0.992,12.0,,,,,,1.723015,PASS,
248,s08_terrain_compliance,g000030_c6,30,,,,,,,,,,,10.8334323159308,0.03263823097857543,22.416659894133318,0.03169662505309303,4.0373,14.4318,14.7249,0.302,0.8241,0.022139,2.5431,0.992,12.0,,,,,,1.44389,PASS,
249,s08_terrain_compliance,g000030_c7,30,,,,,,,,,,,10.61402495370908,0.03467506432068057,22.07954617491849,0.03333032190919676,3.9941,14.669,14.6538,0.304,0.7991,0.021678,2.5209,0.992,12.0,,,,,,1.550816,PASS,
250,s08_terrain_compliance,g000031_c0,31,,,,,,,,,,,10.660761543355507,0.034232303595773804,21.22344760105388,0.03047650570322987,3.9242,14.2682,14.7271,0.308,0.8511,0.020942,2.4229,0.992,12.0,,,,,,1.664419,PASS,
251,s08_terrain_compliance,g000031_c1,31,,,,,,,,,,,10.752817802515082,0.036654218673928006,24.16267439717087,0.03187521501478873,3.9095,14.1401,14.6878,0.304,0.8353,0.021001,2.7644,0.992,12.0,,,,,,1.493725,PASS,
252,s08_terrain_compliance,g000031_c2,31,,,,,,,,,,,10.950663366822935,0.03280744727945872,22.284647771388368,0.030834587736171738,4.0852,14.7038,14.6837,0.302,0.7945,0.02228,2.5223,0.992,12.0,,,,,,1.399884,PASS,
253,s08_terrain_compliance,g000031_c3,31,,,,,,,,,,,10.853763551885818,0.03452865542655357,23.393442305374386,0.03089938864870072,3.927,14.0546,14.7567,0.312,0.8656,0.021074,2.8092,0.992,12.0,,,,,,1.790991,PASS,
254,s08_terrain_compliance,g000031_c4,31,,,,,,,,,,,11.24051676603712,0.03388646128852713,23.22453667670603,0.030645283041071215,4.0186,14.8957,14.6299,0.304,0.7837,0.021788,2.6587,0.992,12.0,,,,,,1.395252,PASS,
255,s08_terrain_compliance,g000031_c5,31,,,,,,,,,,,10.753091149835509,0.03407228675214121,21.542664179781315,0.030604047821116837,3.9028,14.2713,14.7314,0.312,0.8578,0.020448,2.4682,0.992,12.0,,,,,,1.822622,PASS,
256,s08_terrain_compliance,g000031_c6,31,,,,,,,,,,,11.066622162911457,0.03510904576195196,24.21698748112155,0.032632825330114135,4.1649,14.0688,15.1154,0.36,0.962,0.021962,3.0648,0.992,12.0,,,,,,2.052102,PASS,
257,s08_terrain_compliance,g000031_c7,31,,,,,,,,,,,10.788784949526923,0.03335730110715667,22.734157753809303,0.030720894459178603,3.8816,14.0299,14.7006,0.31,0.8481,0.020556,2.6679,0.992,12.0,,,,,,1.716736,PASS,
258,s08_terrain_compliance,g000032_c0,32,,,,,,,,,,,11.054452769846694,0.03324773655252414,23.051923474971474,0.03116407637974774,3.9074,14.0657,14.7259,0.312,0.8608,0.020765,2.7111,0.992,12.0,,,,,,1.808297,PASS,
259,s08_terrain_compliance,g000032_c1,32,,,,,,,,,,,10.58648071658606,0.033435658454320366,23.32326211597465,0.030670770706416016,3.9972,14.9021,14.6283,0.308,0.7868,0.021339,2.6803,0.992,12.0,,,,,,1.572525,PASS,
260,s08_terrain_compliance,g000032_c2,32,,,,,,,,,,,11.125667372664257,0.03373965722323595,21.66994462042533,0.03100069009553831,4.0596,14.909,14.6322,0.306,0.7806,0.021816,2.4398,0.992,12.0,,,,,,1.479517,PASS,
261,s08_terrain_compliance,g000032_c3,32,,,,,,,,,,,11.072732318718382,0.03539027585389562,22.80672405483041,0.03082518171516572,3.9389,14.0453,14.7674,0.312,0.8675,0.021082,2.6909,0.992,12.0,,,,,,1.771868,PASS,
262,s08_terrain_compliance,g000032_c4,32,,,,,,,,,,,10.859104736999324,0.0345438365731373,23.20282298184824,0.030495173011667893,3.9297,14.353,14.7241,0.306,0.8482,0.020856,2.6609,0.992,12.0,,,,,,1.599462,PASS,
263,s08_terrain_compliance,g000032_c5,32,,,,,,,,,,,11.354454018300244,0.03477812532915904,23.334071175606837,0.030275746928710354,3.8921,13.9874,14.7117,0.314,0.8606,0.020775,2.7396,0.992,12.0,,,,,,1.811623,PASS,
264,s08_terrain_compliance,g000032_c6,32,,,,,,,,,,,11.235326192630243,0.03393410949316155,22.904684648787434,0.03252024957275549,3.9371,14.2918,14.7647,0.312,0.8722,0.020872,2.7539,0.992,12.0,,,,,,1.797582,PASS,
265,s08_terrain_compliance,g000032_c7,32,,,,,,,,,,,10.752852265300406,0.03372627774092683,22.38100436787499,0.030068963362412698,3.927,14.3813,14.7138,0.31,0.8442,0.020722,2.5135,0.992,12.0,,,,,,1.686561,PASS,
266,s08_terrain_compliance,g000033_c0,33,,,,,,,,,,,10.776725099372703,0.03394799540937159,23.321678912958276,0.03141001081730163,3.9138,14.3334,14.7237,0.31,0.8516,0.020543,2.7067,0.992,12.0,,,,,,1.706127,PASS,
267,s08_terrain_compliance,g000033_c1,33,,,,,,,,,,,11.20467450523821,0.03478336691356864,22.880473947544075,0.029657845478842152,3.9528,14.3729,14.6915,0.302,0.8286,0.021408,2.5895,0.992,12.0,,,,,,1.429505,PASS,
268,s08_terrain_compliance,g000033_c2,33,,,,,,,,,,,10.937813955895896,0.03327988374519831,22.783965748166978,0.03151027392613168,3.9154,14.2725,14.7121,0.308,0.8464,0.020712,2.6293,0.992,12.0,,,,,,1.63576,PASS,
269,s08_terrain_compliance,g000033_c3,33,,,,,,,,,,,10.54285732663407,0.03469221766006284,22.362736387726496,0.03060691487936341,3.9917,14.5845,14.6254,0.304,0.7858,0.021906,2.5095,0.992,12.0,,,,,,1.467675,PASS,
270,s08_terrain_compliance,g000033_c4,33,,,,,,,,,,,11.296880147566945,0.03408513277109838,22.81004419844246,0.030840536082604442,3.894,14.135,14.7179,0.312,0.8552,0.020599,2.618,0.992,12.0,,,,,,1.661744,PASS,
271,s08_terrain_compliance,g000033_c5,33,,,,,,,,,,,10.389522779495602,0.03409044835153771,22.7796463879034,0.030723141716085808,3.8764,14.1392,14.752,0.314,0.8743,0.020225,2.72,0.992,12.0,,,,,,1.945557,PASS,
272,s08_terrain_compliance,g000033_c6,33,,,,,,,,,,,11.752547549268915,0.03379776912892732,23.02163939992635,0.030424856914847455,3.9526,14.4654,14.6976,0.306,0.831,0.021212,2.6565,0.992,12.0,,,,,,1.446388,PASS,
273,s08_terrain_compliance,g000033_c7,33,,,,,,,,,,,11.060283545715134,0.03509690635295336,22.525587515867368,0.030710728542910317,3.8988,14.0948,14.6781,0.308,0.8336,0.020914,2.611,0.992,12.0,,,,,,1.554634,PASS,
274,s08_terrain_compliance,g000034_c0,34,,,,,,,,,,,10.697821381678189,0.03352884378427938,23.14047920957327,0.030652158459855847,4.0264,14.5304,14.6678,0.302,0.8016,0.021974,2.5898,0.992,12.0,,,,,,1.408405,PASS,
275,s08_terrain_compliance,g000034_c1,34,,,,,,,,,,,11.117035871620814,0.03416077103263027,22.443329664225576,0.030611008003433013,3.8782,14.0003,14.7019,0.312,0.8493,0.02061,2.6305,0.992,12.0,,,,,,1.715221,PASS,
276,s08_terrain_compliance,g000034_c2,34,,,,,,,,,,,10.651041805913708,0.03412487692666242,22.660868727661747,0.03136866651064725,4.0032,14.6797,14.6447,0.304,0.7932,0.0219,2.5392,0.992,12.0,,,,,,1.46532,PASS,
277,s08_terrain_compliance,g000034_c3,34,,,,,,,,,,,11.346518642714594,0.03465091954087404,22.14332622751805,0.030174651919783076,3.8872,13.8964,14.7368,0.316,0.8723,0.020792,2.6511,0.992,12.0,,,,,,1.90106,PASS,
278,s08_terrain_compliance,g000034_c4,34,,,,,,,,,,,10.76677925155867,0.033978094918392474,23.693116630919544,0.030608040277856744,3.8796,14.0356,14.6949,0.31,0.8456,0.02046,2.6995,0.992,12.0,,,,,,1.688396,PASS,
279,s08_terrain_compliance,g000034_c5,34,,,,,,,,,,,11.520514000412106,0.034001451160994955,21.744560771966494,0.030130090310451493,3.9327,14.4223,14.7024,0.31,0.838,0.020914,2.5504,0.992,12.0,,,,,,1.61089,PASS,
280,s08_terrain_compliance,g000034_c6,34,,,,,,,,,,,10.775762128743741,0.03537179974490306,22.781684635012546,0.03081793105848535,3.8829,14.0591,14.704,0.31,0.8499,0.020457,2.6072,0.992,12.0,,,,,,1.728493,PASS,
281,s08_terrain_compliance,g000034_c7,34,,,,,,,,,,,10.615211395974468,0.035476778340901384,22.941830966506142,0.030241472264513704,3.9012,13.9629,14.7814,0.314,0.8879,0.020734,2.7813,0.992,12.0,,,,,,1.920352,PASS,
282,s08_terrain_compliance,g000035_c0,35,,,,,,,,,,,10.961508552625752,0.03412404934325124,22.687127144572372,0.03130990290180273,3.9101,14.165,14.7138,0.312,0.8553,0.020791,2.6706,0.992,12.0,,,,,,1.768316,PASS,
283,s08_terrain_compliance,g000035_c1,35,,,,,,,,,,,10.839980110275846,0.03381563474667106,22.671788399829826,0.030613034697717062,3.879,14.0798,14.7403,0.312,0.8691,0.020342,2.6633,0.992,12.0,,,,,,1.858004,PASS,
284,s08_terrain_compliance,g000035_c2,35,,,,,,,,,,,10.930610152247544,0.035765627027217826,23.504837306424157,0.03092000143893007,3.8962,14.242,14.7385,0.312,0.8636,0.020464,2.819,0.992,12.0,,,,,,1.787024,PASS,
285,s08_terrain_compliance,g000035_c3,35,,,,,,,,,,,11.350267774643875,0.03490441616972704,22.08701015590375,0.030959356842801097,3.9165,14.389,14.7161,0.312,0.8477,0.020614,2.5622,0.992,12.0,,,,,,1.722644,PASS,
286,s08_terrain_compliance,g000035_c4,35,,,,,,,,,,,10.878697793139658,0.03352457325789414,23.01047270582887,0.02948411110718496,3.9922,14.6854,14.653,0.306,0.7994,0.021603,2.6083,0.992,12.0,,,,,,1.476399,PASS,
