run_id,scenario,label,gen,timestamp,Q_PITCH,Q_PITCH_RATE,Q_VEL,R,KP_V,KI_V,KFF_V,KP_YAW,KI_YAW,LEG_K_S,LEG_B_S,LEG_K_ROLL,LEG_D_ROLL,rms_pitch_deg,max_pitch_deg,wheel_travel_m,wheel_liftoff_s,vel_track_rms_ms,hip_track_rms_rad,hip_cmd_rate_rms,settle_time_s,survived_s,fitness_balance,fitness_disturbance,fitness_drive_slow,fitness_drive_med,fitness_obstacle,fitness,status,fail_reason
1,s09_integrated,evo_seed,0,,0.01,0.18835218,0.0050844202,100.0,0.27216753,0.001,0.10491944,0.30725832,1.2004036,20.930684,0.64742237,120.49561,0.1499999,1.2036,6.2133,0.6134,0.0,0.155,0.021638,15.3011,0.0,5.018,,,,,,200.516041,FAIL,vel error exceeded
2,s09_integrated,g000000_c0,0,,0.055828209479847686,0.09877204201199904,0.01723340168660948,100.0,0.4803473498674989,0.0023749411063611835,0.1,0.9204860348794955,3.538475451935451,0.20818910425722367,1.628063624582125,14.12526170951212,0.03653851436649158,0.4895,2.9607,0.4509,0.0,0.0935,0.272578,1.5859,0.0,5.01,,,,,,201.531946,FAIL,vel error exceeded
3,s09_integrated,g000000_c1,0,,0.01,0.16042756343008485,0.0011822639863317103,100.0,0.2740146102142627,0.001,0.15,0.7105531154292819,0.058417265332407486,22.81502297139156,0.5605898418060158,167.16942436208612,0.033006912260295625,1.4509,4.1982,0.0057,0.0,0.0,0.020759,53.2378,16.0,0.052,,,,,,200.346283,FAIL,vel error exceeded
4,s09_integrated,g000000_c2,0,,0.010793002769418534,1.794484566668326,0.00040449777427087926,95.44961280054038,0.22925856751494098,0.001,0.15,0.11982746171399518,0.31664778696086465,10.081521850073702,0.02709722010465034,40.32608467316197,0.024564036781026883,1.1133,4.2896,0.7253,0.0,0.1809,0.029923,4.3662,0.0,5.016,,,,,,200.509176,FAIL,vel error exceeded
5,s09_integrated,g000000_c3,0,,0.05282200075594622,0.013754233185438204,0.0020216187243713205,97.92832844676572,2.213466431615063,0.001,0.15,11.716092958389053,3.35255732265821,12.031671600777239,10.805411203491849,499.99999999999994,0.061712723838371016,3.9559,7.0719,0.007,0.0,0.0,0.00986,59.0338,16.0,0.03,,,,,,200.631769,FAIL,vel error exceeded
6,s09_integrated,g000000_c4,0,,0.01,0.4418138171586534,0.017584682007454434,100.0,0.011308834617702474,0.001,0.15,0.4330860308632716,3.214794214645215,1.745188995198711,0.9741138140197598,30.755390629730506,0.4310703835977175,0.5279,0.8299,0.5731,0.0,0.3452,0.205645,3.3883,0.0,2.296,,,,,,201.445302,FAIL,vel error exceeded
7,s09_integrated,g000000_c5,0,,0.48751478851514657,0.006945660708527428,0.006299978280030449,6.596688983058943,0.10612267230139857,0.001,0.1,0.03645668016275873,22.67059822882254,13.253678816445714,10.909596689840688,499.99999999999994,0.15084248147696522,0.6012,2.7746,0.7708,0.0,0.2404,0.15668,54.9493,0.076,3.95,,,,,,201.311387,FAIL,vel error exceeded
8,s09_integrated,g000000_c6,0,,0.01,0.032777501033997826,0.3207979234630627,61.12105519779682,0.28278487980659717,0.00972675020706818,0.15,0.04427991846782146,0.009789553540931924,59.735739459892415,1.1770430033721033,23.26781873668321,0.050379975264571525,1.2825,2.8613,0.4274,0.0,0.1132,0.009459,2.7725,0.0,5.006,,,,,,200.363993,FAIL,vel error exceeded
9,s09_integrated,g000000_c7,0,,0.01,0.2039715310554829,0.013376603759915656,100.0,0.02375301596250024,0.00830943610768849,0.15,11.098119712828437,7.1702852026632495,100.0,0.1972554949303317,29.93099005697267,0.024113226970593628,0.2394,0.6874,0.0167,0.0,0.0,0.007458,4.1134,16.0,0.094,,,,,,200.087981,FAIL,vel error exceeded
10,s09_integrated,g000001_c0,1,,0.02597324868566418,0.0562332688098724,0.0037631603678810557,94.80418721057593,5.675362812700148,0.008197656252304873,0.1,1.4924293993369602,0.1432858078150859,29.92694510529394,9.564229530070095,499.99999999999994,0.00205002465570816,1.8951,4.1323,0.0055,0.0,0.0,0.010923,101.0744,16.0,0.03,,,,,,200.412527,FAIL,vel error exceeded
11,s09_integrated,g000001_c1,1,,0.01,0.20992635871209026,0.0024288939458203605,100.0,0.4839933284456091,0.001,0.1,1.3274613843004504,13.83124908455012,86.49159290585945,7.635128761683917,59.653120284693074,4.180248356472945,3.1361,5.8609,0.0069,0.0,0.0,0.014624,295.4341,16.0,0.026,,,,,,200.673843,FAIL,vel error exceeded
12,s09_integrated,g000001_c2,1,,0.05706274814281413,0.5996170762646386,0.024864762009129692,50.097965470700615,0.009004438827218311,0.012744731366733307,0.15,0.0641274229040314,1.1744305231653482,7.151110969406827,0.20188133815950626,499.99999999999994,0.021257502602463264,0.4562,0.8255,0.0335,0.016,0.0,0.133493,70.6293,16.0,0.29,,,,,,200.771788,FAIL,vel error exceeded
13,s09_integrated,g000001_c3,1,,0.0894629795937146,0.00838947019826819,0.013153235037407092,100.0,0.001,0.011679081481787293,0.15,0.26132591592820664,0.2875213440536108,7.081818591573646,0.311442377673517,93.18885068731356,0.11967304524843383,0.6538,1.4079,0.5251,0.0,0.3192,0.038452,10.2311,0.0,2.528,,,,,,200.621937,FAIL,vel error exceeded
14,s09_integrated,g000001_c4,1,,0.01,0.023034488824534093,0.0005241338896863024,7.0655197635745575,3.1426398500642816,0.001,0.11516659290738157,6.497907541311041,0.15137837242488508,2.840869668240036,5.3492471030294935,203.92318427482402,0.03361420118276022,8.0017,13.6533,0.009,0.0,0.0,0.018829,18.2349,16.0,0.058,,,,,,201.167844,FAIL,vel error exceeded
15,s09_integrated,g000001_c5,1,,0.09076655088314764,0.2057432217460441,0.005650000831144836,95.38844908207167,0.0430879250811407,0.04815402121650803,0.15,9.228093669140092,6.50935892992434,1.3013828709898694,0.1590892224595748,499.99999999999994,0.019136380303028302,0.8075,2.507,0.0117,0.0,0.0,0.076445,53.9192,16.0,0.12,,,,,,200.495435,FAIL,vel error exceeded
16,s09_integrated,g000001_c6,1,,0.2758051977298853,0.05278720850847096,0.001761467685410257,59.61621138811887,0.30860655301756224,0.0020359740032046434,0.1,0.32989648999550253,0.15430523379307193,6.764215416228945,1.7277419107233059,480.5307746903371,0.01026784777692029,1.0145,3.2179,0.0079,0.0,0.0,0.038654,73.0077,16.0,0.106,,,,,,200.351916,FAIL,vel error exceeded
17,s09_integrated,g000001_c7,1,,0.10000082621258562,0.30803845196890234,0.0008801531608521619,40.541142246850896,0.9248378928604853,0.001,0.15,0.04691051165500567,11.091794514370951,2.238023542065823,0.07928095889645041,45.04166037779051,0.47839795898612925,11.9171,20.568,0.0176,0.0,0.0,0.06208,5.2089,16.0,0.094,,,,,,201.900081,FAIL,vel error exceeded
18,s09_integrated,g000002_c0,2,,0.0601737930645236,0.09608368606972201,0.0001605729009215555,16.666794491660003,0.1512954271111483,0.0012266031156841942,0.15,9.624265357134922,0.22870503282018878,100.0,0.10496054501043474,41.914130082128516,0.019022780348254352,2.1974,4.3581,0.0148,0.0,0.0,0.008212,8.5495,16.0,0.082,,,,,,200.371214,FAIL,vel error exceeded
19,s09_integrated,g000002_c1,2,,0.08139329724471908,1.1294901677133322,0.056478901471582764,100.0,2.853514788424237,0.0024375396996354427,0.15,1.7549189448400835,0.12795849502630782,14.858419577635425,0.2722224356252776,10.532241601600303,0.0032484259727042384,12.4013,21.1529,0.0191,0.0,0.0,0.03126,1.2289,16.0,0.102,,,,,,201.81101,FAIL,vel error exceeded
20,s09_integrated,g000002_c2,2,,0.013782741289888342,0.017181693380205806,0.0009073909957921773,56.0142589911364,1.5605772499242774,0.001,0.15,0.6026618444911798,0.21979124683637621,1.0412394795193178,0.4150319673597415,144.65615180505708,0.048475162471828176,11.9336,20.1558,0.0176,0.0,0.0,0.050949,15.1644,16.0,0.09,,,,,,201.846836,FAIL,vel error exceeded
21,s09_integrated,g000002_c3,2,,0.01,0.018184164849667898,0.06498083046981351,100.0,0.17341800128279902,0.001,0.1,5.140552035280473,0.2779769284591412,36.547567185342004,9.74431722149345,420.075368163826,1.07856251807077,1.677,3.4976,0.0054,0.0,0.0,0.009083,98.8077,16.0,0.024,,,,,,200.420238,FAIL,vel error exceeded
22,s09_integrated,g000002_c4,2,,0.039580500633218225,0.010063985302968656,0.0034882829637635144,100.0,0.28786871701438177,0.001,0.15,0.43277845680016785,0.21846688662860989,100.0,7.161577537336325,95.5447265467885,0.039752240437074836,1.7165,4.6813,0.0064,0.0,0.0,0.015411,10.839,16.0,0.062,,,,,,200.361692,FAIL,vel error exceeded
23,s09_integrated,g000002_c5,2,,0.01,10.0,0.8476459279347145,4.358980361699873,2.0108925767460923,0.002270276447911886,0.1,0.4640479556889907,0.022526399716612,8.882925888463035,2.217696404255224,4.895155407782806,1.7616092493110995,4.2611,7.5824,0.0048,0.0,0.0,0.013039,0.7942,16.0,0.034,,,,,,200.637915,FAIL,vel error exceeded
24,s09_integrated,g000002_c6,2,,0.01,0.07200658884348221,0.0008348548377393385,100.0,0.17823871295822336,0.001,0.1,0.032258217157348376,1.1164947702937666,3.002652446099136,0.2409238362550524,499.99999999999994,0.06976238296693174,0.8489,6.8562,1.5422,0.0,0.2301,0.280347,61.6868,0.0,6.04,,,,,,202.083011,FAIL,vel error exceeded
25,s09_integrated,g000002_c7,2,,0.01,0.18823854596504144,0.0017675090155862528,100.0,0.24318281188157817,0.0028396280787631252,0.1,10.656417959516311,11.8196836673074,20.61812370438144,2.6348919772389583,131.761159944442,0.08909053243600618,0.8579,2.3687,0.0054,0.0,0.0,0.017529,18.3158,16.0,0.052,,,,,,200.220691,FAIL,vel error exceeded
26,s09_integrated,g000003_c0,3,,1.0399848384864403,4.981965025217792,7.52081063384778e-05,100.0,5.272976129841273,0.015482848257007794,0.1,0.43962009056259316,0.03529004652227255,54.81108317031544,0.14405194521410986,352.3908867210106,7.856802463740261,4.047,6.7946,0.006,0.0,0.0,0.013103,300.5808,16.0,0.026,,,,,,200.786739,FAIL,vel error exceeded
27,s09_integrated,g000003_c1,3,,0.07520506948328409,0.020940189446377107,1.0,53.09160243987628,0.06820287860911144,0.001,0.1,3.574903029426819,15.309104853279058,33.75123828765089,0.22258016024717892,33.30567576463009,2.8399734262908174,0.8982,1.9694,0.0043,0.0,0.0,0.010704,235.8324,16.0,0.02,,,,,,200.345794,FAIL,vel error exceeded
28,s09_integrated,g000003_c2,3,,0.01,0.004801176655127496,0.0020530319719492983,100.0,0.041469031741887735,0.015586521095119854,0.15,0.37724608556515493,0.24098557549947655,100.0,0.5325066960823586,96.33310940925152,0.14135127454410737,0.2245,0.929,0.0068,0.0,0.0,0.010286,16.0501,16.0,0.062,,,,,,200.140749,FAIL,vel error exceeded
29,s09_integrated,g000003_c3,3,,0.01,0.06956792956054346,0.13011954849315505,19.649267549597322,0.0047882898719578465,0.001,0.15,4.083760785888387,6.272307907114154,11.44276448931455,0.042789370993182814,6.2966022728683715,0.002745826757143573,0.9766,1.6914,0.3411,0.0,0.204,0.022799,0.8344,0.0,2.524,,,,,,200.450014,FAIL,vel error exceeded
30,s09_integrated,g000003_c4,3,,0.3699758889934498,0.08050297818516979,0.0038441741230580578,100.0,0.06589516685814928,0.0015184907737978018,0.1,0.1307152923747824,1.9503014175060829,2.9900594388460147,6.367244700293354,5.619548708490406,0.1397778396017798,0.2318,0.44,1.1168,0.0,0.3706,0.190733,0.7154,0.0,3.802,,,,,,201.355675,FAIL,vel error exceeded
31,s09_integrated,g000003_c5,3,,0.01105135065034499,0.25159452009052846,0.00029640722406299564,100.0,0.07556656703902706,0.0016919961793227696,0.1,12.193679060538559,2.557618091103436,14.836255728071679,0.08313026714364694,10.977993407098712,0.5608035535509734,0.7477,2.6179,0.0056,0.0,0.0,0.024345,5.0084,16.0,0.052,,,,,,200.225234,FAIL,vel error exceeded
32,s09_integrated,g000003_c6,3,,0.01,0.3019638066415782,0.0003741496477113898,7.493879908288836,0.05946525594013372,0.009174583698245654,0.15,0.045007884327010944,1.5330773924914474,3.861785157696388,100.0,20.089826766222416,1.5601165727572424,0.6336,1.8502,0.0063,0.0,0.0,0.013357,2.8338,16.0,0.042,,,,,,200.337698,FAIL,vel error exceeded
33,s09_integrated,g000003_c7,3,,0.01,0.03246442026043598,0.0028812350296186524,19.2655338299669,0.27918999654529775,0.002405690323626761,0.15,0.002590937599759313,0.7674617913266519,2.0248661991734282,0.05782308275346632,128.78444526074924,0.05197536569951709,1.2335,3.6196,0.6069,0.0,0.144,0.134108,13.4362,0.234,5.01,,,,,,201.004122,FAIL,vel error exceeded
34,s09_integrated,g000004_c0,4,,0.011068175601787234,0.17374617126515624,0.720667158576598,100.0,1.0559939727888454,0.001,0.15,0.008537618792932284,0.008591844944455522,1.5230590046401153,0.5849827819272401,16.250142172572467,0.0007696937880267976,10.3543,17.5969,0.0155,0.0,0.0,0.041417,1.9518,16.0,0.08,,,,,,201.587963,FAIL,vel error exceeded
35,s09_integrated,g000004_c1,4,,0.01,3.5849651443625907,3.911676718429731e-06,100.0,0.012722850976324933,0.0045392749451162295,0.15,0.562147674996712,0.096270777972003,100.0,1.5062491933225222,21.09844657014758,2.162197368931903,0.4484,0.817,0.0137,0.0,0.0,0.036807,263.6984,16.0,0.06,,,,,,200.438636,FAIL,vel error exceeded
36,s09_integrated,g000004_c2,4,,0.07511396250670187,0.28651047982612887,0.12102665321541248,25.81371037473839,1.2329460037867075,0.001,0.1,3.8315938844033925,11.783864137810031,73.45214544701537,1.1187609818303057,21.21470380273597,0.10608503116024029,10.0958,17.1959,0.0166,0.0,0.0,0.013929,3.4016,16.0,0.084,,,,,,201.426283,FAIL,vel error exceeded
37,s09_integrated,g000004_c3,4,,0.01,0.024290338076173854,0.10555111582810912,68.53181790844964,1.1062482663880555,0.001,0.15,0.002753525513596748,0.7672021103678115,53.60369221346628,0.059875192112495035,499.99999999999994,0.15073686627740812,3.7404,6.5588,0.0066,0.0,0.0,0.014502,106.9621,16.0,0.026,,,,,,200.676858,FAIL,vel error exceeded
38,s09_integrated,g000004_c4,4,,0.01,0.019875389077398133,0.011544672556950387,100.0,0.8672047214663057,0.11304543387846075,0.15,0.7831877482699352,0.004803188439072791,3.916648111216434,0.46103311902537386,2.8351939863419164,0.2753268251832984,11.163,19.4926,0.0172,0.0,0.0,0.048261,0.6108,16.0,0.094,,,,,,201.730018,FAIL,vel error exceeded
39,s09_integrated,g000004_c5,4,,0.025485876507936555,1.8793552469406625,0.04203979294374142,5.897205277585662,0.23551855222874837,0.001,0.1,0.12195973697106759,1.222581772308493,2.509057663417677,0.026004060018350855,27.083144822128688,3.5479789476001247,1.5201,4.2819,0.5106,0.0,0.1253,0.10593,3.8423,0.638,5.006,,,,,,200.859352,FAIL,vel error exceeded
40,s09_integrated,g000004_c6,4,,0.019208434600840346,0.15288498922966695,0.0071130549335359896,100.0,0.001,0.001,0.15,0.464457203496056,2.9739162477659216,100.0,1.1533854388359015,94.21072620471833,0.01100929132029054,0.0128,0.0275,0.0062,0.0,0.0,0.013532,30.5663,16.0,0.052,,,,,,200.144194,FAIL,vel error exceeded
41,s09_integrated,g000004_c7,4,,0.01,0.18689250987914913,0.0013410791576565246,26.32547924660083,0.03374807283297915,0.001,0.15,0.40617841557205697,0.5883269626094796,0.8467609068036309,0.20491309219733092,15.941176445864796,0.0818569448148684,0.4723,1.8731,0.5809,0.0,0.39,0.332859,1.775,0.0,2.078,,,,,,202.133129,FAIL,vel error exceeded
42,s09_integrated,g000005_c0,5,,0.01,10.0,0.05400360574787287,100.0,0.07509218955555093,0.001,0.15,7.639164615003073,11.995164561253922,4.48463492229537,4.135143547641364,32.62349634198417,0.7736239383166982,0.6027,2.1455,0.006,0.0,0.0,0.019841,5.2268,16.0,0.058,,,,,,200.182951,FAIL,vel error exceeded
43,s09_integrated,g000005_c1,5,,0.08812808244711011,0.08235016246779105,0.002598855767538386,68.00427684849295,0.289161666154904,0.009418496983205273,0.15,0.296324720357415,4.094111433059302,1.173845537474245,2.380157974387631,3.262497634987175,1.254345201032174,0.3965,6.1776,0.6721,0.0,0.1466,0.242691,2.2264,0.0,5.022,,,,,,201.417633,FAIL,vel error exceeded
44,s09_integrated,g000005_c2,5,,0.021271487069403103,1.463224060021084,0.00037861271417812556,100.0,0.3440090316725474,0.001,0.1,1.7467039788320637,18.18986412826177,20.027801186061097,7.709557786909952,1.0233592456549356,0.004625724186187165,1.0018,3.9165,0.5169,0.0,0.1257,0.114504,0.3746,0.0,5.012,,,,,,200.83244,FAIL,vel error exceeded
45,s09_integrated,g000005_c3,5,,0.4956441248414385,0.04964553450490253,0.00012458494468683655,1.6515669731597713,0.6948414418118134,0.001,0.1,5.214189351697396,0.008161075399800342,0.5788040772288335,1.342467391876938,499.99999999999994,0.08570019911099475,4.8743,9.7912,0.0171,0.0,0.0,0.075339,56.4751,16.0,0.18,,,,,,201.028544,FAIL,vel error exceeded
46,s09_integrated,g000005_c4,5,,0.01,10.0,0.0024011059037756053,100.0,8.315505996140484,0.0029932233947690093,0.1,0.07250973718237973,13.719384113371763,14.294411450143208,3.2712666731599533,161.44145782230453,0.09446410462592918,13.4981,21.866,0.0198,0.0,0.0,0.028298,17.3373,16.0,0.096,,,,,,201.952646,FAIL,vel error exceeded
47,s09_integrated,g000005_c5,5,,0.01,0.43946313645104806,0.03679365826622774,100.0,0.7264158896437044,0.00695034781297278,0.15,0.0013398051437619404,17.687895721043237,1.5097449641801524,11.001930789354773,499.99999999999994,0.17622335670865671,9.5936,19.8473,0.0343,0.0,0.0,0.065641,53.1086,16.0,0.216,,,,,,201.612191,FAIL,vel error exceeded
48,s09_integrated,g000005_c6,5,,0.020204236761462328,0.022847549012626055,0.0003181074911955284,100.0,7.780422804863611,0.0613563908688999,0.1,0.04472772293771515,100.0,0.892554410138678,0.6151315934903443,97.64894536947668,0.2859551471319682,13.2375,21.3332,0.0201,0.0,0.0,0.041262,10.103,16.0,0.096,,,,,,201.971791,FAIL,vel error exceeded
49,s09_integrated,g000005_c7,5,,0.01,0.022335711328167994,0.00873085635691594,22.472827807167477,0.05233356666357528,0.001,0.1,0.6284833564912647,0.17610477652955997,3.2828072401725215,0.9786066915963266,499.99999999999994,0.7133626632112678,1.0124,3.4716,2.1063,0.076,0.3448,0.131933,50.9103,0.0,6.13,,,,,,201.189531,FAIL,vel error exceeded
50,s09_integrated,g000006_c0,6,,0.01,0.005825508398990058,0.0003819866574741821,25.50876729188195,0.0194448123031807,0.001,0.1,0.028102684511226342,0.4300960092350783,87.05163974571325,0.3200940252828394,9.224653394785935,0.0038816003162890854,0.6527,1.5593,0.3823,0.0,0.2768,0.002933,1.5004,0.0,2.252,,,,,,200.591107,FAIL,vel error exceeded
51,s09_integrated,g000006_c1,6,,1.7778482168837133,0.19189796270258067,0.003959372949272211,100.0,3.755599983677993,0.001,0.15,0.785552556518914,1.1225823159710018,13.694378381721483,0.45580987868669437,171.58631919897672,2.220261345413778,12.9794,21.4752,0.0197,0.0,0.0,0.030918,49.3312,16.0,0.098,,,,,,201.912575,FAIL,vel error exceeded
52,s09_integrated,g000006_c2,6,,0.01,0.009714491597753493,0.0003339081803556386,27.71107933134519,5.860525737251911,0.17261854200060536,0.1,6.027660718278128,14.848796732843335,15.56899085064542,100.0,264.2887878465062,0.15859102650247367,2.1376,4.3521,0.0057,0.0,0.0,0.008695,42.0538,16.0,0.026,,,,,,200.504422,FAIL,vel error exceeded
53,s09_integrated,g000006_c3,6,,0.4275247090111273,0.44439710549287165,0.008630167037259677,100.0,0.1620310169267147,0.0032481837359410078,0.15,0.3880550165893912,9.905431593818246,36.18940433569467,3.680921072169082,187.11806259550528,0.11763327834700336,1.6901,3.9412,0.0313,0.0,0.0,0.037226,33.9101,16.0,0.186,,,,,,200.469416,FAIL,vel error exceeded
54,s09_integrated,g000006_c4,6,,0.4290599136938988,0.0720173515930782,0.0004326424577295421,13.909865216951014,1.7328756913392915,0.001,0.10922279253651766,0.1041700252508547,0.08274821186549407,20.001352758973038,8.415323770147426,499.99999999999994,2.5728105098390803,3.2969,5.8434,0.005,0.0,0.0,0.009902,242.1957,16.0,0.024,,,,,,200.659013,FAIL,vel error exceeded
55,s09_integrated,g000006_c5,6,,0.01,0.7119918751507054,0.7464334579492512,100.0,2.8926782735344974,0.0800533167004943,0.15,0.8001100973754304,7.947476773452291,2.7048189225091352,0.7682408937408007,21.875601277087014,0.015853361631606527,11.4602,19.1666,0.0181,0.0,0.0,0.036582,1.9652,16.0,0.092,,,,,,201.711324,FAIL,vel error exceeded
56,s09_integrated,g000006_c6,6,,0.01,3.689005446795423,0.0006564820064526654,100.0,0.12530001701244192,0.001,0.1,0.00843963780997465,1.7748912997128028,100.0,0.048038180381762684,499.99999999999994,0.1562151575571944,1.281,3.0599,0.0051,0.0,0.0,0.014846,107.3796,16.0,0.026,,,,,,200.352582,FAIL,vel error exceeded
57,s09_integrated,g000006_c7,6,,0.01,0.5734124253267592,0.021834224487661764,38.862438005473976,0.4063695199382026,0.0032759031357207677,0.15,0.627468563781067,0.7133060756040314,6.902668223049045,2.2821423741570035,15.755921288710224,0.010413899604153233,0.9867,2.8465,0.4049,0.0,0.0978,0.110939,1.7424,0.0,5.008,,,,,,200.786264,FAIL,vel error exceeded
58,s09_integrated,g000007_c0,7,,0.01,10.0,0.0005501618040924598,4.5307579036747025,0.046744555365747585,0.001,0.1,0.12721635245316937,0.11348381016970432,100.0,0.18127738757666972,254.68993338702018,0.008382508609573885,1.5247,4.2532,0.0311,0.006,0.0,0.141686,80.9463,16.0,0.172,,,,,,201.033734,FAIL,vel error exceeded
59,s09_integrated,g000007_c1,7,,0.015884935818240742,0.05600992376781676,0.16046699158259525,7.750880293932698,0.5448983165443102,0.001,0.1,0.027731757834369587,1.913006661860538,4.682908058092341,0.01970018968147048,43.90737558314501,0.5749907520693947,5.5725,12.7587,0.0473,0.0,0.0,0.098766,5.158,16.0,0.43,,,,,,201.238125,FAIL,vel error exceeded
60,s09_integrated,g000007_c2,7,,0.01,0.304540226366547,0.03849608068578866,100.0,0.8551886814136374,0.001,0.1238949310555224,0.8438908884958131,0.06297659044589193,6.36178688061808,0.02968999530017215,499.99999999999994,0.4482121690788635,10.9705,18.8839,0.0168,0.0,0.0,0.051467,76.5313,16.0,0.086,,,,,,201.740498,FAIL,vel error exceeded
61,s09_integrated,g000007_c3,7,,0.07955195289810811,0.010323507157274918,0.01514732660444143,26.333221793431083,1.3439204337742325,0.001,0.1,0.002826106015577609,78.17627889784953,3.980085090453116,0.012512565466245703,277.656592031815,0.19146228474305368,11.7589,19.9066,0.0172,0.0,0.0,0.05696,38.2923,16.0,0.088,,,,,,201.86006,FAIL,vel error exceeded
62,s09_integrated,g000007_c4,7,,0.32859960251092485,6.106631977047334,0.0002847537831125308,70.53626196294788,0.15480117901156826,0.09706022301671832,0.1,2.2561904722684756,0.25815682192234496,72.8026441224637,7.670003356906981,66.89230849314878,3.655635494738927,2.3507,4.4626,0.0059,0.0,0.0,0.013261,255.8402,16.0,0.022,,,,,,200.568946,FAIL,vel error exceeded
63,s09_integrated,g000007_c5,7,,0.07125262141197324,0.012082390896560175,0.0002745377964439299,1.325016652536497,2.6315647613077577,0.001,0.12645664641643756,0.1020257313508917,100.0,100.0,0.037018810903252986,27.21706775266548,0.21777497216168687,11.6845,19.8512,0.016,0.0,0.0,0.006292,5.2919,16.0,0.09,,,,,,201.61086,FAIL,vel error exceeded
64,s09_integrated,g000007_c6,7,,0.01,0.009674251817811874,0.001135506655274561,100.0,0.022724459008424073,0.007406230240647738,0.1,0.26112765122183357,0.25083647254684116,35.179708185189156,1.3636241616049485,499.99999999999994,0.6246732379318968,0.3643,0.8726,0.0068,0.0,0.0,0.020786,135.8297,16.0,0.042,,,,,,200.254079,FAIL,vel error exceeded
65,s09_integrated,g000007_c7,7,,0.13075118103788505,0.3184487989100092,0.30694674452068715,60.26776303163611,10.0,0.001,0.1,26.03534605308199,18.83555610491814,100.0,2.1084110867098005,32.33956254172307,0.021193315639171133,7.8347,12.9358,0.01,0.0,0.0,0.010427,5.6374,16.0,0.05,,,,,,201.122737,FAIL,vel error exceeded
66,s09_integrated,g000008_c0,8,,0.11071477823667655,0.07427562156650473,9.783029039585373e-05,100.0,2.3659887424361705,0.00169881450703681,0.15,1.4476829241483617,8.856924511095908,7.496129943538416,0.37226139851232953,499.99999999999994,0.005494523079185816,11.9911,20.2226,0.0185,0.0,0.0,0.045734,67.9138,16.0,0.092,,,,,,201.852087,FAIL,vel error exceeded
67,s09_integrated,g000008_c1,8,,0.026881774359540055,0.5113451450928276,0.0038571743852638157,4.422628888718632,0.0404743164332655,0.001,0.1,0.00786153277343809,52.61960504623105,1.4187269209463946,0.6079529184632336,323.0552088051688,0.19846792183904818,1.061,3.2325,2.3663,0.038,0.3693,0.245511,31.9062,0.0,6.106,,,,,,201.84396,FAIL,vel error exceeded
68,s09_integrated,g000008_c2,8,,0.01,0.13611276668721745,0.0005424364874903851,7.233415893553442,0.01516766130176394,0.0035167110111073343,0.1,4.736828258844097,0.5449505900888613,100.0,0.3320645269350855,43.1003972963236,0.08594908498207264,0.5175,1.1668,0.3229,0.0,0.2536,0.003014,6.0189,0.0,2.036,,,,,,200.454252,FAIL,vel error exceeded
69,s09_integrated,g000008_c3,8,,0.010965262662339216,0.4055482365260821,0.004271256399043273,100.0,10.0,0.005781585447965461,0.1,0.03201764184678435,0.4607577441644262,12.260713287094545,0.5574098014273825,499.99999999999994,0.6911882982127568,8.8528,14.5,0.011,0.0,0.0,0.021818,83.824,16.0,0.058,,,,,,201.332676,FAIL,vel error exceeded
70,s09_integrated,g000008_c4,8,,0.019680918710676225,0.042713096663757395,0.1074084854324676,18.851951687089638,1.8579117861738814,0.001,0.1,0.6881213158479106,0.713411942855992,100.0,0.0909594738661211,499.99999999999994,0.7130045511335875,3.2421,5.7739,0.0069,0.0,0.0,0.013931,120.5824,16.0,0.024,,,,,,200.634284,FAIL,vel error exceeded
71,s09_integrated,g000008_c5,8,,0.2044429019986682,0.6541351871425896,0.0020951736595568606,100.0,0.03807124807388882,0.001,0.1,0.3183237444647172,1.4945609977098921,100.0,0.482490368283199,18.65456453044481,0.03003223230508126,0.8088,1.5553,0.4961,0.0,0.3024,0.003375,2.3813,0.0,2.576,,,,,,200.486299,FAIL,vel error exceeded
72,s09_integrated,g000008_c6,8,,0.01,0.2980346687593538,0.0035346225495568057,12.924247700710435,6.490186105125814,0.001,0.1,0.19113343275439798,0.5748026694621184,4.231313168193042,1.5892095217780524,48.19652159423826,0.012231086502898248,12.9996,21.0808,0.0194,0.0,0.0,0.032671,5.9085,16.0,0.094,,,,,,201.897938,FAIL,vel error exceeded
73,s09_integrated,g000008_c7,8,,0.01,0.3018573084565178,0.012272084788876746,100.0,0.7907576297369406,0.0021340460082232863,0.15,0.033594128332710325,0.3886139747705829,0.8029871961789319,0.3080528539325658,499.99999999999994,0.010490781285194229,11.1327,20.0889,0.0443,0.0,0.0,0.154838,54.3535,16.0,0.244,,,,,,202.2611,FAIL,vel error exceeded
74,s09_integrated,g000009_c0,9,,0.01,6.711305811127764,0.000666088897354198,60.70929151772266,0.2785930338399884,0.001,0.1,0.09423088571727398,1.2361430803039626,4.6733390044312655,0.032651000740559134,15.276963944129609,0.6821919788743158,1.2243,3.6631,0.6096,0.0,0.1507,0.062371,1.7355,0.448,5.014,,,,,,200.627509,FAIL,vel error exceeded
75,s09_integrated,g000009_c1,9,,0.010876445632162664,0.002647217094334552,0.028141825395774173,19.588192869035122,0.1324519987121105,0.03446131025167642,0.10629723597259033,0.9533163036267263,1.4594800254815914,100.0,2.150642956820771,5.6920515583320785,0.25355849944453906,1.2176,2.5218,0.654,0.0,0.1781,0.008742,1.3462,0.0,5.006,,,,,,200.396097,FAIL,vel error exceeded
76,s09_integrated,g000009_c2,9,,0.04705119259214966,2.5948266975299443,0.0006229095799889316,100.0,0.38746933543701856,0.001,0.15,0.03911437936595401,3.432259476476264,10.27995123992505,0.014611695635722333,0.224941191259348,0.09209550912055389,1.284,3.4882,0.4546,0.0,0.1153,0.029282,0.3583,0.848,5.014,,,,,,200.433893,FAIL,vel error exceeded
77,s09_integrated,g000009_c3,9,,0.03635461739155604,0.0290851990724952,0.003467774514367122,100.0,0.444763001376254,0.001,0.1,0.0053831696141575965,3.188336883820521,5.962027232620111,0.014960894186392737,162.5182375722118,0.3315636748206859,1.5325,4.717,0.4128,0.0,0.101,0.051695,17.7077,0.802,5.01,,,,,,200.60013,FAIL,vel error exceeded
78,s09_integrated,g000009_c4,9,,0.01,0.308789501069693,0.00020530296724542704,100.0,7.7945020246866,0.001371775896928992,0.15,0.697556641780115,0.4618976371992918,12.370503316933219,0.3998463725837847,20.361033658224603,0.04977409841152884,13.1422,21.3546,0.0193,0.0,0.0,0.031147,1.8324,16.0,0.094,,,,,,201.909072,FAIL,vel error exceeded
79,s09_integrated,g000009_c5,9,,0.02221690500522286,0.05256645456563378,0.059801469951644134,59.89971149920705,0.0035704046307294774,0.001,0.1,0.07633712111783196,12.91713372174331,10.49176150140451,1.7235074357190596,87.37951489089514,0.1312945313551625,0.6531,1.094,0.5724,0.0,0.3005,0.061964,9.6344,0.0,2.8,,,,,,200.724467,FAIL,vel error exceeded
80,s09_integrated,g000009_c6,9,,0.01065466031006233,6.07266030285493,0.010548979824488902,88.97520658811214,0.297263738824749,0.01180722939023771,0.15,0.08662196768155937,15.610710560033448,13.97040894122752,0.2467082850199148,499.99999999999994,0.011600142775017395,1.6756,4.506,0.0053,0.0,0.0,0.023068,98.7665,16.0,0.048,,,,,,200.404713,FAIL,vel error exceeded
81,s09_integrated,g000009_c7,9,,0.01,0.6798382883819438,0.0004512717735373581,2.549368991609554,5.041230096030947,0.02433178408760047,0.1,1.8127596044088645,0.12559282680788317,100.0,0.15250809619571082,499.99999999999994,0.14319070220306368,3.7128,6.6984,0.0057,0.0,0.0,0.017098,114.4347,16.0,0.03,,,,,,200.692731,FAIL,vel error exceeded
82,s09_integrated,g000010_c0,10,,0.01,0.06528769760578673,0.2142338457977704,100.0,0.19541190066720013,0.006291943359427691,0.15,0.2423250441195699,3.2960035875663634,8.149313089671491,0.16623365718695832,499.99999999999994,0.015162535977049092,1.2253,3.738,0.0054,0.0,0.0,0.025048,86.8693,16.0,0.05,,,,,,200.325953,FAIL,vel error exceeded
83,s09_integrated,g000010_c1,10,,0.01,0.25790140597883776,0.00017656566745816003,14.807609823761599,0.31879233358404496,0.003502721716598704,0.1,0.07977150373779093,1.8787647313052325,23.9342111716927,0.35259746151842203,43.308966262913934,0.009221539802489334,1.1913,6.519,0.0162,0.0,0.0,0.021983,8.9036,16.0,0.338,,,,,,200.286421,FAIL,vel error exceeded
84,s09_integrated,g000010_c2,10,,0.01,0.20398187005251164,0.006226150390360665,100.0,0.0632133426238057,0.00497930059006494,0.1,6.038259584564148,1.268904219726114,0.6647918848539307,2.2665077265118443,499.99999999999994,0.10619538378932979,0.5351,2.1043,0.0057,0.0,0.0,0.024384,58.7241,16.0,0.064,,,,,,200.19572,FAIL,vel error exceeded
85,s09_integrated,g000010_c3,10,,0.02707372372772358,0.01764010512205156,0.022051056391058376,38.13325853902443,0.375773864687207,0.001,0.15,0.5257166538092838,25.403955972484262,2.825725243799846,0.0403378571929102,4.156536456430521,0.024392579038285345,1.4727,4.4316,0.4405,0.0,0.1079,0.097248,0.5865,0.572,5.008,,,,,,200.793835,FAIL,vel error exceeded
86,s09_integrated,g000010_c4,10,,0.01,5.309799451445749,0.00036737769875759226,100.0,2.1523942447799644,0.001490102039790825,0.1,0.09237263606883762,4.2276891617489705,13.510144476210831,1.514683938752636,10.967228675285837,0.10689183787595649,11.6455,19.7239,0.0179,0.0,0.0,0.032137,1.4885,16.0,0.092,,,,,,201.714418,FAIL,vel error exceeded
87,s09_integrated,g000010_c5,10,,0.01,0.042704792205515825,0.01747199630099538,78.35051918240475,0.44363177473238385,0.0011589446725342961,0.1,1.5222448023273514,0.3983934575491292,1.5521366917066857,9.204996203804011,499.99999999999994,0.20551142535819777,0.2876,3.0559,0.452,0.0,0.0975,0.236331,48.2698,0.0,5.01,,,,,,201.331006,FAIL,vel error exceeded
88,s09_integrated,g000010_c6,10,,0.02223715928236325,0.051038415683750865,0.00033280364310334597,100.0,0.01888713761548671,0.0010568604886323548,0.1,0.29012090871282376,1.0937589479227376,7.481104903580534,16.988041908961634,499.99999999999994,5.180219262744454,0.3559,0.5087,0.0306,0.0,0.0,0.032592,313.9344,16.0,0.098,,,,,,200.39413,FAIL,vel error exceeded
89,s09_integrated,g000010_c7,10,,0.01,10.0,0.04225312330245021,100.0,0.005897836533079455,0.001,0.15,0.1817347995372193,1.2083831422948024,100.0,0.10446503048264827,11.57622908550792,0.4132268868197947,0.593,1.0256,0.3002,0.0,0.2313,0.002612,6.5297,0.0,2.112,,,,,,200.388242,FAIL,vel error exceeded
90,s09_integrated,g000011_c0,11,,0.01,0.08248801898736953,0.0028196269837404684,100.0,0.13195522154604536,0.001,0.1,4.080122349847384,5.442318839878895,6.586030277249943,0.2292555441686505,199.12688476929728,0.08204113682212114,0.6028,2.5134,0.0132,0.0,0.0,0.079822,32.0657,16.0,0.24,,,,,,200.495077,FAIL,vel error exceeded
91,s09_integrated,g000011_c1,11,,0.01,1.190889328587581,0.029756347996983647,45.47643035113138,0.4951588241322382,0.0011380475978477675,0.1,0.12160562842470053,0.38689632504611865,0.697112622267592,2.0014027952007196,62.96889650113419,1.4740853514472358,0.4219,2.4476,0.424,0.0,0.0884,0.266364,7.8425,0.0,5.008,,,,,,201.484664,FAIL,vel error exceeded
92,s09_integrated,g000011_c2,11,,0.01,0.8438758249859702,0.0042482884231247586,48.756855771369345,0.14243601688818242,0.001,0.14344226634539783,0.19989041785297576,2.001750133615353,100.0,0.36023215656947644,6.99261980921421,0.2749788379636133,1.182,5.2834,0.9884,0.0,0.2496,0.003559,1.7265,0.0,5.024,,,,,,200.438887,FAIL,vel error exceeded
93,s09_integrated,g000011_c3,11,,0.01,0.08141397870654077,0.00464414410305879,100.0,2.6956674650247714,0.001,0.14275740349550184,0.008803044616567939,0.1563205224146072,100.0,1.0150217929326875,114.42848504151408,0.029904997810904953,3.9391,7.2849,0.0059,0.0,0.0,0.012856,33.4635,16.0,0.034,,,,,,200.657075,FAIL,vel error exceeded
94,s09_integrated,g000011_c4,11,,0.019822611042820754,0.014193465195098644,0.04073661089007121,4.900301007037632,0.391233232690922,0.003710683667705017,0.1,0.07292249432818247,0.025939477932857273,65.64230047229847,0.25854575436223165,337.9226916057809,0.8275802877359999,3.2424,5.9041,0.0073,0.0,0.0,0.014061,99.5908,16.0,0.026,,,,,,200.645954,FAIL,vel error exceeded
95,s09_integrated,g000011_c5,11,,0.01,0.05196811873435337,0.0010990474850556507,26.980502879589956,0.31091226284772966,0.01986737269465048,0.1,0.18578202385120368,0.9727155819577676,83.12220680683636,1.6220538548637877,499.99999999999994,0.05944900738609832,1.2505,2.3102,0.0053,0.0,0.0,0.020382,99.2087,16.0,0.034,,,,,,200.377312,FAIL,vel error exceeded
96,s09_integrated,g000011_c6,11,,0.08618815588282035,0.17057474568720293,0.0009498584913793578,100.0,0.16019029163448173,0.001,0.15,0.6836569361139414,0.8854560225632532,13.89850863570097,0.2600950371342597,51.337154116211785,0.07336387888278315,1.0851,5.8875,0.9625,0.0,0.2401,0.023655,5.5949,0.0,5.022,,,,,,200.523521,FAIL,vel error exceeded
97,s09_integrated,g000011_c7,11,,0.0340562747141233,3.7107820329868217,0.006522632808629139,100.0,0.3033126968315151,0.001,0.15,0.4652637417363751,0.6999199866247588,4.238510985341967,0.6981585441087692,499.99999999999994,6.917062421947776,0.9482,3.2917,0.5687,0.0,0.1348,0.106342,95.3755,0.0,5.01,,,,,,200.830957,FAIL,vel error exceeded
98,s09_integrated,g000012_c0,12,,0.01,0.595162546077491,0.004335912406006231,100.0,0.012810776876102102,0.004436277016857356,0.1,0.5778485864209946,0.1540503411512355,33.22164283891302,0.5895564563346222,499.99999999999994,0.034543672429121736,0.3515,0.7368,0.0109,0.0,0.0,0.029497,95.6806,16.0,0.056,,,,,,200.281392,FAIL,vel error exceeded
99,s09_integrated,g000012_c1,12,,0.01595417130749233,0.020090145823294166,0.0017831388005695428,100.0,0.18361695266996886,0.001,0.15,0.9172270451323601,1.5092736948512393,4.139856008205717,0.6262942983356709,433.3168837882249,1.1991963531161105,0.9292,6.0618,0.8891,0.0,0.2131,0.100246,46.8154,0.0,5.02,,,,,,200.873642,FAIL,vel error exceeded
100,s09_integrated,g000012_c2,12,,0.010726423522451492,0.4925835240275431,0.02125976174436147,100.0,0.5093966756231488,0.001,0.13670483046691698,0.011236298869116701,0.1867560950579062,12.239869160574917,1.6049922431744426,38.442202773763704,0.359763990932563,1.1447,2.9748,0.3368,0.0,0.0858,0.054453,4.7238,0.0,5.01,,,,,,200.519512,FAIL,vel error exceeded
101,s09_integrated,g000012_c3,12,,0.01,0.7799017089336024,0.0038244811570286915,100.0,0.5287632791793846,0.0036041034115809833,0.15,0.25426606319427314,1.5281597320080376,32.712636927366276,0.30694046417698023,201.76254685045114,0.36774411809291674,4.5849,9.3348,0.0077,0.0,0.0,0.020437,42.3212,16.0,0.054,,,,,,200.767337,FAIL,vel error exceeded
102,s09_integrated,g000012_c4,12,,0.01,2.002226712214615,0.0063374861499653195,35.33074731971207,0.6166267770592694,0.003559060814131311,0.15,0.08966994204448288,3.2280029386556364,22.221112492068308,0.06950612983358793,499.99999999999994,0.02861794307442062,3.1435,5.9912,0.0054,0.0,0.0,0.015193,110.0983,16.0,0.028,,,,,,200.578942,FAIL,vel error exceeded
103,s09_integrated,g000012_c5,12,,0.01,2.663683602329862,0.014722209675556212,12.341632770991048,0.3055480543466873,0.007178581540158307,0.15,0.4220162004241686,2.494050147342953,11.643034499834442,0.16098631469346425,99.78818247636838,0.10232383192270456,1.2223,2.8345,0.4655,0.0,0.1205,0.027904,11.5919,0.0,5.008,,,,,,200.492262,FAIL,vel error exceeded
104,s09_integrated,g000012_c6,12,,0.06893092560692828,0.3584865905670158,0.008609954867442284,55.48624995988188,0.31684144215206955,0.001,0.15,0.22560381391033305,0.34703837109709557,8.80941065816301,0.6360109277847693,22.771302821529503,2.8884968754311204,1.1126,2.9479,0.5149,0.0,0.1293,0.045834,4.8835,0.0,5.012,,,,,,200.510489,FAIL,vel error exceeded
105,s09_integrated,g000012_c7,12,,0.01993304528072595,0.2772850842269427,0.0016210636540596862,45.43831988057814,0.30513706026707926,0.002393014883586691,0.1,0.1797160506663473,0.6183758955443609,4.177752522433182,0.11730782542376395,30.160391850151683,0.5841100205191395,1.1904,3.4537,0.5507,0.0,0.1361,0.071116,3.3643,0.496,5.014,,,,,,200.653469,FAIL,vel error exceeded
106,s09_integrated,g000013_c0,13,,0.01,0.43911601371457015,0.004508597082460597,100.0,0.16003821468552126,0.001,0.1,0.25010817136085345,1.82647684269542,39.087888722433284,0.2403880726200607,49.995152488989284,0.017305498371688714,0.9665,4.3611,0.0079,0.0,0.0,0.015915,11.8981,16.0,0.128,,,,,,200.234407,FAIL,vel error exceeded
107,s09_integrated,g000013_c1,13,,0.010539465907529045,0.10300824859353559,0.005935794606838096,58.493372683772385,1.5549625792158,0.001,0.15,1.2375266177128785,0.6244479854973756,57.983555981293,1.112540965685117,147.16827763372928,0.4345768355901637,4.6108,8.1399,0.0067,0.0,0.0,0.012817,39.3829,16.0,0.034,,,,,,200.769497,FAIL,vel error exceeded
108,s09_integrated,g000013_c2,13,,0.01,0.10131511335487271,0.009756299400009886,100.0,0.1035892619476494,0.0026014793366875653,0.15,1.8572870789067961,0.6437597562351115,5.493188965814273,0.8839663553722142,80.19909599467022,0.31431257669979634,1.0178,4.19,1.6095,0.022,0.2787,0.07631,8.9783,0.0,6.08,,,,,,200.812807,FAIL,vel error exceeded
109,s09_integrated,g000013_c3,13,,0.01,0.02491906760601908,0.0005351316700220039,100.0,0.09579940094324621,0.001673304678349085,0.1,0.6312157203220231,1.4446395985164033,63.99246743443038,0.21739217858456325,441.81895266321607,0.08870591276483203,0.9837,2.6234,0.0049,0.0,0.0,0.016529,108.9907,16.0,0.03,,,,,,200.30693,FAIL,vel error exceeded
110,s09_integrated,g000013_c4,13,,0.01,0.629343533412116,0.0005248352915505343,100.0,1.7935371027024158,0.001,0.15,0.39424114196607457,0.36438035498808935,29.347001741781888,0.4821214228275094,61.737391479029405,0.27940254099990436,11.344,18.9803,0.0173,0.0,0.0,0.025359,7.8576,16.0,0.088,,,,,,201.649105,FAIL,vel error exceeded
111,s09_integrated,g000013_c5,13,,0.01,0.12824308208807447,0.008376503165271373,100.0,1.1641754990295161,0.0031385999536772294,0.15,0.1650149998167776,8.005385046568236,62.700751263978844,0.8415605847075096,160.94228916483783,0.08855974717502942,5.1064,9.1471,0.0083,0.0,0.0,0.014567,48.0026,16.0,0.04,,,,,,200.828289,FAIL,vel error exceeded
112,s09_integrated,g000013_c6,13,,0.06454556086715296,0.2526164268507512,0.005863185818657094,100.0,0.06699356576014158,0.001448004272774908,0.15,0.12980459334320057,0.4858809130225925,33.68225540131227,0.44381227290985137,112.55392488467238,0.29078602037495827,0.8079,1.5827,0.6037,0.0,0.3116,0.011203,15.8195,0.0,2.908,,,,,,200.564526,FAIL,vel error exceeded
113,s09_integrated,g000013_c7,13,,0.01,0.30851091129371927,0.007095119434431967,100.0,0.1085542935604596,0.001,0.1,0.10783774726296215,3.2762029019079026,62.921772060553174,0.24839622464675143,128.6736697653333,0.17073968083918292,1.0945,3.1108,0.008,0.0,0.0,0.014538,28.9529,16.0,0.058,,,,,,200.280535,FAIL,vel error exceeded
114,s09_integrated,g000014_c0,14,,0.010689061806852479,0.1800093074586234,0.009016202410096713,46.0873339918172,0.48642975699654434,0.004931085803865932,0.1,1.080363639128086,1.1172919848180616,10.41206526475561,0.9551947618679303,45.97671128267213,0.46295288208126745,1.1738,3.1171,0.346,0.0,0.0885,0.046832,5.3467,0.0,5.01,,,,,,200.486645,FAIL,vel error exceeded
115,s09_integrated,g000014_c1,14,,0.01,0.13776737397151656,0.0018550136112627184,35.98738528838841,0.34747298693870976,0.001018575748679559,0.12531180469289957,0.3423042984074182,1.4056380717914663,53.52019853856514,0.6751684952922802,83.28379988087724,0.16082812425932513,1.4518,9.8589,0.516,0.0,0.1322,0.008876,12.122,0.0,5.014,,,,,,200.491512,FAIL,vel error exceeded
116,s09_integrated,g000014_c2,14,,0.0103099906921361,0.07036191034316133,0.0009829678013548295,50.20601823138302,0.19902901816094956,0.001,0.15,0.07416614521529111,3.777069135784225,100.0,0.4123137522931576,102.41953471040657,0.18444986623296378,1.3687,3.4601,0.0056,0.0,0.0,0.011544,25.0727,16.0,0.036,,,,,,200.334207,FAIL,vel error exceeded
117,s09_integrated,g000014_c3,14,,0.04994607683269652,0.08022702403550676,0.008255329354507557,100.0,1.1263943418043998,0.0015077186390807687,0.1444089942893568,1.3856854094310005,2.100434496070892,12.875986953699284,1.5035030164608558,92.28065994861404,0.04468458144760824,11.1044,18.9954,0.0171,0.0,0.0,0.031915,10.6781,16.0,0.09,,,,,,201.6472,FAIL,vel error exceeded
118,s09_integrated,g000014_c4,14,,0.0708176678385903,0.31896682574541635,0.0014361715675648744,26.17548810908354,0.8072693010261662,0.001,0.15,0.3638857833607647,0.8493749352468121,55.41475905567363,0.8617450749932862,499.99999999999994,0.16881838793287987,3.961,7.0236,0.0066,0.0,0.0,0.016907,101.6231,16.0,0.028,,,,,,200.717441,FAIL,vel error exceeded
119,s09_integrated,g000014_c5,14,,0.01,0.652723560909308,0.003065499873991203,52.10520340942309,0.05479785862738073,0.001,0.15,0.9210721508017894,2.3775880362569404,9.677893864837847,0.4945999509849579,78.23131749502554,0.27187067548726584,0.7406,1.6443,0.599,0.0,0.3136,0.034908,8.9579,0.0,2.85,,,,,,200.601024,FAIL,vel error exceeded
120,s09_integrated,g000014_c6,14,,0.012200310375430644,0.07326969471296485,0.008731114605750379,75.04885421353175,0.3183698133967735,0.001,0.15,0.03981534682987406,1.7014960471799079,40.411673862726644,1.2989651787153857,147.44944270618993,0.0703582122766778,2.4387,5.8409,0.0068,0.0,0.0,0.017084,37.1663,16.0,0.052,,,,,,200.466696,FAIL,vel error exceeded
121,s09_integrated,g000014_c7,14,,0.02240526277313677,0.13068920526024067,0.0009656422905307782,28.70564541564134,0.22097641457365777,0.001,0.1,0.12276846520373903,0.6858877955584591,33.064060883868656,1.0968961059660438,126.59794425591356,0.38138991767895347,1.1338,4.3071,0.726,0.0,0.1824,0.01738,19.4757,0.0,5.016,,,,,,200.506835,FAIL,vel error exceeded
122,s09_integrated,g000015_c0,15,,0.01,0.21715514382466458,0.0014385226064445346,89.00171806091983,0.1362296203567157,0.0037988835533839293,0.15,0.800159053573801,0.40594598216236844,25.98453084513626,0.17785053683177487,301.0393933492724,0.19977468779856794,0.8865,3.0541,0.0057,0.0,0.0,0.02561,73.5841,16.0,0.06,,,,,,200.31158,FAIL,vel error exceeded
123,s09_integrated,g000015_c1,15,,0.012042592681065714,0.4814121487991755,0.00766110747358348,100.0,0.25880717667842834,0.001,0.15,0.6231494083128581,0.2755860491897104,4.801516073241045,0.6957926067519398,80.4116665545886,0.14843323612604784,1.0055,3.5193,0.6372,0.0,0.1546,0.085331,8.6126,0.0,5.012,,,,,,200.724607,FAIL,vel error exceeded
124,s09_integrated,g000015_c2,15,,0.01,0.06039025092694315,0.007564411335498611,100.0,0.1163367704896506,0.001,0.1,0.11800833977495052,3.806031757799845,22.663030979405544,0.2947438667156897,58.546977756633815,0.0906547926619871,1.1756,4.5501,1.5309,0.012,0.2691,0.013905,6.8342,0.0,6.066,,,,,,200.543581,FAIL,vel error exceeded
125,s09_integrated,g000015_c3,15,,0.029899456656635084,0.12190709052228946,0.003269594843131939,58.72900993666755,0.6457668121248819,0.001,0.15,0.10127356793817091,1.751796539368809,20.480216273629054,0.6107321533471425,29.928927532652516,0.3211543057473114,8.0666,17.4263,0.124,0.0,0.0,0.023626,3.5722,16.0,0.882,,,,,,201.197006,FAIL,vel error exceeded
126,s09_integrated,g000015_c4,15,,0.01883213440160057,0.3138071443154948,0.004781696582960398,100.0,0.6740300301448773,0.001,0.1,0.9350218140657909,0.9429395462801722,15.155950880759988,0.287811683138102,81.33613440499657,0.46670239325686236,8.2496,19.4767,0.0583,0.0,0.0,0.031617,12.1342,16.0,0.418,,,,,,201.265851,FAIL,vel error exceeded
127,s09_integrated,g000015_c5,15,,0.01,0.0883824711055968,0.005753798114921269,70.62531062401155,0.1351723030169324,0.001,0.1,0.07984321660789558,0.5805190148583134,21.9657305058937,0.603333459314292,44.74362434136648,0.05062516798818022,1.2129,5.3119,1.3966,0.0,0.2495,0.016916,5.1247,0.0,6.05,,,,,,200.536943,FAIL,vel error exceeded
128,s09_integrated,g000015_c6,15,,0.01,0.266703189232754,0.011018256374623349,100.0,0.3215172344302575,0.00272541983579051,0.1,0.19525939395144343,2.488517209166644,11.713905607333414,0.45339088980317044,168.171571281842,0.3504736289940537,1.113,2.6856,0.5084,0.0,0.1278,0.033431,19.7594,0.0,5.01,,,,,,200.494861,FAIL,vel error exceeded
129,s09_integrated,g000015_c7,15,,0.013456723345482858,0.4124132972923906,0.004774440992112689,100.0,0.26149491198868907,0.001,0.1,0.16614600914622984,2.5428198305755503,30.1009249655982,0.950526220342756,225.93177448350608,0.11100687698851008,2.269,5.6958,0.0071,0.0,0.0,0.01977,57.7968,16.0,0.052,,,,,,200.462243,FAIL,vel error exceeded
130,s09_integrated,g000016_c0,16,,0.010737658941719965,0.25909303349485036,0.00925678870173449,100.0,0.2622768110269765,0.0014006525414647672,0.11981537026876066,0.5819494727592123,2.1228411074310025,42.0297325920192,1.4974643684329594,166.90246958697512,0.26945285964379745,1.2636,3.5735,0.0084,0.0,0.0,0.018492,37.2982,16.0,0.066,,,,,,200.327368,FAIL,vel error exceeded
131,s09_integrated,g000016_c1,16,,0.01,0.4098839884274316,0.009245098611600076,75.25544060196147,0.18133647360771837,0.001,0.13546303396821457,0.5776631699053132,1.3047556424775568,54.411531244580964,0.9043456624376213,69.04601894532782,0.09195429922520218,1.0324,5.1638,0.1728,0.0,0.1502,0.00864,10.6239,0.322,1.706,,,,,,200.468749,FAIL,vel error exceeded
132,s09_integrated,g000016_c2,16,,0.014898016928654277,0.1181101472048142,0.004924182554252624,69.3412812623619,0.4953901099572822,0.0034197610377428877,0.1,0.36447603752386104,1.4930699950236503,26.06968288729612,0.49479195432608003,105.38587774249967,0.5269572683731851,1.4014,4.361,0.3535,0.0,0.0947,0.015434,15.9851,0.0,5.016,,,,,,200.4072,FAIL,vel error exceeded
133,s09_integrated,g000016_c3,16,,0.020206469980079286,0.18092665217948686,0.008745364299130778,61.0610805679536,0.14778455072203794,0.00172403457568607,0.1,0.1121192009785476,1.4919852213031841,16.119519545767904,0.5243196677978571,311.5678132597259,0.19948488793225796,0.9232,3.1897,0.0061,0.0,0.0,0.029423,88.5157,16.0,0.064,,,,,,200.334392,FAIL,vel error exceeded
134,s09_integrated,g000016_c4,16,,0.014621149853060539,0.19219045222823844,0.008049350512639868,91.03072025407789,0.2503977970056949,0.001,0.1,0.27362993563792626,0.698542885639992,15.950766600817804,0.4358654883429683,190.43575940038534,0.10891826035888795,1.37,4.4141,0.0077,0.0,0.0,0.033312,38.1828,16.0,0.092,,,,,,200.378148,FAIL,vel error exceeded
135,s09_integrated,g000016_c5,16,,0.01,0.13928095573982338,0.008552902464672154,100.0,0.31431987799559524,0.0012058057206150335,0.1,0.25794390099072073,0.6880101068961343,13.014865853085546,0.8936406635950837,86.4034269310506,0.19922392083332788,1.1186,2.9397,0.5257,0.0,0.1323,0.036808,9.9046,0.0,5.012,,,,,,200.492149,FAIL,vel error exceeded
136,s09_integrated,g000016_c6,16,,0.014546219909721332,0.2502437180132213,0.011397300585800095,80.49039138679235,0.25458486943932673,0.0010051085500250479,0.1,0.39024435132033114,0.5899453998847848,23.152821120700885,0.724836711777038,81.31866767775475,0.2832907622187519,1.149,3.7123,0.6203,0.0,0.1572,0.019144,10.331,0.0,5.014,,,,,,200.441929,FAIL,vel error exceeded
137,s09_integrated,g000016_c7,16,,0.011406822923992126,0.0908242574339826,0.006799838727765961,62.662086398161975,0.1166496173393181,0.001,0.113443642309039,0.23375883692290278,0.5325790605159427,25.60740206960074,1.4712321363266465,119.45012236336471,0.062030955735459616,1.1196,6.3482,0.9018,0.0,0.2948,0.026647,20.5739,0.412,4.05,,,,,,200.855715,FAIL,vel error exceeded
138,s09_integrated,g000017_c0,17,,0.012415315845131596,0.195186642629367,0.009487482746410772,100.0,0.28937676019890146,0.001,0.1,0.36534170316651216,0.5206048084732663,11.336783613982123,0.4537488660630172,135.0736844708357,0.13274340462836176,1.1024,3.1021,0.5642,0.0,0.1415,0.03449,15.7909,0.0,5.012,,,,,,200.528156,FAIL,vel error exceeded
139,s09_integrated,g000017_c1,17,,0.01,0.16425135012261555,0.00641607332697447,100.0,0.47647050763719256,0.001,0.1,0.14278813695083956,0.7703781700459231,26.952679235115916,1.1034965103162573,45.79776154321152,0.13332858174741719,1.2117,2.9247,0.3653,0.0,0.0944,0.020059,5.345,0.0,5.012,,,,,,200.382305,FAIL,vel error exceeded
140,s09_integrated,g000017_c2,17,,0.014654297261665514,0.13683192366036778,0.005945119107291283,100.0,0.19777350601658136,0.001,0.11354404258938415,0.16230895091707565,0.970782231457421,52.286133863345576,1.1300983041537178,128.6544148666108,0.10628910444120178,1.4684,3.9984,0.007,0.0,0.0,0.016373,25.5587,16.0,0.056,,,,,,200.33194,FAIL,vel error exceeded
141,s09_integrated,g000017_c3,17,,0.01,0.17470006725039855,0.002850099457477367,100.0,0.12407919114118873,0.001,0.1,0.39558855800727016,1.222954735911443,12.749815637927226,0.6473769822694215,98.11190629515451,0.1717722403656556,1.1307,5.1048,1.521,0.004,0.2665,0.029851,11.4111,0.0,6.062,,,,,,200.602651,FAIL,vel error exceeded
142,s09_integrated,g000017_c4,17,,0.01563313103296724,0.22579831873496503,0.0029013419910515234,100.0,0.2140928160819252,0.001,0.1,0.30514980572129363,1.658182002220217,12.269029002785164,1.0120992663820838,272.0154793590777,0.2975561102274652,0.5745,4.4833,0.1937,0.0,0.1368,0.04097,33.1826,0.0,2.038,,,,,,200.546021,FAIL,vel error exceeded
143,s09_integrated,g000017_c5,17,,0.012632992983406905,0.1543409975662093,0.011900597811109491,83.89490612191355,0.13905256344298994,0.001,0.15,0.3307852021372354,0.7375199599441674,14.499800966294996,0.6270446515823586,128.6207783019636,0.13025512677074766,1.2272,5.4475,1.3754,0.036,0.2406,0.026923,15.9898,0.0,6.086,,,,,,200.638161,FAIL,vel error exceeded
144,s09_integrated,g000017_c6,17,,0.010030925411000462,0.14400417716640304,0.006909652149170565,79.17590531061701,0.15856657081444564,0.001,0.15,0.24184365572263058,1.2411416446024637,39.990631612300504,0.49255771370199064,103.55486178331542,0.12163034382775713,1.5912,5.1863,0.0202,0.0,0.0,0.015995,21.6423,16.0,0.178,,,,,,200.330843,FAIL,vel error exceeded
145,s09_integrated,g000017_c7,17,,0.01,0.1342303399240692,0.0033204319257681488,72.5025088304033,0.12431551295914316,0.001,0.15,0.22971390331756594,1.2199728215500079,13.780202190371911,0.24643751020131863,110.50660845086746,0.2126272481462729,1.169,4.892,1.5078,0.018,0.2634,0.022669,13.1199,0.0,6.074,,,,,,200.576565,FAIL,vel error exceeded
146,s09_integrated,g000018_c0,18,,0.010371300357314166,0.10352091382817079,0.0034218078374077146,71.70267930685195,0.5605017072893891,0.001,0.139861710674073,0.21542769407493012,1.9402526405126108,9.529721510604245,0.44918815896650194,69.78345216636606,0.13178575238730075,2.3298,10.7149,0.358,0.0,0.1051,0.03843,7.699,0.126,5.006,,,,,,200.627533,FAIL,vel error exceeded
147,s09_integrated,g000018_c1,18,,0.01,0.21103651028475848,0.006521218557118185,88.60295558916656,0.23233427178686775,0.0012883698662001278,0.15,0.2084130503363941,1.6086006213984514,18.467957854229418,0.48393211787914986,77.79814254195043,0.18593170995764036,1.1283,4.2084,0.6816,0.0,0.172,0.020615,9.0906,0.0,5.016,,,,,,200.461193,FAIL,vel error exceeded
148,s09_integrated,g000018_c2,18,,0.01,0.25200721333510373,0.0067008147210663735,100.0,0.549637878498316,0.001,0.15,0.24351585114065905,2.2005621121048904,20.32878397862657,0.6759315666455632,113.61122790221759,0.158915416531409,2.153,8.3507,0.3533,0.0,0.1018,0.021788,14.3285,0.092,5.012,,,,,,200.581205,FAIL,vel error exceeded
149,s09_integrated,g000018_c3,18,,0.01,0.15766383835209583,0.0038629624360301254,58.05495435090867,0.23510286812931788,0.001,0.15,0.4545018315882501,1.713232288284749,18.852058132518888,0.863768244618195,73.3496013410086,0.37893976160543624,1.1259,3.8619,0.6783,0.0,0.1709,0.025075,9.2993,0.0,5.014,,,,,,200.470137,FAIL,vel error exceeded
150,s09_integrated,g000018_c4,18,,0.010240745317362628,0.21618587579481321,0.006404858243367841,100.0,0.26577814590283816,0.0011706004280291997,0.1410802932389578,0.27834491967138475,1.436233333672399,14.316256537356322,0.7483580580512207,174.00195874931535,0.1074681330513483,1.5812,4.8264,0.0184,0.0,0.0,0.045584,32.4707,16.0,0.242,,,,,,200.462241,FAIL,vel error exceeded
151,s09_integrated,g000018_c5,18,,0.01,0.22452327548886383,0.00549551447156916,100.0,0.14545651938744836,0.0010794887300176338,0.1,0.348788031905995,0.8739612514535561,19.18470231671449,0.7874068032938141,75.61508849772703,0.1496589309285541,1.1086,5.3865,0.9938,0.0,0.2486,0.023679,8.5032,0.0,5.024,,,,,,200.551061,FAIL,vel error exceeded
152,s09_integrated,g000018_c6,18,,0.013082890817560845,0.22656004032328825,0.010648149715168463,65.00449311267548,0.4876542863129455,0.001,0.1214147098979218,0.5902864567743626,1.7909773657714638,31.14057205359651,0.9908230472275213,82.84259075476318,0.18997561539423674,1.2454,3.0688,0.3526,0.0,0.0917,0.016798,10.6866,0.074,5.012,,,,,,200.3983,FAIL,vel error exceeded
153,s09_integrated,g000018_c7,18,,0.012248488931456735,0.1932711269538835,0.005284663653262914,65.30552364273015,0.4656428400105195,0.0010318127712405983,0.1,0.30372839840720645,1.2539477726124943,24.013891213591165,0.6483734973341194,128.85367912776377,0.12221343159671294,2.5798,7.0209,0.0271,0.0,0.0,0.02572,19.6744,16.0,0.394,,,,,,200.494448,FAIL,vel error exceeded
154,s09_integrated,g000019_c0,19,,0.01018577794229806,0.16360757494312791,0.007998142330926297,85.28081225108889,0.27603954500355443,0.0012769117556250369,0.1,0.21730075457425221,0.6514730842238073,20.466361399774755,0.6033866803889315,127.8128863965221,0.25405504221277414,1.1376,3.2826,0.586,0.0,0.1479,0.020982,15.845,0.0,5.012,,,,,,200.462602,FAIL,vel error exceeded
155,s09_integrated,g000019_c1,19,,0.01,0.17970932580761806,0.004054418117885408,100.0,0.1317588318009519,0.0013026208463473468,0.1,0.41478334453452503,1.2090418683759228,19.177561190868364,0.9570619031797318,142.27774387653497,0.1213020638258676,0.9307,4.752,0.0204,0.0,0.0,0.037461,25.3648,16.0,0.468,,,,,,200.334284,FAIL,vel error exceeded
156,s09_integrated,g000019_c2,19,,0.01,0.23607851720917392,0.0036819591805410945,100.0,0.3225493254748504,0.0010761338328411736,0.11687211124172607,0.16191882735220914,1.1477774502866644,22.050265536764485,0.34387602671412915,116.7418036932756,0.1847677829299777,1.1682,3.6528,0.5226,0.0,0.133,0.017456,15.6493,0.0,5.014,,,,,,200.462239,FAIL,vel error exceeded
157,s09_integrated,g000019_c3,19,,0.01,0.31422318733402393,0.0031925679934709963,94.90130643575752,0.4123956183732285,0.0013308699955812005,0.10625830641312811,0.3060647427378581,0.7925136637182005,15.373919042425081,0.5686388868657951,120.34460670114773,0.2134326729646587,1.1839,3.5649,0.4192,0.0,0.1075,0.026787,14.3954,0.0,5.016,,,,,,200.452445,FAIL,vel error exceeded
158,s09_integrated,g000019_c4,19,,0.01,0.16054595276657216,0.008052658108231005,100.0,0.19013851310833946,0.001,0.15,0.18517431600387063,0.7274322412707689,20.565786006849272,0.4129494883089474,177.43350520872312,0.11795297147090834,1.1119,2.9899,0.0118,0.0,0.0,0.032904,49.8692,16.0,0.12,,,,,,200.357039,FAIL,vel error exceeded
159,s09_integrated,g000019_c5,19,,0.01860146355333106,0.17509448699119726,0.0061012025885602795,94.24051141337715,0.3016693412560337,0.001,0.1,0.4019188352772584,1.2094278737465263,15.872456957924703,0.6737593360512802,89.16213832938698,0.18204187214860384,1.1349,3.3434,0.549,0.0,0.1388,0.02686,10.4093,0.0,5.014,,,,,,200.460809,FAIL,vel error exceeded
160,s09_integrated,g000019_c6,19,,0.010307324438061191,0.24456481978026903,0.004428949125120649,100.0,0.3241397709112688,0.001,0.1,0.383499403415402,1.7046761796585679,25.95574184111296,0.6098085095039626,120.58409732331539,0.13586779013769856,1.213,5.7915,0.1249,0.0,0.1095,0.015348,16.1339,0.776,1.58,,,,,,200.442787,FAIL,vel error exceeded
161,s09_integrated,g000019_c7,19,,0.01,0.18100981578633987,0.008454942408651626,100.0,0.2041874310642773,0.0012081110797276097,0.1,0.3314177012133939,0.9065265866500177,37.320909941224265,0.7453057703303765,140.10101857329013,0.0708398962578437,1.5598,3.895,0.0165,0.0,0.0,0.02245,41.3501,16.0,0.124,,,,,,200.376782,FAIL,vel error exceeded
162,s09_integrated,g000020_c0,20,,0.01,0.23837126551685725,0.004443739733081017,82.5584591772088,0.17274119636308027,0.001,0.11381301581231164,0.3757536515688437,1.322179379566467,40.86818647968274,0.5322724586261468,123.04392435381722,0.1510093040521475,0.8675,3.5659,0.0073,0.0,0.0,0.018343,22.7502,16.0,0.096,,,,,,200.246363,FAIL,vel error exceeded
163,s09_integrated,g000020_c1,20,,0.01,0.13228023331638347,0.007515482080777179,90.40909243483019,0.22440818366923593,0.001,0.13943223016765055,0.2470568683338422,1.5021675922421256,26.200246573821737,0.6783959963082012,135.09918769728847,0.17298698317548047,1.2064,6.6427,0.6353,0.0,0.1965,0.019152,20.1693,0.264,4.13,,,,,,200.647886,FAIL,vel error exceeded
164,s09_integrated,g000020_c2,20,,0.010670193945193264,0.1697421553223302,0.005025142886412782,93.33667374319248,0.193471011047391,0.0014157030426966654,0.1045595318286861,0.24278159953053813,1.4242944649626974,15.970642880949885,0.6404455062696177,69.32827914369375,0.125816606514163,1.1031,4.8185,0.7993,0.0,0.2002,0.025838,7.5693,0.0,5.018,,,,,,200.506247,FAIL,vel error exceeded
165,s09_integrated,g000020_c3,20,,0.01,0.1825937876685738,0.00443411785813531,100.0,0.3101085382523353,0.001,0.13923934042010536,0.28957381926997916,1.0374369933205014,27.05257506748004,0.5033360973520483,138.5431368470011,0.12367517773553457,1.664,4.7431,0.0081,0.0,0.0,0.025393,29.0042,16.0,0.09,,,,,,200.383868,FAIL,vel error exceeded
166,s09_integrated,g000020_c4,20,,0.01,0.21706002923315748,0.004826247833244151,69.19584065566403,0.30927754228989124,0.001,0.15,0.3646157303507121,1.497029144347817,17.99466365854943,0.7821078483370255,122.86349786790711,0.09589556955086917,0.6654,4.7749,0.1183,0.0,0.1037,0.024379,16.3867,0.0,1.742,,,,,,200.433806,FAIL,vel error exceeded
167,s09_integrated,g000020_c5,20,,0.01185746711698654,0.2074449698383798,0.005230577787602629,100.0,0.34133732148361884,0.0015871007279566656,0.1,0.19321489409967899,1.6738226265028175,16.167856143037145,0.6094686587479214,132.25681553711436,0.10982602386775969,1.0343,5.4442,0.0157,0.0,0.0,0.037988,20.3068,16.0,0.338,,,,,,200.345129,FAIL,vel error exceeded
168,s09_integrated,g000020_c6,20,,0.01,0.22087253529767026,0.004700856401324895,100.0,0.2504134731938341,0.001239068929535888,0.14437168115538032,0.26083626749581323,0.939522355321808,27.921774408744678,0.5463708312166157,126.86925778483445,0.1760716814665087,1.1357,5.4603,0.1295,0.0,0.1286,0.014407,18.4647,0.498,1.514,,,,,,200.473038,FAIL,vel error exceeded
169,s09_integrated,g000020_c7,20,,0.012415711000550507,0.1768298959882175,0.005325217584736084,100.0,0.21408185540519847,0.001185986173479786,0.1,0.3055826466313581,0.9548270723453767,12.149153905466932,0.7569837053412066,83.60979700412848,0.15134981319369897,1.0825,4.3228,0.7391,0.0,0.1846,0.036195,9.3753,0.0,5.016,,,,,,200.536576,FAIL,vel error exceeded
170,s09_integrated,g000021_c0,21,,0.012320117249796144,0.20500093153776264,0.00519172460268742,74.44938751425715,0.2620514477357394,0.0013994705187330184,0.11215689160708958,0.22696699590597014,1.1016479829266297,17.49485591642455,0.8475486718754002,150.186886033323,0.14980031266250363,1.1742,7.029,0.5728,0.0,0.1684,0.029491,20.7256,0.0,4.298,,,,,,200.619073,FAIL,vel error exceeded
171,s09_integrated,g000021_c1,21,,0.01,0.22844246863924075,0.006360281534670176,70.87719315744819,0.2765258392075497,0.0014233509346599064,0.1,0.2975548724131005,1.432828180116122,20.123885751003698,0.55250282035216,77.98635900614127,0.17119319617653572,1.1484,3.4078,0.5849,0.0,0.1483,0.019772,9.3887,0.0,5.012,,,,,,200.437118,FAIL,vel error exceeded
