run_id,scenario,label,gen,timestamp,Q_PITCH,Q_PITCH_RATE,Q_VEL,R,KP_V,KI_V,KFF_V,KP_YAW,KI_YAW,LEG_K_S,LEG_B_S,LEG_K_ROLL,LEG_D_ROLL,rms_pitch_deg,max_pitch_deg,wheel_travel_m,wheel_liftoff_s,vel_track_rms_ms,hip_track_rms_rad,hip_cmd_rate_rms,settle_time_s,survived_s,fitness_balance,fitness_disturbance,fitness_drive_slow,fitness_drive_med,fitness_obstacle,fitness,status,fail_reason
1,s03_vel_pi_disturbance,evo_seed,0,,,,,,0.248651,0.00113305,0.15,,,,,,,2.226,2.416,0.859,0.0,0.1541,0.007043,0.0,0.0,6.024,,,,,,200.81331,FAIL,vel error exceeded
2,s03_vel_pi_disturbance,g000000_c0,0,,,,,,0.15963836934611655,0.001,0.15,,,,,,,2.0573,2.4136,5.1549,0.0,0.215,0.007104,0.0,0.0,12.0,,,,,,1.143655,PASS,
3,s03_vel_pi_disturbance,g000000_c1,0,,,,,,2.2723444675568145,0.001,0.15,,,,,,,1.8945,4.3372,0.0171,0.0,0.0,0.004581,0.0,12.0,0.09,,,,,,201.49469,FAIL,vel error exceeded
4,s03_vel_pi_disturbance,g000000_c2,0,,,,,,0.004340850956213001,0.001,0.15,,,,,,,0.2839,0.488,0.5828,0.0,0.3815,0.007126,0.0,0.0,2.218,,,,,,201.91616,FAIL,vel error exceeded
5,s03_vel_pi_disturbance,g000000_c3,0,,,,,,0.05943686734758435,0.0032164003576240744,0.15,,,,,,,1.7109,2.2919,7.1238,0.0,0.3949,0.007123,0.0,0.0,11.866,,,,,,202.002835,FAIL,vel error exceeded
6,s03_vel_pi_disturbance,g000000_c4,0,,,,,,0.0982231333089775,0.005228083990095247,0.15,,,,,,,1.9111,2.4249,5.8562,0.0,0.2761,0.00711,0.0,0.0,12.0,,,,,,1.42372,PASS,
7,s03_vel_pi_disturbance,g000000_c5,0,,,,,,0.5122647950162098,0.001,0.1,,,,,,,2.3127,2.4127,0.4536,0.0,0.0789,0.007032,0.0,0.0,6.01,,,,,,200.430952,FAIL,vel error exceeded
8,s03_vel_pi_disturbance,g000000_c6,0,,,,,,0.4763516236197928,0.001,0.1,,,,,,,2.3068,2.4169,0.4849,0.0,0.0848,0.007033,0.0,0.0,6.012,,,,,,200.460228,FAIL,vel error exceeded
9,s03_vel_pi_disturbance,g000000_c7,0,,,,,,0.029044424065108466,0.001,0.15,,,,,,,0.7278,1.204,0.7584,0.0,0.3829,0.007118,0.0,0.0,2.692,,,,,,201.92792,FAIL,vel error exceeded
10,s03_vel_pi_disturbance,g000001_c0,1,,,,,,0.01963053869958845,0.001,0.13647392740197822,,,,,,,0.5489,0.9278,0.6795,0.0,0.3824,0.007122,0.0,0.0,2.48,,,,,,201.923687,FAIL,vel error exceeded
11,s03_vel_pi_disturbance,g000001_c1,1,,,,,,0.2631987029248513,0.001,0.15,,,,,,,2.2353,2.4112,0.8195,0.0,0.1465,0.007042,0.0,0.0,6.022,,,,,,200.77244,FAIL,vel error exceeded
12,s03_vel_pi_disturbance,g000001_c2,1,,,,,,0.1750169656012247,0.051753681878497534,0.15,,,,,,,2.4307,2.7612,0.6719,0.0,0.1222,0.007028,0.0,0.0,6.008,,,,,,200.635192,FAIL,vel error exceeded
13,s03_vel_pi_disturbance,g000001_c3,1,,,,,,0.10024016486388651,0.001,0.15,,,,,,,1.8843,2.3864,6.119,0.0,0.297,0.007112,0.0,0.0,12.0,,,,,,1.528878,PASS,
14,s03_vel_pi_disturbance,g000001_c4,1,,,,,,10.0,0.001,0.1,,,,,,,2.6469,5.6653,0.019,0.0,0.0,0.002758,0.0,12.0,0.092,,,,,,201.73874,FAIL,vel error exceeded
15,s03_vel_pi_disturbance,g000001_c5,1,,,,,,0.010498239437645978,0.001,0.1,,,,,,,0.387,0.6607,0.6146,0.0,0.3809,0.007124,0.0,0.0,2.308,,,,,,201.914482,FAIL,vel error exceeded
16,s03_vel_pi_disturbance,g000001_c6,1,,,,,,0.01047819486755669,0.003136744315044288,0.15,,,,,,,0.4169,0.735,0.624,0.0,0.3817,0.007124,0.0,0.0,2.33,,,,,,201.91894,FAIL,vel error exceeded
17,s03_vel_pi_disturbance,g000001_c7,1,,,,,,0.07516685404887756,0.001,0.15,,,,,,,1.7785,2.3325,6.8409,0.0,0.3596,0.007119,0.0,0.0,12.0,,,,,,1.83203,PASS,
18,s03_vel_pi_disturbance,g000002_c0,2,,,,,,0.14440061184186756,0.0011680273941955962,0.15,,,,,,,2.0206,2.4111,5.3313,0.0,0.2299,0.007105,0.0,0.0,12.0,,,,,,1.211607,PASS,
19,s03_vel_pi_disturbance,g000002_c1,2,,,,,,10.0,0.001,0.15,,,,,,,2.6474,5.6677,0.019,0.0,0.0,0.002757,0.0,12.0,0.092,,,,,,201.740225,FAIL,vel error exceeded
20,s03_vel_pi_disturbance,g000002_c2,2,,,,,,2.6485461996304087,0.001,0.15,,,,,,,2.5244,5.6756,0.0188,0.0,0.0,0.003061,0.0,12.0,0.102,,,,,,201.653595,FAIL,vel error exceeded
21,s03_vel_pi_disturbance,g000002_c3,2,,,,,,0.001,0.003000102546480168,0.15,,,,,,,0.2552,0.4613,0.5723,0.0,0.3818,0.007127,0.0,0.0,2.188,,,,,,201.91757,FAIL,vel error exceeded
22,s03_vel_pi_disturbance,g000002_c4,2,,,,,,0.1847648087014424,0.001,0.1,,,,,,,2.1131,2.4148,4.9039,0.0,0.1942,0.007102,0.0,0.0,12.0,,,,,,1.050878,PASS,
23,s03_vel_pi_disturbance,g000002_c5,2,,,,,,3.1453842314116494,0.0015001958164466364,0.1,,,,,,,2.7035,5.9457,0.0198,0.0,0.0,0.002972,0.0,12.0,0.1,,,,,,201.726685,FAIL,vel error exceeded
24,s03_vel_pi_disturbance,g000002_c6,2,,,,,,0.2769317639873161,0.0023485149798650605,0.15,,,,,,,2.2486,2.4178,0.7762,0.0,0.1385,0.00704,0.0,0.0,6.022,,,,,,200.732795,FAIL,vel error exceeded
25,s03_vel_pi_disturbance,g000002_c7,2,,,,,,0.11591614322058831,0.005274621989636887,0.15,,,,,,,1.9685,2.4589,5.5197,0.0,0.2477,0.007107,0.0,0.0,12.0,,,,,,1.288898,PASS,
26,s03_vel_pi_disturbance,g000003_c0,3,,,,,,0.05684804684516673,0.001,0.13289773167704053,,,,,,,1.4391,2.0677,1.4331,0.0,0.402,0.007103,0.0,0.0,4.328,,,,,,202.024968,FAIL,vel error exceeded
27,s03_vel_pi_disturbance,g000003_c1,3,,,,,,0.19876472249239893,0.001,0.15,,,,,,,2.1812,2.415,1.0342,0.0,0.1873,0.007048,0.0,0.0,6.028,,,,,,200.98514,FAIL,vel error exceeded
28,s03_vel_pi_disturbance,g000003_c2,3,,,,,,0.17901207417097934,0.001,0.15,,,,,,,2.1009,2.413,4.9567,0.0,0.1985,0.007102,0.0,0.0,12.0,,,,,,1.069802,PASS,
29,s03_vel_pi_disturbance,g000003_c3,3,,,,,,0.12263372504840088,0.001,0.15,,,,,,,1.9587,2.4019,5.6695,0.0,0.2585,0.007108,0.0,0.0,12.0,,,,,,1.345398,PASS,
30,s03_vel_pi_disturbance,g000003_c4,3,,,,,,0.09763297437923911,0.001,0.15,,,,,,,1.8747,2.3805,6.1811,0.0,0.3023,0.007113,0.0,0.0,12.0,,,,,,1.554315,PASS,
31,s03_vel_pi_disturbance,g000003_c5,3,,,,,,1.8066949159446835,0.001,0.1237335324730664,,,,,,,1.9592,4.4523,0.0175,0.0,0.0,0.004588,0.0,12.0,0.09,,,,,,201.52081,FAIL,vel error exceeded
32,s03_vel_pi_disturbance,g000003_c6,3,,,,,,0.0728930319229272,0.001,0.15,,,,,,,1.7672,2.3274,6.924,0.0,0.3669,0.00712,0.0,0.0,12.0,,,,,,1.867752,PASS,
33,s03_vel_pi_disturbance,g000003_c7,3,,,,,,0.005342363869700374,0.001,0.15,,,,,,,0.2996,0.5202,0.5868,0.0,0.3813,0.007126,0.0,0.0,2.23,,,,,,201.91536,FAIL,vel error exceeded
34,s03_vel_pi_disturbance,g000004_c0,4,,,,,,0.3063253114315105,0.001,0.1,,,,,,,2.2584,2.4112,0.7191,0.0,0.1278,0.007039,0.0,0.0,6.02,,,,,,200.67711,FAIL,vel error exceeded
35,s03_vel_pi_disturbance,g000004_c1,4,,,,,,9.522870439861926,0.001,0.15,,,,,,,2.6376,5.6503,0.019,0.0,0.0,0.002759,0.0,12.0,0.092,,,,,,201.73575,FAIL,vel error exceeded
36,s03_vel_pi_disturbance,g000004_c2,4,,,,,,0.14588297828851401,0.0010031618735310594,0.1053601704784085,,,,,,,2.0232,2.4134,5.3207,0.0,0.2289,0.007105,0.0,0.0,12.0,,,,,,1.207288,PASS,
37,s03_vel_pi_disturbance,g000004_c3,4,,,,,,0.03772629223867554,0.001,0.1,,,,,,,0.9131,1.4684,0.8688,0.0,0.3858,0.007114,0.0,0.0,2.974,,,,,,201.94352,FAIL,vel error exceeded
38,s03_vel_pi_disturbance,g000004_c4,4,,,,,,1.377737836823137,0.001,0.15,,,,,,,1.8912,4.3289,0.0171,0.0,0.0,0.004579,0.0,12.0,0.09,,,,,,201.490522,FAIL,vel error exceeded
39,s03_vel_pi_disturbance,g000004_c5,4,,,,,,0.0054631423113940475,0.001,0.1,,,,,,,0.3029,0.5243,0.5874,0.0,0.3812,0.007126,0.0,0.0,2.232,,,,,,201.914717,FAIL,vel error exceeded
40,s03_vel_pi_disturbance,g000004_c6,4,,,,,,0.46982061596770364,0.0011457300377775339,0.15,,,,,,,2.3059,2.4126,0.4906,0.0,0.0858,0.007033,0.0,0.0,6.012,,,,,,200.464902,FAIL,vel error exceeded
41,s03_vel_pi_disturbance,g000004_c7,4,,,,,,7.935934737552758,0.001,0.1,,,,,,,2.7101,5.8208,0.0195,0.0,0.0,0.002803,0.0,12.0,0.094,,,,,,201.754523,FAIL,vel error exceeded
42,s03_vel_pi_disturbance,g000005_c0,5,,,,,,0.9758570092988741,0.00861093951806637,0.1,,,,,,,1.909,4.4689,0.0177,0.0,0.0,0.004708,0.0,12.0,0.096,,,,,,201.472913,FAIL,vel error exceeded
43,s03_vel_pi_disturbance,g000005_c1,5,,,,,,1.1625668257361694,0.001,0.1,,,,,,,1.9157,4.41,0.0174,0.0,0.0,0.004626,0.0,12.0,0.092,,,,,,201.492835,FAIL,vel error exceeded
44,s03_vel_pi_disturbance,g000005_c2,5,,,,,,0.12051550340507478,0.001201046712188535,0.15,,,,,,,1.9536,2.3998,5.6932,0.0,0.2605,0.007108,0.0,0.0,12.0,,,,,,1.354593,PASS,
45,s03_vel_pi_disturbance,g000005_c3,5,,,,,,0.045673411931208024,0.001,0.1,,,,,,,1.1059,1.7179,1.02,0.0,0.3902,0.00711,0.0,0.0,3.35,,,,,,201.966138,FAIL,vel error exceeded
46,s03_vel_pi_disturbance,g000005_c4,5,,,,,,0.0034214298053537725,0.01807161381830635,0.1,,,,,,,0.5323,1.0524,0.6631,0.0,0.3869,0.007122,0.0,0.0,2.414,,,,,,201.94783,FAIL,vel error exceeded
47,s03_vel_pi_disturbance,g000005_c5,5,,,,,,0.09997474951494013,0.012856914340053862,0.1,,,,,,,1.9814,2.5958,5.2902,0.0,0.234,0.007105,0.0,0.0,12.0,,,,,,1.21446,PASS,
48,s03_vel_pi_disturbance,g000005_c6,5,,,,,,0.0917292667972087,0.008088715003581593,0.1,,,,,,,1.9127,2.467,5.7863,0.0,0.2717,0.007109,0.0,0.0,12.0,,,,,,1.399403,PASS,
49,s03_vel_pi_disturbance,g000005_c7,5,,,,,,0.11369496737372825,0.0018333980677789404,0.1,,,,,,,1.9369,2.4026,5.7787,0.0,0.2681,0.007109,0.0,0.0,12.0,,,,,,1.38982,PASS,
50,s03_vel_pi_disturbance,g000006_c0,6,,,,,,1.4761511198397046,0.001,0.15,,,,,,,1.9407,4.4189,0.0174,0.0,0.0,0.004585,0.0,12.0,0.09,,,,,,201.512635,FAIL,vel error exceeded
51,s03_vel_pi_disturbance,g000006_c1,6,,,,,,0.0291889767107422,0.013941377875074566,0.15,,,,,,,1.1477,1.9717,1.0438,0.0,0.4007,0.00711,0.0,0.0,3.342,,,,,,202.019805,FAIL,vel error exceeded
52,s03_vel_pi_disturbance,g000006_c2,6,,,,,,0.05817690934453512,0.001,0.15,,,,,,,1.493,2.1128,1.5366,0.0,0.4055,0.007102,0.0,0.0,4.558,,,,,,202.04217,FAIL,vel error exceeded
53,s03_vel_pi_disturbance,g000006_c3,6,,,,,,1.5384967125647724,0.001,0.15,,,,,,,1.9876,4.5422,0.0179,0.0,0.0,0.004637,0.0,12.0,0.092,,,,,,201.525795,FAIL,vel error exceeded
54,s03_vel_pi_disturbance,g000006_c4,6,,,,,,0.10046491412538329,0.001,0.15,,,,,,,1.885,2.3888,6.113,0.0,0.2965,0.007112,0.0,0.0,12.0,,,,,,1.526467,PASS,
55,s03_vel_pi_disturbance,g000006_c5,6,,,,,,0.07728897514568693,0.001,0.1,,,,,,,1.7885,2.3395,6.7677,0.0,0.3532,0.007118,0.0,0.0,12.0,,,,,,1.8009,PASS,
56,s03_vel_pi_disturbance,g000006_c6,6,,,,,,0.018118587731961844,0.001,0.15,,,,,,,0.5198,0.8835,0.6636,0.0,0.3814,0.007122,0.0,0.0,2.44,,,,,,201.918428,FAIL,vel error exceeded
57,s03_vel_pi_disturbance,g000006_c7,6,,,,,,0.20231022260094975,0.0017668497872766942,0.1,,,,,,,2.1902,2.4211,1.0119,0.0,0.1831,0.007047,0.0,0.0,6.028,,,,,,200.964525,FAIL,vel error exceeded
58,s03_vel_pi_disturbance,g000007_c0,7,,,,,,1.1242024706512823,0.32536498170582157,0.1,,,,,,,1.9503,4.4721,0.0176,0.0,0.0,0.004629,0.0,12.0,0.092,,,,,,201.507078,FAIL,vel error exceeded
59,s03_vel_pi_disturbance,g000007_c1,7,,,,,,0.6169173556982294,0.0026563615477088616,0.15,,,,,,,2.3266,2.4378,0.3794,0.0,0.0664,0.00703,0.0,12.0,6.01,,,,,,200.37672,FAIL,vel error exceeded
60,s03_vel_pi_disturbance,g000007_c2,7,,,,,,0.1655466643534127,0.0015855798611612859,0.15,,,,,,,2.074,2.4214,5.0631,0.0,0.2076,0.007103,0.0,0.0,12.0,,,,,,1.109357,PASS,
61,s03_vel_pi_disturbance,g000007_c3,7,,,,,,0.8023730033116184,0.001,0.1,,,,,,,1.8342,4.4182,0.0177,0.0,0.0,0.004807,0.0,12.0,0.102,,,,,,201.406958,FAIL,vel error exceeded
62,s03_vel_pi_disturbance,g000007_c4,7,,,,,,0.003000252660346586,0.001,0.1,,,,,,,0.2627,0.4541,0.5777,0.0,0.382,0.007127,0.0,0.0,2.202,,,,,,201.918332,FAIL,vel error exceeded
63,s03_vel_pi_disturbance,g000007_c5,7,,,,,,10.0,0.003988485071766928,0.1,,,,,,,2.6466,5.6671,0.019,0.0,0.0,0.002757,0.0,12.0,0.092,,,,,,201.739753,FAIL,vel error exceeded
64,s03_vel_pi_disturbance,g000007_c6,7,,,,,,0.13154410968916752,0.001170679718396749,0.1,,,,,,,1.9861,2.4055,5.5143,0.0,0.2453,0.007107,0.0,0.0,12.0,,,,,,1.283203,PASS,
65,s03_vel_pi_disturbance,g000007_c7,7,,,,,,1.2279013307456867,0.013888217001501188,0.1,,,,,,,1.8956,4.3732,0.0173,0.0,0.0,0.004623,0.0,12.0,0.092,,,,,,201.484075,FAIL,vel error exceeded
66,s03_vel_pi_disturbance,g000008_c0,8,,,,,,0.39020889011233406,0.0012163895079449055,0.1,,,,,,,2.2886,2.4108,0.5799,0.0,0.1023,0.007035,0.0,0.0,6.016,,,,,,200.547562,FAIL,vel error exceeded
67,s03_vel_pi_disturbance,g000008_c1,8,,,,,,1.4722869756094992,0.001,0.15,,,,,,,1.9718,4.4759,0.0176,0.0,0.0,0.004589,0.0,12.0,0.09,,,,,,201.526653,FAIL,vel error exceeded
68,s03_vel_pi_disturbance,g000008_c2,8,,,,,,0.028697399915873032,0.001,0.1,,,,,,,0.7221,1.1952,0.757,0.0,0.3833,0.007118,0.0,0.0,2.686,,,,,,201.929933,FAIL,vel error exceeded
69,s03_vel_pi_disturbance,g000008_c3,8,,,,,,0.01817560002612986,0.001,0.1,,,,,,,0.5211,0.8877,0.6656,0.0,0.3818,0.007122,0.0,0.0,2.444,,,,,,201.920525,FAIL,vel error exceeded
70,s03_vel_pi_disturbance,g000008_c4,8,,,,,,2.23109507532817,0.001,0.1,,,,,,,1.9481,4.4737,0.0177,0.0,0.0,0.004634,0.0,12.0,0.092,,,,,,201.51132,FAIL,vel error exceeded
71,s03_vel_pi_disturbance,g000008_c5,8,,,,,,0.38441583603802704,0.001,0.1,,,,,,,2.2864,2.4107,0.5889,0.0,0.1038,0.007036,0.0,0.0,6.016,,,,,,200.554782,FAIL,vel error exceeded
72,s03_vel_pi_disturbance,g000008_c6,8,,,,,,0.009640533514100543,0.001,0.1,,,,,,,0.371,0.6412,0.6111,0.0,0.3815,0.007125,0.0,0.0,2.296,,,,,,201.91751,FAIL,vel error exceeded
73,s03_vel_pi_disturbance,g000008_c7,8,,,,,,0.011455026222654001,0.19429815193298344,0.1,,,,,,,2.7365,5.0592,2.0812,0.0,0.2235,0.007148,0.0,0.0,8.012,,,,,,201.17616,FAIL,vel error exceeded
74,s03_vel_pi_disturbance,g000009_c0,9,,,,,,0.1197122120807651,0.0025320720757096805,0.15,,,,,,,1.9605,2.4106,5.6258,0.0,0.2554,0.007108,0.0,0.0,12.0,,,,,,1.328888,PASS,
75,s03_vel_pi_disturbance,g000009_c1,9,,,,,,0.9032786090814453,0.001,0.15,,,,,,,1.9403,4.5581,0.0181,0.0,0.0,0.00475,0.0,12.0,0.098,,,,,,201.475405,FAIL,vel error exceeded
76,s03_vel_pi_disturbance,g000009_c2,9,,,,,,0.6001087573151124,0.001,0.1,,,,,,,2.3233,2.4286,0.3922,0.0,0.0686,0.00703,0.0,12.0,6.01,,,,,,200.38497,FAIL,vel error exceeded
77,s03_vel_pi_disturbance,g000009_c3,9,,,,,,10.0,0.0023653242999434657,0.1,,,,,,,2.6467,5.6679,0.019,0.0,0.0,0.002757,0.0,12.0,0.092,,,,,,201.74034,FAIL,vel error exceeded
78,s03_vel_pi_disturbance,g000009_c4,9,,,,,,1.3153786003020818,0.009176189872221529,0.15,,,,,,,1.9128,4.368,0.0172,0.0,0.0,0.004582,0.0,12.0,0.09,,,,,,201.500155,FAIL,vel error exceeded
79,s03_vel_pi_disturbance,g000009_c5,9,,,,,,0.35787272334929865,0.0017429260172767778,0.15,,,,,,,2.2803,2.4158,0.6242,0.0,0.1105,0.007036,0.0,0.0,6.018,,,,,,200.589548,FAIL,vel error exceeded
80,s03_vel_pi_disturbance,g000009_c6,9,,,,,,0.058488105567986885,0.001,0.1,,,,,,,1.5039,2.1199,1.5559,0.0,0.4058,0.007101,0.0,0.0,4.604,,,,,,202.04368,FAIL,vel error exceeded
81,s03_vel_pi_disturbance,g000009_c7,9,,,,,,0.042129859670080344,0.001,0.1,,,,,,,1.0147,1.5978,0.9398,0.0,0.3874,0.007112,0.0,0.0,3.154,,,,,,201.951887,FAIL,vel error exceeded
82,s03_vel_pi_disturbance,g000010_c0,10,,,,,,0.31864473118573416,0.00250488790408185,0.15,,,,,,,2.2685,2.4177,0.6871,0.0,0.1221,0.007038,0.0,0.0,6.02,,,,,,200.648922,FAIL,vel error exceeded
83,s03_vel_pi_disturbance,g000010_c1,10,,,,,,0.18864571520410683,0.003832854149391166,0.1,,,,,,,2.1906,2.4423,1.0481,0.0,0.1898,0.007047,0.0,0.0,6.028,,,,,,200.99743,FAIL,vel error exceeded
84,s03_vel_pi_disturbance,g000010_c2,10,,,,,,0.8064856963508,0.001,0.15,,,,,,,1.8312,4.4144,0.0177,0.0,0.0,0.004808,0.0,12.0,0.102,,,,,,201.407755,FAIL,vel error exceeded
85,s03_vel_pi_disturbance,g000010_c3,10,,,,,,0.03759863518215334,0.001,0.15,,,,,,,0.9075,1.4642,0.8627,0.0,0.3853,0.007114,0.0,0.0,2.96,,,,,,201.941065,FAIL,vel error exceeded
86,s03_vel_pi_disturbance,g000010_c4,10,,,,,,0.06991608538695794,0.001,0.1,,,,,,,1.7517,2.3165,7.0363,0.0,0.3767,0.007121,0.0,0.0,12.0,,,,,,1.915563,PASS,
87,s03_vel_pi_disturbance,g000010_c5,10,,,,,,0.17119059033955125,0.00953667673764091,0.1,,,,,,,2.2162,2.4986,1.0627,0.0,0.1924,0.007046,0.0,0.0,6.026,,,,,,201.00651,FAIL,vel error exceeded
88,s03_vel_pi_disturbance,g000010_c6,10,,,,,,0.5706535605651226,0.001,0.1,,,,,,,2.3202,2.4173,0.4109,0.0,0.0717,0.007031,0.0,12.0,6.01,,,,,,200.397605,FAIL,vel error exceeded
89,s03_vel_pi_disturbance,g000010_c7,10,,,,,,0.03380116863601242,0.008206088356271903,0.15,,,,,,,1.0421,1.7445,0.9612,0.0,0.3934,0.007112,0.0,0.0,3.174,,,,,,201.982495,FAIL,vel error exceeded
90,s03_vel_pi_disturbance,g000011_c0,11,,,,,,0.6435429393933273,0.001,0.1,,,,,,,2.4444,3.6434,0.6207,0.0,0.1734,0.007055,0.0,12.0,6.018,,,,,,201.604367,FAIL,vel error exceeded
91,s03_vel_pi_disturbance,g000011_c1,11,,,,,,0.016459609957799593,0.0027756194794477927,0.1,,,,,,,0.5175,0.8997,0.66,0.0,0.3814,0.007122,0.0,0.0,2.43,,,,,,201.918598,FAIL,vel error exceeded
92,s03_vel_pi_disturbance,g000011_c2,11,,,,,,0.25559656253874,0.002269114215637623,0.1,,,,,,,2.236,2.419,0.8309,0.0,0.1485,0.007042,0.0,0.0,6.022,,,,,,200.782207,FAIL,vel error exceeded
93,s03_vel_pi_disturbance,g000011_c3,11,,,,,,0.0953744031982082,0.00260481348953987,0.15,,,,,,,1.879,2.3913,6.115,0.0,0.2971,0.007112,0.0,0.0,12.0,,,,,,1.527548,PASS,
94,s03_vel_pi_disturbance,g000011_c4,11,,,,,,2.1043182289608233,0.001,0.1,,,,,,,1.916,4.4126,0.0174,0.0,0.0,0.004629,0.0,12.0,0.092,,,,,,201.49619,FAIL,vel error exceeded
95,s03_vel_pi_disturbance,g000011_c5,11,,,,,,0.05062676876119838,0.0014245866864025514,0.1,,,,,,,1.2615,1.9003,1.1816,0.0,0.3954,0.007107,0.0,0.0,3.736,,,,,,201.99223,FAIL,vel error exceeded
96,s03_vel_pi_disturbance,g000011_c6,11,,,,,,0.744332022938975,0.001,0.15,,,,,,,2.714,4.4754,0.0353,0.0,0.0,0.005171,0.0,12.0,0.222,,,,,,201.299525,FAIL,vel error exceeded
97,s03_vel_pi_disturbance,g000011_c7,11,,,,,,0.00880969442867617,0.007583027353239217,0.15,,,,,,,0.4568,0.8323,0.6398,0.0,0.3835,0.007123,0.0,0.0,2.366,,,,,,201.928693,FAIL,vel error exceeded
98,s03_vel_pi_disturbance,g000012_c0,12,,,,,,0.7191476792032777,0.015419092494003417,0.15,,,,,,,1.8437,2.9642,0.0456,0.0,0.0,0.006312,0.0,12.0,0.31,,,,,,201.138985,FAIL,vel error exceeded
99,s03_vel_pi_disturbance,g000012_c1,12,,,,,,0.208800936245957,0.001,0.1,,,,,,,2.1919,2.4157,0.9937,0.0,0.1794,0.007047,0.0,0.0,6.026,,,,,,200.94258,FAIL,vel error exceeded
100,s03_vel_pi_disturbance,g000012_c2,12,,,,,,0.06124212283989143,0.002002742232008523,0.15,,,,,,,1.7222,2.2768,2.1365,0.0,0.4206,0.007096,0.0,0.0,5.872,,,,,,202.116492,FAIL,vel error exceeded
101,s03_vel_pi_disturbance,g000012_c3,12,,,,,,0.36219745782542717,0.003173169050839477,0.1,,,,,,,2.285,2.4172,0.6116,0.0,0.1082,0.007036,0.0,0.0,6.018,,,,,,200.57806,FAIL,vel error exceeded
102,s03_vel_pi_disturbance,g000012_c4,12,,,,,,0.6607710699593524,0.0026490602009859045,0.14527236010688327,,,,,,,2.0742,4.747,0.0996,0.0,0.0,0.006812,0.0,12.0,0.802,,,,,,200.975347,FAIL,vel error exceeded
103,s03_vel_pi_disturbance,g000012_c5,12,,,,,,0.31213649953030453,0.0037788589181034908,0.1,,,,,,,2.2699,2.4223,0.6931,0.0,0.1231,0.007038,0.0,0.0,6.02,,,,,,200.653685,FAIL,vel error exceeded
104,s03_vel_pi_disturbance,g000012_c6,12,,,,,,0.0286705426062861,0.001,0.1,,,,,,,0.7221,1.1918,0.7579,0.0,0.3834,0.007118,0.0,0.0,2.688,,,,,,201.930352,FAIL,vel error exceeded
105,s03_vel_pi_disturbance,g000012_c7,12,,,,,,4.326220564622129,0.007078368282291949,0.13002355635496432,,,,,,,2.6047,5.6408,0.0189,0.0,0.0,0.002822,0.0,12.0,0.094,,,,,,201.71551,FAIL,vel error exceeded
106,s03_vel_pi_disturbance,g000013_c0,13,,,,,,0.10906684140667741,0.001,0.15,,,,,,,1.9154,2.3897,5.9249,0.0,0.2802,0.00711,0.0,0.0,12.0,,,,,,1.448395,PASS,
107,s03_vel_pi_disturbance,g000013_c1,13,,,,,,0.05521209687880811,0.001411593965575398,0.14007290782255866,,,,,,,1.4114,2.0471,1.392,0.0,0.402,0.007104,0.0,0.0,4.224,,,,,,202.024972,FAIL,vel error exceeded
108,s03_vel_pi_disturbance,g000013_c2,13,,,,,,0.1816101198252942,0.002059753395669168,0.15,,,,,,,2.1116,2.4284,4.8887,0.0,0.1934,0.007101,0.0,0.0,12.0,,,,,,1.045522,PASS,
109,s03_vel_pi_disturbance,g000013_c3,13,,,,,,0.03939921171925654,0.0037725928867826954,0.15,,,,,,,1.0392,1.6741,0.9607,0.0,0.3903,0.007112,0.0,0.0,3.192,,,,,,201.966678,FAIL,vel error exceeded
110,s03_vel_pi_disturbance,g000013_c4,13,,,,,,0.1874840363353136,0.001,0.15,,,,,,,2.1673,2.415,1.0842,0.0,0.1971,0.007049,0.0,0.0,6.032,,,,,,201.040327,FAIL,vel error exceeded
111,s03_vel_pi_disturbance,g000013_c5,13,,,,,,0.12968286751986582,0.005551524997314248,0.1,,,,,,,2.0094,2.473,5.2929,0.0,0.2288,0.007105,0.0,0.0,12.0,,,,,,1.20013,PASS,
112,s03_vel_pi_disturbance,g000013_c6,13,,,,,,0.1024533798246679,0.0011547159973558908,0.15,,,,,,,1.8935,2.3864,6.0559,0.0,0.2916,0.007112,0.0,0.0,12.0,,,,,,1.502715,PASS,
113,s03_vel_pi_disturbance,g000013_c7,13,,,,,,0.24121140196133278,0.0019109221623125176,0.14754224208323843,,,,,,,2.2247,2.4173,0.875,0.0,0.157,0.007043,0.0,0.0,6.024,,,,,,200.827615,FAIL,vel error exceeded
114,s03_vel_pi_disturbance,g000014_c0,14,,,,,,0.13974681829353006,0.03529993210124912,0.1,,,,,,,2.3889,2.7604,0.9044,0.0,0.1649,0.007034,0.0,0.0,6.012,,,,,,200.849762,FAIL,vel error exceeded
115,s03_vel_pi_disturbance,g000014_c1,14,,,,,,0.4406285417231367,0.0014272354274173188,0.15,,,,,,,2.3007,2.4142,0.5191,0.0,0.0907,0.007034,0.0,0.0,6.012,,,,,,200.48833,FAIL,vel error exceeded
116,s03_vel_pi_disturbance,g000014_c2,14,,,,,,0.09950637461542935,0.003727637569325745,0.1,,,,,,,1.9031,2.401,5.9383,0.0,0.2824,0.007111,0.0,0.0,12.0,,,,,,1.455675,PASS,
117,s03_vel_pi_disturbance,g000014_c3,14,,,,,,0.31876472392900684,0.0015516567817369803,0.15,,,,,,,2.2653,2.4147,0.6919,0.0,0.123,0.007038,0.0,0.0,6.02,,,,,,200.653353,FAIL,vel error exceeded
118,s03_vel_pi_disturbance,g000014_c4,14,,,,,,0.321651265160406,0.004170062846335226,0.15,,,,,,,2.2746,2.4218,0.6736,0.0,0.1192,0.007037,0.0,0.0,6.018,,,,,,200.632023,FAIL,vel error exceeded
119,s03_vel_pi_disturbance,g000014_c5,14,,,,,,0.36256685739935746,0.001,0.1,,,,,,,2.28,2.412,0.6203,0.0,0.1098,0.007036,0.0,0.0,6.018,,,,,,200.586208,FAIL,vel error exceeded
120,s03_vel_pi_disturbance,g000014_c6,14,,,,,,0.18681341303330953,0.00191746612543441,0.15,,,,,,,2.1738,2.4234,1.0767,0.0,0.1954,0.007048,0.0,0.0,6.03,,,,,,201.02866,FAIL,vel error exceeded
121,s03_vel_pi_disturbance,g000014_c7,14,,,,,,0.11281067169379476,0.001,0.15,,,,,,,1.9278,2.3958,5.849,0.0,0.2738,0.00711,0.0,0.0,12.0,,,,,,1.41791,PASS,
122,s03_vel_pi_disturbance,g000015_c0,15,,,,,,0.11708734119569489,0.004094156818967333,0.1,,,,,,,1.9635,2.4375,5.5726,0.0,0.2516,0.007107,0.0,0.0,12.0,,,,,,1.30882,PASS,
123,s03_vel_pi_disturbance,g000015_c1,15,,,,,,0.2995557625985372,0.0017819228488612897,0.15,,,,,,,2.2577,2.4151,0.7291,0.0,0.1296,0.007039,0.0,0.0,6.02,,,,,,200.6857,FAIL,vel error exceeded
124,s03_vel_pi_disturbance,g000015_c2,15,,,,,,0.22222231197499656,0.0028503181307126375,0.1,,,,,,,2.2154,2.4247,0.9284,0.0,0.1669,0.007044,0.0,0.0,6.024,,,,,,200.876628,FAIL,vel error exceeded
125,s03_vel_pi_disturbance,g000015_c3,15,,,,,,0.34076554086226435,0.0010536657905542187,0.15,,,,,,,2.2726,2.4105,0.6548,0.0,0.1159,0.007037,0.0,0.0,6.018,,,,,,200.616142,FAIL,vel error exceeded
126,s03_vel_pi_disturbance,g000015_c4,15,,,,,,0.6073521427459151,0.003731766699695687,0.11188860991486435,,,,,,,2.3265,2.4297,0.3833,0.0,0.067,0.00703,0.0,12.0,6.01,,,,,,200.377782,FAIL,vel error exceeded
127,s03_vel_pi_disturbance,g000015_c5,15,,,,,,0.13078716487448863,0.001,0.1225401292704951,,,,,,,1.9827,2.4055,5.5373,0.0,0.2472,0.007107,0.0,0.0,12.0,,,,,,1.292335,PASS,
128,s03_vel_pi_disturbance,g000015_c6,15,,,,,,0.47802774130064757,0.0026742247139100775,0.15,,,,,,,2.3098,2.422,0.4792,0.0,0.0838,0.007033,0.0,0.0,6.012,,,,,,200.45517,FAIL,vel error exceeded
129,s03_vel_pi_disturbance,g000015_c7,15,,,,,,0.1180198473627778,0.003182541909516204,0.15,,,,,,,1.9597,2.4242,5.6149,0.0,0.2547,0.007108,0.0,0.0,12.0,,,,,,1.324645,PASS,
130,s03_vel_pi_disturbance,g000016_c0,16,,,,,,0.2403834852074356,0.0012009619773960345,0.15,,,,,,,2.2204,2.4139,0.883,0.0,0.1585,0.007043,0.0,0.0,6.024,,,,,,200.835068,FAIL,vel error exceeded
131,s03_vel_pi_disturbance,g000016_c1,16,,,,,,0.2829996660122702,0.0019517993117198287,0.1,,,,,,,2.2507,2.4176,0.7643,0.0,0.136,0.00704,0.0,0.0,6.02,,,,,,200.717395,FAIL,vel error exceeded
132,s03_vel_pi_disturbance,g000016_c2,16,,,,,,0.28088242403544467,0.0020354446576073336,0.1,,,,,,,2.2495,2.4165,0.7687,0.0,0.1368,0.00704,0.0,0.0,6.02,,,,,,200.721425,FAIL,vel error exceeded
133,s03_vel_pi_disturbance,g000016_c3,16,,,,,,0.2761158077734895,0.0019425720174953934,0.15,,,,,,,2.2469,2.4167,0.7804,0.0,0.1393,0.00704,0.0,0.0,6.022,,,,,,200.736848,FAIL,vel error exceeded
134,s03_vel_pi_disturbance,g000016_c4,16,,,,,,0.2039304351068665,0.0020564249306333658,0.15,,,,,,,2.1936,2.4216,1.0029,0.0,0.1813,0.007046,0.0,0.0,6.028,,,,,,200.955312,FAIL,vel error exceeded
135,s03_vel_pi_disturbance,g000016_c5,16,,,,,,0.11946326480528355,0.002188644834641123,0.14575063274887856,,,,,,,1.9574,2.4081,5.6512,0.0,0.2574,0.007108,0.0,0.0,12.0,,,,,,1.33868,PASS,
136,s03_vel_pi_disturbance,g000016_c6,16,,,,,,0.4693399700707345,0.001,0.11869243099307872,,,,,,,2.3057,2.4137,0.4914,0.0,0.086,0.007033,0.0,0.0,6.012,,,,,,200.465992,FAIL,vel error exceeded
137,s03_vel_pi_disturbance,g000016_c7,16,,,,,,0.19982454577199352,0.005109740636088387,0.1,,,,,,,2.2102,2.4475,0.9893,0.0,0.1783,0.007045,0.0,0.0,6.024,,,,,,200.93345,FAIL,vel error exceeded
138,s03_vel_pi_disturbance,g000017_c0,17,,,,,,0.04715832632961711,0.0020710448389819314,0.1,,,,,,,1.1919,1.839,1.1071,0.0,0.3944,0.007109,0.0,0.0,3.55,,,,,,201.987278,FAIL,vel error exceeded
139,s03_vel_pi_disturbance,g000017_c1,17,,,,,,0.14150843821552184,0.0024270410142905956,0.15,,,,,,,2.0209,2.4232,5.3036,0.0,0.2281,0.007105,0.0,0.0,12.0,,,,,,1.20146,PASS,
140,s03_vel_pi_disturbance,g000017_c2,17,,,,,,0.24283993890048836,0.0023092962190643406,0.11505333525917283,,,,,,,2.2279,2.4224,0.8674,0.0,0.1553,0.007043,0.0,0.0,6.022,,,,,,200.81601,FAIL,vel error exceeded
141,s03_vel_pi_disturbance,g000017_c3,17,,,,,,0.1921169315232788,0.0024529522807749623,0.10006079138426204,,,,,,,2.1838,2.4274,1.0475,0.0,0.1897,0.007048,0.0,0.0,6.028,,,,,,200.997163,FAIL,vel error exceeded
142,s03_vel_pi_disturbance,g000017_c4,17,,,,,,0.11408904678347849,0.0016604153311599481,0.15,,,,,,,1.9367,2.3992,5.7806,0.0,0.2682,0.007109,0.0,0.0,12.0,,,,,,1.390443,PASS,
143,s03_vel_pi_disturbance,g000017_c5,17,,,,,,0.24662777173778333,0.003214737175497014,0.11745781676438674,,,,,,,2.2349,2.4254,0.8494,0.0,0.1519,0.007042,0.0,0.0,6.022,,,,,,200.799148,FAIL,vel error exceeded
144,s03_vel_pi_disturbance,g000017_c6,17,,,,,,0.270191697741724,0.0034556369476595066,0.15,,,,,,,2.2497,2.4245,0.7854,0.0,0.1402,0.00704,0.0,0.0,6.022,,,,,,200.74125,FAIL,vel error exceeded
145,s03_vel_pi_disturbance,g000017_c7,17,,,,,,0.29823174419245513,0.007143419447981907,0.14536851975141996,,,,,,,2.2756,2.4358,0.7025,0.0,0.1247,0.007038,0.0,0.0,6.02,,,,,,200.661335,FAIL,vel error exceeded
146,s03_vel_pi_disturbance,g000018_c0,18,,,,,,0.18419409026303524,0.0036294381087191986,0.15,,,,,,,2.1837,2.4368,1.07,0.0,0.194,0.007048,0.0,0.0,6.028,,,,,,201.018405,FAIL,vel error exceeded
147,s03_vel_pi_disturbance,g000018_c1,18,,,,,,0.1782128080010603,0.0014404495131870093,0.15,,,,,,,2.1014,2.4179,4.9459,0.0,0.1979,0.007102,0.0,0.0,12.0,,,,,,1.066505,PASS,
148,s03_vel_pi_disturbance,g000018_c2,18,,,,,,0.14526991742068532,0.0018990464805764258,0.11777561606777084,,,,,,,2.0272,2.4224,5.2824,0.0,0.2261,0.007105,0.0,0.0,12.0,,,,,,1.193013,PASS,
149,s03_vel_pi_disturbance,g000018_c3,18,,,,,,0.21832154499056025,0.004293749767706409,0.1,,,,,,,2.2204,2.4367,0.9293,0.0,0.167,0.007044,0.0,0.0,6.024,,,,,,200.877277,FAIL,vel error exceeded
150,s03_vel_pi_disturbance,g000018_c4,18,,,,,,0.1549965766797496,0.00256785228510688,0.15,,,,,,,2.0548,2.4369,5.1318,0.0,0.2138,0.007103,0.0,0.0,12.0,,,,,,1.135768,PASS,
151,s03_vel_pi_disturbance,g000018_c5,18,,,,,,0.3488939854278359,0.0011165908428150528,0.15,,,,,,,2.2758,2.4139,0.6412,0.0,0.1135,0.007037,0.0,0.0,6.018,,,,,,200.604388,FAIL,vel error exceeded
152,s03_vel_pi_disturbance,g000018_c6,18,,,,,,0.12661789071481908,0.001407297481905556,0.15,,,,,,,1.9736,2.4053,5.5789,0.0,0.2509,0.007107,0.0,0.0,12.0,,,,,,1.309165,PASS,
153,s03_vel_pi_disturbance,g000018_c7,18,,,,,,0.10500654225786783,0.0024338864648346956,0.13017218718406834,,,,,,,1.9122,2.3966,5.9109,0.0,0.2796,0.00711,0.0,0.0,12.0,,,,,,1.44387,PASS,
154,s03_vel_pi_disturbance,g000019_c0,19,,,,,,0.12750014842839477,0.0013628212312771027,0.15,,,,,,,1.9758,2.4065,5.5661,0.0,0.2498,0.007107,0.0,0.0,12.0,,,,,,1.30402,PASS,
155,s03_vel_pi_disturbance,g000019_c1,19,,,,,,0.1456881367609695,0.0017316254391727712,0.13469015673877285,,,,,,,2.0273,2.4217,5.2861,0.0,0.2263,0.007105,0.0,0.0,12.0,,,,,,1.194173,PASS,
156,s03_vel_pi_disturbance,g000019_c2,19,,,,,,0.10982258021100869,0.001813207313526774,0.15,,,,,,,1.9238,2.3999,5.8542,0.0,0.2746,0.00711,0.0,0.0,12.0,,,,,,1.420763,PASS,
157,s03_vel_pi_disturbance,g000019_c3,19,,,,,,0.165567992576619,0.002452642104395745,0.1102572868597583,,,,,,,2.0786,2.431,5.024,0.0,0.2048,0.007103,0.0,0.0,12.0,,,,,,1.09543,PASS,
158,s03_vel_pi_disturbance,g000019_c4,19,,,,,,0.13634619202218504,0.0030104840172219863,0.1,,,,,,,2.0106,2.4355,5.3419,0.0,0.2316,0.007105,0.0,0.0,12.0,,,,,,1.216805,PASS,
159,s03_vel_pi_disturbance,g000019_c5,19,,,,,,0.25651806845841363,0.0012607905814195116,0.10785117896933533,,,,,,,2.2317,2.4151,0.8356,0.0,0.1494,0.007042,0.0,0.0,6.022,,,,,,200.786898,FAIL,vel error exceeded
160,s03_vel_pi_disturbance,g000019_c6,19,,,,,,0.21914971352061544,0.0010800364376518181,0.15,,,,,,,2.2018,2.4135,0.9545,0.0,0.1721,0.007045,0.0,0.0,6.026,,,,,,200.905998,FAIL,vel error exceeded
161,s03_vel_pi_disturbance,g000019_c7,19,,,,,,0.15150228677417565,0.0029952045474913244,0.15,,,,,,,2.0492,2.4389,5.1513,0.0,0.2156,0.007104,0.0,0.0,12.0,,,,,,1.143335,PASS,
162,s03_vel_pi_disturbance,g000020_c0,20,,,,,,0.18996011589106052,0.0018104573948083337,0.11545481157035227,,,,,,,2.1767,2.4204,1.0638,0.0,0.193,0.007048,0.0,0.0,6.03,,,,,,201.01721,FAIL,vel error exceeded
163,s03_vel_pi_disturbance,g000020_c1,20,,,,,,0.10251356713997556,0.0018240554973813616,0.15,,,,,,,1.8989,2.3912,6.0079,0.0,0.2877,0.007111,0.0,0.0,12.0,,,,,,1.483255,PASS,
164,s03_vel_pi_disturbance,g000020_c2,20,,,,,,0.16994542198660828,0.0029694418846367603,0.1,,,,,,,2.0915,2.4367,4.9578,0.0,0.1995,0.007102,0.0,0.0,12.0,,,,,,1.070935,PASS,
165,s03_vel_pi_disturbance,g000020_c3,20,,,,,,0.14885237010327146,0.0019718191135517844,0.1450817721135857,,,,,,,2.0366,2.4203,5.2341,0.0,0.222,0.007104,0.0,0.0,12.0,,,,,,1.174085,PASS,
166,s03_vel_pi_disturbance,g000020_c4,20,,,,,,0.22672071725675721,0.00240352740530082,0.11411911715779871,,,,,,,2.2161,2.4211,0.9171,0.0,0.1648,0.007044,0.0,0.0,6.024,,,,,,200.8662,FAIL,vel error exceeded
167,s03_vel_pi_disturbance,g000020_c5,20,,,,,,0.20472700266964328,0.0016425501690860685,0.13236027162530142,,,,,,,2.1919,2.4203,1.0036,0.0,0.1815,0.007047,0.0,0.0,6.028,,,,,,200.95618,FAIL,vel error exceeded
168,s03_vel_pi_disturbance,g000020_c6,20,,,,,,0.23039281521840468,0.001350529131333682,0.15,,,,,,,2.2134,2.4172,0.9134,0.0,0.1642,0.007044,0.0,0.0,6.024,,,,,,200.863438,FAIL,vel error exceeded
169,s03_vel_pi_disturbance,g000020_c7,20,,,,,,0.20658483048143889,0.0010184432337089122,0.14926520863770762,,,,,,,2.1895,2.4145,1.0025,0.0,0.1813,0.007047,0.0,0.0,6.028,,,,,,200.955492,FAIL,vel error exceeded
170,s03_vel_pi_disturbance,g000021_c0,21,,,,,,0.20462885398762065,0.0026215087796408938,0.15,,,,,,,2.1984,2.4268,0.9943,0.0,0.1795,0.007046,0.0,0.0,6.026,,,,,,200.942747,FAIL,vel error exceeded
171,s03_vel_pi_disturbance,g000021_c1,21,,,,,,0.2650274774363692,0.0020066700914500987,0.15,,,,,,,2.2406,2.4168,0.8078,0.0,0.1443,0.007041,0.0,0.0,6.022,,,,,,200.76143,FAIL,vel error exceeded
172,s03_vel_pi_disturbance,g000021_c2,21,,,,,,0.197695397006314,0.0017011050435111804,0.11987954404480544,,,,,,,2.1849,2.4198,1.0315,0.0,0.1867,0.007047,0.0,0.0,6.028,,,,,,200.98218,FAIL,vel error exceeded
173,s03_vel_pi_disturbance,g000021_c3,21,,,,,,0.1574873332918275,0.0015393051697749464,0.1266639855120342,,,,,,,2.055,2.4189,5.1532,0.0,0.2151,0.007104,0.0,0.0,12.0,,,,,,1.143318,PASS,
174,s03_vel_pi_disturbance,g000021_c4,21,,,,,,0.18761423805442748,0.002429397763543431,0.15,,,,,,,2.1786,2.4273,1.0675,0.0,0.1937,0.007048,0.0,0.0,6.03,,,,,,201.020367,FAIL,vel error exceeded
175,s03_vel_pi_disturbance,g000021_c5,21,,,,,,0.1805322048944983,0.002346385265467554,0.15,,,,,,,2.1106,2.4303,4.8869,0.0,0.1934,0.007101,0.0,0.0,12.0,,,,,,1.045077,PASS,
176,s03_vel_pi_disturbance,g000021_c6,21,,,,,,0.2554020211452011,0.001968134059158572,0.15,,,,,,,2.2345,2.4185,0.834,0.0,0.1491,0.007042,0.0,0.0,6.022,,,,,,200.785285,FAIL,vel error exceeded
177,s03_vel_pi_disturbance,g000021_c7,21,,,,,,0.19144793352193362,0.0019845060052566536,0.13809298135545156,,,,,,,2.1796,2.4254,1.0554,0.0,0.1914,0.007048,0.0,0.0,6.03,,,,,,201.009083,FAIL,vel error exceeded
178,s03_vel_pi_disturbance,g000022_c0,22,,,,,,0.1462880501932233,0.0017060350606961335,0.15,,,,,,,2.0286,2.4162,5.279,0.0,0.2257,0.007105,0.0,0.0,12.0,,,,,,1.191512,PASS,
179,s03_vel_pi_disturbance,g000022_c1,22,,,,,,0.17350727356680998,0.002659054784832631,0.15,,,,,,,2.0972,2.4343,4.9372,0.0,0.1977,0.007102,0.0,0.0,12.0,,,,,,1.063475,PASS,
180,s03_vel_pi_disturbance,g000022_c2,22,,,,,,0.23601183061505507,0.00215853848910774,0.13142243048371394,,,,,,,2.2218,2.4201,0.8891,0.0,0.1596,0.007043,0.0,0.0,6.024,,,,,,200.840332,FAIL,vel error exceeded
181,s03_vel_pi_disturbance,g000022_c3,22,,,,,,0.20428900173908623,0.0026901952067097503,0.15,,,,,,,2.1981,2.4272,0.9953,0.0,0.1797,0.007046,0.0,0.0,6.026,,,,,,200.94378,FAIL,vel error exceeded
182,s03_vel_pi_disturbance,g000022_c4,22,,,,,,0.26457936675398885,0.002436008984445063,0.15,,,,,,,2.2423,2.4193,0.8061,0.0,0.144,0.007041,0.0,0.0,6.022,,,,,,200.760077,FAIL,vel error exceeded
183,s03_vel_pi_disturbance,g000022_c5,22,,,,,,0.17931145987535796,0.0036703575847076265,0.12936891567019598,,,,,,,2.1142,2.4414,4.8429,0.0,0.1905,0.007101,0.0,0.0,12.0,,,,,,1.030165,PASS,
184,s03_vel_pi_disturbance,g000022_c6,22,,,,,,0.18504830218445475,0.002636314980290135,0.12011661555270749,,,,,,,2.1771,2.4297,1.0768,0.0,0.1955,0.007048,0.0,0.0,6.03,,,,,,201.02915,FAIL,vel error exceeded
185,s03_vel_pi_disturbance,g000022_c7,22,,,,,,0.2491471258228701,0.002254374514808492,0.14695133930582843,,,,,,,2.2321,2.4198,0.8493,0.0,0.1519,0.007042,0.0,0.0,6.022,,,,,,200.799088,FAIL,vel error exceeded
186,s03_vel_pi_disturbance,g000023_c0,23,,,,,,0.149808852566902,0.003735688852125637,0.1,,,,,,,2.0491,2.447,5.1344,0.0,0.2146,0.007103,0.0,0.0,12.0,,,,,,1.137583,PASS,
187,s03_vel_pi_disturbance,g000023_c1,23,,,,,,0.2554249157572924,0.003011979986131327,0.10088406732604711,,,,,,,2.2393,2.4247,0.8264,0.0,0.1477,0.007042,0.0,0.0,6.022,,,,,,200.778245,FAIL,vel error exceeded
188,s03_vel_pi_disturbance,g000023_c2,23,,,,,,0.17688068364824377,0.0030995314099958047,0.1,,,,,,,2.1062,2.4378,4.8872,0.0,0.1938,0.007101,0.0,0.0,12.0,,,,,,1.045465,PASS,
189,s03_vel_pi_disturbance,g000023_c3,23,,,,,,0.20568647263300227,0.002911649114129127,0.12494456879606694,,,,,,,2.2012,2.4305,0.9876,0.0,0.1782,0.007046,0.0,0.0,6.026,,,,,,200.93634,FAIL,vel error exceeded
190,s03_vel_pi_disturbance,g000023_c4,23,,,,,,0.21734623763649125,0.0035729433433157195,0.15,,,,,,,2.2153,2.4312,0.939,0.0,0.1688,0.007044,0.0,0.0,6.024,,,,,,200.886188,FAIL,vel error exceeded
191,s03_vel_pi_disturbance,g000023_c5,23,,,,,,0.16740650513079067,0.0033187190348177666,0.10318722967810692,,,,,,,2.0873,2.439,4.9671,0.0,0.2005,0.007102,0.0,0.0,12.0,,,,,,1.074763,PASS,
192,s03_vel_pi_disturbance,g000023_c6,23,,,,,,0.2025776345851897,0.0041022005474627395,0.10585740390560158,,,,,,,2.2058,2.4373,0.9882,0.0,0.1783,0.007046,0.0,0.0,6.026,,,,,,200.936827,FAIL,vel error exceeded
193,s03_vel_pi_disturbance,g000023_c7,23,,,,,,0.20019176967641453,0.003192998934441311,0.1426057340554844,,,,,,,2.1979,2.4328,1.0065,0.0,0.1818,0.007046,0.0,0.0,6.026,,,,,,200.954248,FAIL,vel error exceeded
194,s03_vel_pi_disturbance,g000024_c0,24,,,,,,0.17743236203694587,0.004149988748122569,0.13239415218553446,,,,,,,2.1124,2.4452,4.8395,0.0,0.1904,0.007101,0.0,0.0,12.0,,,,,,1.028705,PASS,
195,s03_vel_pi_disturbance,g000024_c1,24,,,,,,0.16088929846503866,0.0030779670045606696,0.1347978306821469,,,,,,,2.0715,2.4395,5.0433,0.0,0.2067,0.007103,0.0,0.0,12.0,,,,,,1.102868,PASS,
196,s03_vel_pi_disturbance,g000024_c2,24,,,,,,0.14984883407250194,0.0036965206703237124,0.1387317330922734,,,,,,,2.0491,2.4487,5.1359,0.0,0.2147,0.007103,0.0,0.0,12.0,,,,,,1.13806,PASS,
197,s03_vel_pi_disturbance,g000024_c3,24,,,,,,0.16203523565035727,0.004271382712693104,0.1310351308489975,,,,,,,2.0802,2.45,4.9772,0.0,0.2018,0.007102,0.0,0.0,12.0,,,,,,1.078968,PASS,
198,s03_vel_pi_disturbance,g000024_c4,24,,,,,,0.14175736881509085,0.0044448315487842,0.14807441699653284,,,,,,,2.0335,2.4612,5.1949,0.0,0.22,0.007104,0.0,0.0,12.0,,,,,,1.161177,PASS,
199,s03_vel_pi_disturbance,g000024_c5,24,,,,,,0.1475945726853591,0.003319311677129819,0.15,,,,,,,2.0412,2.4379,5.181,0.0,0.2182,0.007104,0.0,0.0,12.0,,,,,,1.15461,PASS,
200,s03_vel_pi_disturbance,g000024_c6,24,,,,,,0.18770529463957583,0.0030423514801232576,0.11682666863631339,,,,,,,2.1832,2.4317,1.0603,0.0,0.1921,0.007048,0.0,0.0,6.028,,,,,,201.008948,FAIL,vel error exceeded
201,s03_vel_pi_disturbance,g000024_c7,24,,,,,,0.20352631948114727,0.003525454641674586,0.15,,,,,,,2.2034,2.4341,0.9899,0.0,0.1786,0.007046,0.0,0.0,6.026,,,,,,200.938135,FAIL,vel error exceeded
202,s03_vel_pi_disturbance,g000025_c0,25,,,,,,0.24337349405909503,0.00383771094242466,0.15,,,,,,,2.2357,2.4272,0.8543,0.0,0.1528,0.007042,0.0,0.0,6.022,,,,,,200.80356,FAIL,vel error exceeded
203,s03_vel_pi_disturbance,g000025_c1,25,,,,,,0.12621804553389782,0.004857610405057868,0.1266991473979966,,,,,,,1.9955,2.4596,5.3828,0.0,0.2359,0.007106,0.0,0.0,12.0,,,,,,1.234185,PASS,
204,s03_vel_pi_disturbance,g000025_c2,25,,,,,,0.20142867699195788,0.00631239110769977,0.13192878569809754,,,,,,,2.2195,2.4567,0.9716,0.0,0.1749,0.007045,0.0,0.0,6.024,,,,,,200.91619,FAIL,vel error exceeded
205,s03_vel_pi_disturbance,g000025_c3,25,,,,,,0.19699255200522875,0.004202369160912564,0.11241290576240265,,,,,,,2.2014,2.4405,1.0092,0.0,0.1823,0.007046,0.0,0.0,6.026,,,,,,200.956613,FAIL,vel error exceeded
206,s03_vel_pi_disturbance,g000025_c4,25,,,,,,0.2135221761028321,0.00493485262292509,0.1306842296702344,,,,,,,2.2205,2.4399,0.9402,0.0,0.1691,0.007044,0.0,0.0,6.024,,,,,,200.887625,FAIL,vel error exceeded
207,s03_vel_pi_disturbance,g000025_c5,25,,,,,,0.15183258591282175,0.0038438378043806347,0.15,,,,,,,2.0548,2.4465,5.1053,0.0,0.2122,0.007103,0.0,0.0,12.0,,,,,,1.126453,PASS,
208,s03_vel_pi_disturbance,g000025_c6,25,,,,,,0.13519743180886049,0.0041227793257382584,0.11302709954902553,,,,,,,2.0148,2.4531,5.298,0.0,0.2284,0.007105,0.0,0.0,12.0,,,,,,1.200433,PASS,
209,s03_vel_pi_disturbance,g000025_c7,25,,,,,,0.14826582682671077,0.005109213056191181,0.15,,,,,,,2.0534,2.466,5.0837,0.0,0.2111,0.007103,0.0,0.0,12.0,,,,,,1.119555,PASS,
210,s03_vel_pi_disturbance,g000026_c0,26,,,,,,0.18534442186652897,0.0045936223428265964,0.1,,,,,,,2.1923,2.4485,1.0542,0.0,0.191,0.007047,0.0,0.0,6.028,,,,,,201.003545,FAIL,vel error exceeded
211,s03_vel_pi_disturbance,g000026_c1,26,,,,,,0.133705969093048,0.004052055475220178,0.10263037368631643,,,,,,,2.01,2.4487,5.3217,0.0,0.2304,0.007105,0.0,0.0,12.0,,,,,,1.209643,PASS,
212,s03_vel_pi_disturbance,g000026_c2,26,,,,,,0.17313449736029943,0.004796671136568925,0.10951494066844217,,,,,,,2.1069,2.4553,4.8496,0.0,0.1916,0.007101,0.0,0.0,12.0,,,,,,1.032903,PASS,
213,s03_vel_pi_disturbance,g000026_c3,26,,,,,,0.15404778802154973,0.004308145556975123,0.15,,,,,,,2.0626,2.4575,5.0589,0.0,0.2086,0.007103,0.0,0.0,12.0,,,,,,1.109528,PASS,
214,s03_vel_pi_disturbance,g000026_c4,26,,,,,,0.20425671493617004,0.004415876720878352,0.12993398665385728,,,,,,,2.2094,2.4391,0.9789,0.0,0.1766,0.007045,0.0,0.0,6.026,,,,,,200.928208,FAIL,vel error exceeded
215,s03_vel_pi_disturbance,g000026_c5,26,,,,,,0.14439164756014028,0.004588990690037621,0.11693033669386504,,,,,,,2.0409,2.4573,5.1559,0.0,0.2168,0.007104,0.0,0.0,12.0,,,,,,1.146325,PASS,
216,s03_vel_pi_disturbance,g000026_c6,26,,,,,,0.19361740240545564,0.005246986747214855,0.1310799928871428,,,,,,,2.2054,2.451,1.0125,0.0,0.1829,0.007046,0.0,0.0,6.026,,,,,,200.959625,FAIL,vel error exceeded
217,s03_vel_pi_disturbance,g000026_c7,26,,,,,,0.1506111205857946,0.005035596841949994,0.15,,,,,,,2.0585,2.465,5.0624,0.0,0.2093,0.007103,0.0,0.0,12.0,,,,,,1.111495,PASS,
218,s03_vel_pi_disturbance,g000027_c0,27,,,,,,0.23957381759573093,0.0037996646284331557,0.14833822565698018,,,,,,,2.2333,2.4286,0.8652,0.0,0.1548,0.007042,0.0,0.0,6.022,,,,,,200.813373,FAIL,vel error exceeded
219,s03_vel_pi_disturbance,g000027_c1,27,,,,,,0.3160642026373942,0.007338429282020046,0.11248847927483063,,,,,,,2.2819,2.4341,0.6682,0.0,0.1181,0.007037,0.0,0.0,6.018,,,,,,200.626352,FAIL,vel error exceeded
220,s03_vel_pi_disturbance,g000027_c2,27,,,,,,0.1254916111887624,0.0030736684227402364,0.13780774101482043,,,,,,,1.9811,2.4262,5.498,0.0,0.2448,0.007107,0.0,0.0,12.0,,,,,,1.27824,PASS,
221,s03_vel_pi_disturbance,g000027_c3,27,,,,,,0.38461914221047544,0.004604064750000937,0.15,,,,,,,2.2944,2.4207,0.575,0.0,0.1008,0.007035,0.0,0.0,6.014,,,,,,200.538205,FAIL,vel error exceeded
222,s03_vel_pi_disturbance,g000027_c4,27,,,,,,0.24023038392867924,0.004563332114755581,0.15,,,,,,,2.2374,2.4338,0.8578,0.0,0.1534,0.007042,0.0,0.0,6.022,,,,,,200.806387,FAIL,vel error exceeded
223,s03_vel_pi_disturbance,g000027_c5,27,,,,,,0.14107275969213706,0.009246905222246074,0.11190535033850185,,,,,,,2.0615,2.525,4.9573,0.0,0.2034,0.007102,0.0,0.0,12.0,,,,,,1.07812,PASS,
224,s03_vel_pi_disturbance,g000027_c6,27,,,,,,0.3196368607121218,0.0027383972646210053,0.15,,,,,,,2.2695,2.4197,0.6844,0.0,0.1216,0.007038,0.0,0.0,6.02,,,,,,200.64657,FAIL,vel error exceeded
225,s03_vel_pi_disturbance,g000027_c7,27,,,,,,0.1426276456082222,0.0023597158700657725,0.1360697820848286,,,,,,,2.0234,2.4282,5.2929,0.0,0.2271,0.007105,0.0,0.0,12.0,,,,,,1.19693,PASS,
226,s03_vel_pi_disturbance,g000028_c0,28,,,,,,0.1471110432808074,0.004160754983259959,0.15,,,,,,,2.0449,2.4533,5.1457,0.0,0.2157,0.007104,0.0,0.0,12.0,,,,,,1.141995,PASS,
227,s03_vel_pi_disturbance,g000028_c1,28,,,,,,0.15449423528199963,0.0036564802671466127,0.15,,,,,,,2.0599,2.4449,5.0853,0.0,0.2104,0.007103,0.0,0.0,12.0,,,,,,1.118637,PASS,
228,s03_vel_pi_disturbance,g000028_c2,28,,,,,,0.33312441501100404,0.0048908543437838495,0.15,,,,,,,2.2804,2.4262,0.65,0.0,0.1149,0.007037,0.0,0.0,6.018,,,,,,200.610845,FAIL,vel error exceeded
229,s03_vel_pi_disturbance,g000028_c3,28,,,,,,0.1579282776453696,0.0028423648879652335,0.11310557203136463,,,,,,,2.0632,2.4363,5.0863,0.0,0.2101,0.007103,0.0,0.0,12.0,,,,,,1.11856,PASS,
230,s03_vel_pi_disturbance,g000028_c4,28,,,,,,0.1779165669259537,0.002576219738669398,0.1,,,,,,,2.106,2.4311,4.9006,0.0,0.1946,0.007102,0.0,0.0,12.0,,,,,,1.05002,PASS,
231,s03_vel_pi_disturbance,g000028_c5,28,,,,,,0.31718672478113014,0.0022332218538977156,0.1,,,,,,,2.2668,2.417,0.6915,0.0,0.1229,0.007038,0.0,0.0,6.02,,,,,,200.65293,FAIL,vel error exceeded
232,s03_vel_pi_disturbance,g000028_c6,28,,,,,,0.0970843454168876,0.005034644204273475,0.1045877155197124,,,,,,,1.9053,2.4155,5.8971,0.0,0.2795,0.00711,0.0,0.0,12.0,,,,,,1.440315,PASS,
233,s03_vel_pi_disturbance,g000028_c7,28,,,,,,0.32292913465770823,0.004050558891343515,0.15,,,,,,,2.2749,2.4214,0.6716,0.0,0.1188,0.007037,0.0,0.0,6.018,,,,,,200.63002,FAIL,vel error exceeded
234,s03_vel_pi_disturbance,g000029_c0,29,,,,,,0.2949863057708419,0.004467404296979925,0.15,,,,,,,2.265,2.4285,0.7235,0.0,0.1285,0.007039,0.0,0.0,6.02,,,,,,200.680338,FAIL,vel error exceeded
235,s03_vel_pi_disturbance,g000029_c1,29,,,,,,0.09954247718524524,0.005345412855856582,0.13969988667967687,,,,,,,1.9164,2.429,5.8211,0.0,0.2732,0.00711,0.0,0.0,12.0,,,,,,1.40984,PASS,
236,s03_vel_pi_disturbance,g000029_c2,29,,,,,,0.06500853447545481,0.006585760541746103,0.15,,,,,,,1.786,2.3602,6.6793,0.0,0.3468,0.007117,0.0,0.0,12.0,,,,,,1.764517,PASS,
237,s03_vel_pi_disturbance,g000029_c3,29,,,,,,0.24087361819285397,0.0026482414046174276,0.15,,,,,,,2.2282,2.422,0.8703,0.0,0.1558,0.007043,0.0,0.0,6.022,,,,,,200.818315,FAIL,vel error exceeded
238,s03_vel_pi_disturbance,g000029_c4,29,,,,,,0.25303215704818877,0.008152045690501973,0.15,,,,,,,2.2606,2.4478,0.7974,0.0,0.1419,0.00704,0.0,0.0,6.02,,,,,,200.746087,FAIL,vel error exceeded
239,s03_vel_pi_disturbance,g000029_c5,29,,,,,,0.18967030662054735,0.0023975151431555744,0.12401949260446224,,,,,,,2.1806,2.4273,1.0589,0.0,0.1921,0.007048,0.0,0.0,6.03,,,,,,201.012558,FAIL,vel error exceeded
240,s03_vel_pi_disturbance,g000029_c6,29,,,,,,0.08349888411672322,0.002691714892488097,0.13876096261046963,,,,,,,1.8318,2.369,6.4242,0.0,0.3238,0.007115,0.0,0.0,12.0,,,,,,1.656285,PASS,
241,s03_vel_pi_disturbance,g000029_c7,29,,,,,,0.2254984849387137,0.0033226812808465887,0.15,,,,,,,2.2204,2.4273,0.9133,0.0,0.1641,0.007044,0.0,0.0,6.024,,,,,,200.862895,FAIL,vel error exceeded
242,s03_vel_pi_disturbance,g000030_c0,30,,,,,,0.24645714662591384,0.004200748329995659,0.1,,,,,,,2.2394,2.4285,0.8426,0.0,0.1507,0.007042,0.0,0.0,6.022,,,,,,200.793062,FAIL,vel error exceeded
243,s03_vel_pi_disturbance,g000030_c1,30,,,,,,0.2019117050940451,0.0037221217250576815,0.15,,,,,,,2.2029,2.4362,0.9949,0.0,0.1796,0.007046,0.0,0.0,6.026,,,,,,200.943203,FAIL,vel error exceeded
244,s03_vel_pi_disturbance,g000030_c2,30,,,,,,0.18693317994735598,0.0059113430204510865,0.1,,,,,,,2.2037,2.4588,1.033,0.0,0.1868,0.007046,0.0,0.0,6.026,,,,,,200.978888,FAIL,vel error exceeded
245,s03_vel_pi_disturbance,g000030_c3,30,,,,,,0.09368605940236924,0.005041408863436743,0.1,,,,,,,1.893,2.4083,5.9732,0.0,0.286,0.007111,0.0,0.0,12.0,,,,,,1.471452,PASS,
246,s03_vel_pi_disturbance,g000030_c4,30,,,,,,0.1599042553540199,0.006080149387802272,0.1,,,,,,,2.0853,2.4713,4.916,0.0,0.1977,0.007102,0.0,0.0,12.0,,,,,,1.05762,PASS,
247,s03_vel_pi_disturbance,g000030_c5,30,,,,,,0.09298282184669766,0.00634659959118472,0.14506636878011153,,,,,,,1.9017,2.4339,5.8895,0.0,0.2794,0.00711,0.0,0.0,12.0,,,,,,1.43826,PASS,
248,s03_vel_pi_disturbance,g000030_c6,30,,,,,,0.4033344528450153,0.01581059781987573,0.10492813519246579,,,,,,,2.3195,2.4421,0.5154,0.0,0.0896,0.007033,0.0,0.0,6.012,,,,,,200.481857,FAIL,vel error exceeded
249,s03_vel_pi_disturbance,g000030_c7,30,,,,,,0.15637541728524496,0.006674004388121195,0.15,,,,,,,2.0807,2.4832,4.9234,0.0,0.1988,0.007102,0.0,0.0,12.0,,,,,,1.061628,PASS,
250,s03_vel_pi_disturbance,g000031_c0,31,,,,,,0.23824475289780805,0.001,0.1,,,,,,,2.2178,2.4134,0.8911,0.0,0.16,0.007044,0.0,0.0,6.024,,,,,,200.842537,FAIL,vel error exceeded
251,s03_vel_pi_disturbance,g000031_c1,31,,,,,,0.09732679190328979,0.00453563861862426,0.15,,,,,,,1.9019,2.4075,5.9267,0.0,0.2818,0.00711,0.0,0.0,12.0,,,,,,1.451858,PASS,
252,s03_vel_pi_disturbance,g000031_c2,31,,,,,,0.26579841280611355,0.006601273266838947,0.14752736699563967,,,,,,,2.2599,2.44,0.776,0.0,0.138,0.00704,0.0,0.0,6.02,,,,,,200.727002,FAIL,vel error exceeded
253,s03_vel_pi_disturbance,g000031_c3,31,,,,,,0.16788586114901782,0.005369134268273267,0.11490265084229954,,,,,,,2.0986,2.4606,4.8723,0.0,0.1937,0.007101,0.0,0.0,12.0,,,,,,1.04109,PASS,
254,s03_vel_pi_disturbance,g000031_c4,31,,,,,,0.4828748433555234,0.0025432913820781105,0.15,,,,,,,2.3103,2.4147,0.475,0.0,0.0831,0.007032,0.0,0.0,6.012,,,,,,200.451945,FAIL,vel error exceeded
255,s03_vel_pi_disturbance,g000031_c5,31,,,,,,0.30602299612991174,0.011453843661351208,0.1,,,,,,,2.2913,2.4477,0.6658,0.0,0.1176,0.007036,0.0,0.0,6.018,,,,,,200.623595,FAIL,vel error exceeded
256,s03_vel_pi_disturbance,g000031_c6,31,,,,,,0.06107050426203583,0.0017874599301434195,0.1079667316234703,,,,,,,1.6844,2.2565,2.0068,0.0,0.4174,0.007097,0.0,0.0,5.596,,,,,,202.100822,FAIL,vel error exceeded
257,s03_vel_pi_disturbance,g000031_c7,31,,,,,,0.18198009390255285,0.005325730670401964,0.15,,,,,,,2.1942,2.4543,1.0611,0.0,0.1923,0.007047,0.0,0.0,6.028,,,,,,201.009852,FAIL,vel error exceeded
258,s03_vel_pi_disturbance,g000032_c0,32,,,,,,0.2717459643736094,0.0036111040941827115,0.15,,,,,,,2.2509,2.4224,0.781,0.0,0.139,0.00704,0.0,0.0,6.02,,,,,,200.732198,FAIL,vel error exceeded
259,s03_vel_pi_disturbance,g000032_c1,32,,,,,,0.07757329674456886,0.004347229774002866,0.15,,,,,,,1.8217,2.3692,6.4615,0.0,0.3274,0.007115,0.0,0.0,12.0,,,,,,1.672045,PASS,
260,s03_vel_pi_disturbance,g000032_c2,32,,,,,,0.5346125177175536,0.004787209745957895,0.12713863011520962,,,,,,,2.3203,2.4197,0.4282,0.0,0.0745,0.007031,0.0,12.0,6.01,,,,,,200.4103,FAIL,vel error exceeded
261,s03_vel_pi_disturbance,g000032_c3,32,,,,,,0.4076577192467299,0.013725696648382904,0.1,,,,,,,2.3165,2.4373,0.5173,0.0,0.0899,0.007033,0.0,0.0,6.012,,,,,,200.48344,FAIL,vel error exceeded
262,s03_vel_pi_disturbance,g000032_c4,32,,,,,,0.16974438320837076,0.007909440940873435,0.15,,,,,,,2.2016,2.4848,1.0881,0.0,0.1974,0.007047,0.0,0.0,6.028,,,,,,201.03437,FAIL,vel error exceeded
263,s03_vel_pi_disturbance,g000032_c5,32,,,,,,0.4703712298801423,0.004413464969240689,0.15,,,,,,,2.3111,2.4189,0.4816,0.0,0.0841,0.007033,0.0,0.0,6.012,,,,,,200.456523,FAIL,vel error exceeded
264,s03_vel_pi_disturbance,g000032_c6,32,,,,,,0.09735184865649889,0.001940500520692609,0.15,,,,,,,1.8809,2.3844,6.1183,0.0,0.2972,0.007112,0.0,0.0,12.0,,,,,,1.528715,PASS,
265,s03_vel_pi_disturbance,g000032_c7,32,,,,,,0.2893572644211959,0.004504579570662773,0.15,,,,,,,2.2629,2.4247,0.7353,0.0,0.1307,0.007039,0.0,0.0,6.02,,,,,,200.691162,FAIL,vel error exceeded
266,s03_vel_pi_disturbance,g000033_c0,33,,,,,,0.1405784291329197,0.0030627234153296073,0.1265924411614141,,,,,,,2.0221,2.4339,5.2822,0.0,0.2266,0.007105,0.0,0.0,12.0,,,,,,1.193577,PASS,
267,s03_vel_pi_disturbance,g000033_c1,33,,,,,,0.14458348158745077,0.004083877288811826,0.11177957213707909,,,,,,,2.0382,2.4524,5.1799,0.0,0.2185,0.007104,0.0,0.0,12.0,,,,,,1.154883,PASS,
268,s03_vel_pi_disturbance,g000033_c2,33,,,,,,0.385903857261283,0.007855379047765901,0.10610168800083933,,,,,,,2.3016,2.4284,0.5617,0.0,0.0983,0.007034,0.0,0.0,6.014,,,,,,200.52574,FAIL,vel error exceeded
269,s03_vel_pi_disturbance,g000033_c3,33,,,,,,0.13544509012100267,0.004924868353103785,0.15,,,,,,,2.0205,2.4665,5.2504,0.0,0.2249,0.007104,0.0,0.0,12.0,,,,,,1.18298,PASS,
270,s03_vel_pi_disturbance,g000033_c4,33,,,,,,0.08260986580849103,0.0018006588457888262,0.1,,,,,,,1.8202,2.3656,6.527,0.0,0.3324,0.007116,0.0,0.0,12.0,,,,,,1.699017,PASS,
271,s03_vel_pi_disturbance,g000033_c5,33,,,,,,0.18253802968918392,0.00420702723491585,0.15,,,,,,,2.1862,2.4436,1.0709,0.0,0.1941,0.007048,0.0,0.0,6.028,,,,,,201.018785,FAIL,vel error exceeded
272,s03_vel_pi_disturbance,g000033_c6,33,,,,,,0.13993144741106728,0.00247611785766883,0.10609833009190453,,,,,,,2.0171,2.4293,5.3227,0.0,0.2297,0.007105,0.0,0.0,12.0,,,,,,1.2088,PASS,
273,s03_vel_pi_disturbance,g000033_c7,33,,,,,,0.1865544625600352,0.0043253861889263326,0.15,,,,,,,2.1918,2.4435,1.0516,0.0,0.1904,0.007047,0.0,0.0,6.028,,,,,,201.00031,FAIL,vel error exceeded
274,s03_vel_pi_disturbance,g000034_c0,34,,,,,,0.10830602971734564,0.0032978291733072452,0.15,,,,,,,1.9302,2.4099,5.7854,0.0,0.2692,0.007109,0.0,0.0,12.0,,,,,,1.393268,PASS,
275,s03_vel_pi_disturbance,g000034_c1,34,,,,,,0.40106202043692113,0.003966725922209799,0.1,,,,,,,2.2969,2.4191,0.5564,0.0,0.0976,0.007034,0.0,0.0,6.014,,,,,,200.52281,FAIL,vel error exceeded
276,s03_vel_pi_disturbance,g000034_c2,34,,,,,,0.12530052976200026,0.0045022837980341224,0.10404246683161562,,,,,,,1.99,2.455,5.4171,0.0,0.2387,0.007106,0.0,0.0,12.0,,,,,,1.247772,PASS,
277,s03_vel_pi_disturbance,g000034_c3,34,,,,,,0.1356989406946085,0.003946567335134069,0.10120437039487616,,,,,,,2.015,2.4488,5.3001,0.0,0.2285,0.007105,0.0,0.0,12.0,,,,,,1.20105,PASS,
278,s03_vel_pi_disturbance,g000034_c4,34,,,,,,0.273373532101152,0.0026719091710739945,0.13780910051683926,,,,,,,2.248,2.4214,0.7829,0.0,0.1397,0.00704,0.0,0.0,6.022,,,,,,200.73876,FAIL,vel error exceeded
279,s03_vel_pi_disturbance,g000034_c5,34,,,,,,0.29254152975659675,0.004412113897060616,0.1136347251159776,,,,,,,2.2639,2.4249,0.7288,0.0,0.1295,0.007039,0.0,0.0,6.02,,,,,,200.685422,FAIL,vel error exceeded
280,s03_vel_pi_disturbance,g000034_c6,34,,,,,,0.2392140174152317,0.006340684778917739,0.15,,,,,,,2.2453,2.4429,0.8477,0.0,0.1516,0.007041,0.0,0.0,6.022,,,,,,200.797427,FAIL,vel error exceeded
281,s03_vel_pi_disturbance,g000034_c7,34,,,,,,0.22398310942001115,0.004911408577443016,0.12114128389705868,,,,,,,2.2279,2.4393,0.9052,0.0,0.1625,0.007043,0.0,0.0,6.024,,,,,,200.854668,FAIL,vel error exceeded
282,s03_vel_pi_disturbance,g000035_c0,35,,,,,,0.1635470507086383,0.006220231222428901,0.10187035940110242,,,,,,,2.0938,2.4728,4.8755,0.0,0.1945,0.007101,0.0,0.0,12.0,,,,,,1.043187,PASS,
283,s03_vel_pi_disturbance,g000035_c1,35,,,,,,0.18425119271941623,0.003711600718358332,0.1,,,,,,,2.1845,2.4403,1.0688,0.0,0.1937,0.007048,0.0,0.0,6.028,,,,,,201.016893,FAIL,vel error exceeded
284,s03_vel_pi_disturbance,g000035_c2,35,,,,,,0.1929728490588877,0.004531908073343641,0.10147024068412121,,,,,,,2.1997,2.4447,1.0224,0.0,0.1847,0.007046,0.0,0.0,6.026,,,,,,200.968507,FAIL,vel error exceeded
285,s03_vel_pi_disturbance,g000035_c3,35,,,,,,0.18580763318359278,0.0036931820231308277,0.11680410538572614,,,,,,,2.1862,2.4401,1.0619,0.0,0.1924,0.007048,0.0,0.0,6.028,,,,,,201.010437,FAIL,vel error exceeded
286,s03_vel_pi_disturbance,g000035_c4,35,,,,,,0.1672785105436596,0.002951814711463927,0.15,,,,,,,2.0851,2.4379,4.9841,0.0,0.2017,0.007102,0.0,0.0,12.0,,,,,,1.080665,PASS,
287,s03_vel_pi_disturbance,g000035_c5,35,,,,,,0.1838909646491418,0.005927337407651779,0.1,,,,,,,2.2006,2.4579,1.046,0.0,0.1892,0.007047,0.0,0.0,6.026,,,,,,200.990983,FAIL,vel error exceeded
288,s03_vel_pi_disturbance,g000035_c6,35,,,,,,0.20506713626777776,0.0042570094518510175,0.15,,,,,,,2.2092,2.439,0.9774,0.0,0.1763,0.007045,0.0,0.0,6.026,,,,,,200.926723,FAIL,vel error exceeded
289,s03_vel_pi_disturbance,g000035_c7,35,,,,,,0.2233347132843723,0.004170908938467438,0.15,,,,,,,2.2235,2.4352,0.9134,0.0,0.1641,0.007044,0.0,0.0,6.024,,,,,,200.862665,FAIL,vel error exceeded
290,s03_vel_pi_disturbance,g000036_c0,36,,,,,,0.23417717340696212,0.003009963827319798,0.12410497109008091,,,,,,,2.2253,2.4267,0.888,0.0,0.1594,0.007043,0.0,0.0,6.024,,,,,,200.839413,FAIL,vel error exceeded
291,s03_vel_pi_disturbance,g000036_c1,36,,,,,,0.19152748156477095,0.0049391017276218035,0.1,,,,,,,2.2013,2.4495,1.0241,0.0,0.1851,0.007046,0.0,0.0,6.026,,,,,,200.970567,FAIL,vel error exceeded
292,s03_vel_pi_disturbance,g000036_c2,36,,,,,,0.2870573569231027,0.005162721458379272,0.15,,,,,,,2.264,2.4303,0.7362,0.0,0.1308,0.007039,0.0,0.0,6.02,,,,,,200.69147,FAIL,vel error exceeded
293,s03_vel_pi_disturbance,g000036_c3,36,,,,,,0.22054897933257372,0.007146166755810466,0.10703597283805232,,,,,,,2.2379,2.4528,0.8977,0.0,0.1608,0.007043,0.0,0.0,6.022,,,,,,200.843055,FAIL,vel error exceeded
294,s03_vel_pi_disturbance,g000036_c4,36,,,,,,0.1802683367997296,0.0033466409322622805,0.10094146094803272,,,,,,,2.1146,2.4356,4.8474,0.0,0.1906,0.007101,0.0,0.0,12.0,,,,,,1.031017,PASS,
295,s03_vel_pi_disturbance,g000036_c5,36,,,,,,0.1258275147225239,0.0030833474535010325,0.15,,,,,,,1.9823,2.4299,5.4921,0.0,0.2443,0.007107,0.0,0.0,12.0,,,,,,1.27588,PASS,
296,s03_vel_pi_disturbance,g000036_c6,36,,,,,,0.15850692153261275,0.004165750749400105,0.15,,,,,,,2.0719,2.4527,5.0185,0.0,0.2052,0.007102,0.0,0.0,12.0,,,,,,1.09445,PASS,
297,s03_vel_pi_disturbance,g000036_c7,36,,,,,,0.15745371192477697,0.00418754466642433,0.1,,,,,,,2.0696,2.453,5.0283,0.0,0.2059,0.007103,0.0,0.0,12.0,,,,,,1.097438,PASS,
298,s03_vel_pi_disturbance,g000037_c0,37,,,,,,0.2727264008852691,0.005306795632560902,0.13389231997597315,,,,,,,2.2581,2.4295,0.7677,0.0,0.1366,0.00704,0.0,0.0,6.02,,,,,,200.720315,FAIL,vel error exceeded
299,s03_vel_pi_disturbance,g000037_c1,37,,,,,,0.1568137484631636,0.003912827840949293,0.1392357127180687,,,,,,,2.0667,2.4476,5.048,0.0,0.2075,0.007103,0.0,0.0,12.0,,,,,,1.105195,PASS,
300,s03_vel_pi_disturbance,g000037_c2,37,,,,,,0.24393312776559434,0.003910309293577001,0.1412226307342712,,,,,,,2.2366,2.4286,0.852,0.0,0.1524,0.007042,0.0,0.0,6.022,,,,,,200.801562,FAIL,vel error exceeded
301,s03_vel_pi_disturbance,g000037_c3,37,,,,,,0.16713364815512463,0.004072113383058949,0.1,,,,,,,2.0907,2.4492,4.9364,0.0,0.1983,0.007102,0.0,0.0,12.0,,,,,,1.063773,PASS,
302,s03_vel_pi_disturbance,g000037_c4,37,,,,,,0.22844979792603307,0.005417518225170011,0.10874684686620957,,,,,,,2.2338,2.4414,0.8866,0.0,0.1588,0.007043,0.0,0.0,6.022,,,,,,200.833088,FAIL,vel error exceeded
303,s03_vel_pi_disturbance,g000037_c5,37,,,,,,0.15875799718241346,0.0033577115954205638,0.15,,,,,,,2.0683,2.4412,5.0536,0.0,0.2076,0.007103,0.0,0.0,12.0,,,,,,1.10649,PASS,
304,s03_vel_pi_disturbance,g000037_c6,37,,,,,,0.15168916821434364,0.005168109148126736,0.14106384542842162,,,,,,,2.062,2.4666,5.0426,0.0,0.2077,0.007103,0.0,0.0,12.0,,,,,,1.10403,PASS,
305,s03_vel_pi_disturbance,g000037_c7,37,,,,,,0.18666403069020962,0.0025178699895491625,0.15,,,,,,,2.1781,2.4278,1.071,0.0,0.1943,0.007048,0.0,0.0,6.03,,,,,,201.023182,FAIL,vel error exceeded
306,s03_vel_pi_disturbance,g000038_c0,38,,,,,,0.18275382594309997,0.0031464764190423616,0.15,,,,,,,2.1782,2.436,1.0818,0.0,0.1964,0.007048,0.0,0.0,6.03,,,,,,201.03344,FAIL,vel error exceeded
307,s03_vel_pi_disturbance,g000038_c1,38,,,,,,0.15136842360385874,0.005162985740042611,0.11244265406575375,,,,,,,2.0611,2.4666,5.0467,0.0,0.2081,0.007103,0.0,0.0,12.0,,,,,,1.10583,PASS,
308,s03_vel_pi_disturbance,g000038_c2,38,,,,,,0.19136592619643855,0.004763064198354081,0.15,,,,,,,2.1998,2.4467,1.0265,0.0,0.1855,0.007047,0.0,0.0,6.026,,,,,,200.972495,FAIL,vel error exceeded
309,s03_vel_pi_disturbance,g000038_c3,38,,,,,,0.182918134056649,0.004154132962647937,0.15,,,,,,,2.1867,2.4451,1.0701,0.0,0.1939,0.007048,0.0,0.0,6.028,,,,,,201.01769,FAIL,vel error exceeded
310,s03_vel_pi_disturbance,g000038_c4,38,,,,,,0.2245751467134788,0.004389687394630489,0.13017702748974677,,,,,,,2.2256,2.434,0.9077,0.0,0.163,0.007043,0.0,0.0,6.024,,,,,,200.8573,FAIL,vel error exceeded
311,s03_vel_pi_disturbance,g000038_c5,38,,,,,,0.18884407554835014,0.004040091393922055,0.15,,,,,,,2.192,2.4426,1.045,0.0,0.1892,0.007047,0.0,0.0,6.028,,,,,,200.99444,FAIL,vel error exceeded
312,s03_vel_pi_disturbance,g000038_c6,38,,,,,,0.1360732834654644,0.004081977654374675,0.15,,,,,,,2.0166,2.4507,5.287,0.0,0.2275,0.007105,0.0,0.0,12.0,,,,,,1.196238,PASS,
313,s03_vel_pi_disturbance,g000038_c7,38,,,,,,0.16179878700465572,0.004482006445031572,0.10229255789276706,,,,,,,2.0809,2.4525,4.9705,0.0,0.2013,0.007102,0.0,0.0,12.0,,,,,,1.076357,PASS,
314,s03_vel_pi_disturbance,g000039_c0,39,,,,,,0.18537085014449556,0.00408747444652639,0.13098328328878125,,,,,,,2.1884,2.4429,1.0594,0.0,0.1919,0.007047,0.0,0.0,6.028,,,,,,201.007763,FAIL,vel error exceeded
315,s03_vel_pi_disturbance,g000039_c1,39,,,,,,0.1815738367073481,0.003474947586492041,0.11098309109172098,,,,,,,2.1793,2.4386,1.0838,0.0,0.1968,0.007048,0.0,0.0,6.03,,,,,,201.035272,FAIL,vel error exceeded
316,s03_vel_pi_disturbance,g000039_c2,39,,,,,,0.16166748865396027,0.003560055175313668,0.11298389350877153,,,,,,,2.0758,2.4428,5.0138,0.0,0.2044,0.007102,0.0,0.0,12.0,,,,,,1.091705,PASS,
317,s03_vel_pi_disturbance,g000039_c3,39,,,,,,0.17208638474504453,0.004583011472244425,0.12372664092956977,,,,,,,2.1035,2.4529,4.868,0.0,0.193,0.007101,0.0,0.0,12.0,,,,,,1.039417,PASS,
318,s03_vel_pi_disturbance,g000039_c4,39,,,,,,0.20891806969534324,0.004559313984625682,0.1479438244798423,,,,,,,2.2144,2.4386,0.9598,0.0,0.1727,0.007045,0.0,0.0,6.024,,,,,,200.90548,FAIL,vel error exceeded
319,s03_vel_pi_disturbance,g000039_c5,39,,,,,,0.20804355395262583,0.00481366335432062,0.11255257253629798,,,,,,,2.2153,2.4422,0.9611,0.0,0.173,0.007045,0.0,0.0,6.024,,,,,,200.906853,FAIL,vel error exceeded
320,s03_vel_pi_disturbance,g000039_c6,39,,,,,,0.21470388734928256,0.0035156586417176674,0.13319119260745932,,,,,,,2.213,2.4315,0.9482,0.0,0.1706,0.007045,0.0,0.0,6.024,,,,,,200.89493,FAIL,vel error exceeded
321,s03_vel_pi_disturbance,g000039_c7,39,,,,,,0.1613154161026948,0.005586319235858924,0.11936518360984746,,,,,,,2.0857,2.4651,4.9246,0.0,0.1981,0.007102,0.0,0.0,12.0,,,,,,1.060245,PASS,
322,s03_vel_pi_disturbance,g000040_c0,40,,,,,,0.17683425552408794,0.0043825148016573764,0.12183131365896177,,,,,,,2.1123,2.4477,4.8352,0.0,0.1902,0.007101,0.0,0.0,12.0,,,,,,1.027563,PASS,
