run_id,scenario,label,gen,timestamp,Q_PITCH,Q_PITCH_RATE,Q_VEL,R,KP_V,KI_V,KFF_V,KP_YAW,KI_YAW,LEG_K_S,LEG_B_S,LEG_K_ROLL,LEG_D_ROLL,rms_pitch_deg,max_pitch_deg,wheel_travel_m,wheel_liftoff_s,vel_track_rms_ms,hip_track_rms_rad,hip_cmd_rate_rms,settle_time_s,survived_s,fitness_balance,fitness_disturbance,fitness_drive_slow,fitness_drive_med,fitness_obstacle,fitness,status,fail_reason
1,s08_terrain_compliance,evo_seed,0,,,,,,,,,,,8.74376,0.0125435,29.0288,0.0372484,3.8444,15.2603,14.6249,0.336,0.9405,0.045924,3.495,0.928,12.0,,,,,,0.786294,PASS,
2,s08_terrain_compliance,g000000_c0,0,,,,,,,,,,,2.069148053975505,0.36788704747218204,256.0364537512326,0.0988592569226809,4.0373,14.9927,14.5232,0.316,0.7922,0.118453,29.6431,0.926,12.0,,,,,,3.495506,PASS,
3,s08_terrain_compliance,g000000_c1,0,,,,,,,,,,,6.14355769308547,0.01,14.035718332685358,0.24430780787645864,3.8,14.1345,14.5382,0.32,0.8884,0.067422,1.8017,0.964,12.0,,,,,,1.538145,PASS,
4,s08_terrain_compliance,g000000_c2,0,,,,,,,,,,,3.7993337117771726,0.01,499.99999999999994,0.0030966088923848768,8.9407,23.258,28.2154,1.98,2.9059,0.105193,52.853,1.028,12.0,,,,,,4.821826,PASS,
5,s08_terrain_compliance,g000000_c3,0,,,,,,,,,,,3.4582221089497973,0.0685637426051959,2.1320328945358114,0.027785312560337526,3.9915,17.7861,15.1496,0.384,1.1123,0.11728,0.4524,0.926,12.0,,,,,,5.176324,PASS,
6,s08_terrain_compliance,g000000_c4,0,,,,,,,,,,,2.385565224874351,0.01,20.384825557863195,0.028491857355948298,3.9076,15.5346,14.9309,0.412,1.1038,0.119124,3.2714,0.906,12.0,,,,,,3.203997,PASS,
7,s08_terrain_compliance,g000000_c5,0,,,,,,,,,,,0.6937787701316753,0.05507629077173291,4.412319722640713,0.008223034744891576,3.9489,17.6797,14.146,0.262,0.7368,0.120963,0.7583,0.918,12.0,,,,,,8.223909,PASS,
8,s08_terrain_compliance,g000000_c6,0,,,,,,,,,,,100.0,0.01,3.53922016856303,0.00018169338324216093,7.2081,21.4323,29.2237,3.168,3.3195,0.019716,3.4002,0.95,12.0,,,,,,5.013924,PASS,
9,s08_terrain_compliance,g000000_c7,0,,,,,,,,,,,1.0454942808994563,0.01,362.6099570230838,0.27237183321942066,3.9309,16.9975,13.9779,0.272,0.6519,0.121122,39.5815,0.9,12.0,,,,,,6.465346,PASS,
10,s08_terrain_compliance,g000001_c0,1,,,,,,,,,,,12.224139313452184,0.02429518171589051,19.654323356977,0.007066193805850145,6.3516,15.7339,21.6881,1.482,2.2077,0.063816,10.9118,0.952,12.0,,,,,,1.319297,PASS,
11,s08_terrain_compliance,g000001_c1,1,,,,,,,,,,,1.140351722300551,0.01,1.6992499542252746,0.005439712170766746,3.9533,17.3519,14.271,0.274,0.7942,0.12054,0.3897,0.898,12.0,,,,,,8.176266,PASS,
12,s08_terrain_compliance,g000001_c2,1,,,,,,,,,,,0.4308191735418663,0.01,0.10140364154486098,0.004445693871150348,3.9427,17.6314,14.0962,0.286,0.7124,0.121367,0.0301,0.916,12.0,,,,,,8.255896,PASS,
13,s08_terrain_compliance,g000001_c3,1,,,,,,,,,,,100.0,0.01,40.93749906274457,0.08397466817964667,3.727,16.2254,15.237,0.396,1.3327,0.004906,7.2346,1.006,12.0,,,,,,1.734924,PASS,
14,s08_terrain_compliance,g000001_c4,1,,,,,,,,,,,2.005590214225667,0.01,335.35010859041296,0.2895310091625878,4.1183,15.3583,14.553,0.314,0.7872,0.117764,40.5368,0.904,12.0,,,,,,1.464481,PASS,
15,s08_terrain_compliance,g000001_c5,1,,,,,,,,,,,11.870422989759643,0.07121949249214049,2.080630639683644,0.019647393395748506,3.8595,15.4043,14.5456,0.318,0.908,0.032184,0.2981,0.944,12.0,,,,,,3.886726,PASS,
16,s08_terrain_compliance,g000001_c6,1,,,,,,,,,,,9.899697378707529,0.01,81.4622041690196,1.7119892071254212,3.859,15.4974,14.6633,0.338,0.9633,0.040479,13.9313,0.918,12.0,,,,,,1.291113,PASS,
17,s08_terrain_compliance,g000001_c7,1,,,,,,,,,,,3.10173413766221,0.01,1.8261909834627925,0.7103781801408297,3.9503,17.0929,14.3978,0.264,0.8398,0.117847,1.984,0.928,12.0,,,,,,2.848593,PASS,
18,s08_terrain_compliance,g000002_c0,2,,,,,,,,,,,9.688069906778864,0.01,33.17759164071816,0.0011677903553594954,7.7637,19.9308,26.7874,2.994,2.7083,0.078054,21.5016,0.918,12.0,,,,,,2.035357,PASS,
19,s08_terrain_compliance,g000002_c1,2,,,,,,,,,,,100.0,0.01,90.18473483740561,0.027271251909967324,13.4237,42.3566,30.6765,3.626,8.4702,0.124659,46.456,12.0,4.896,,,,,,228.472213,FAIL,fell over
20,s08_terrain_compliance,g000002_c2,2,,,,,,,,,,,33.12771533630561,0.21673384594250591,2.8239947322913608,1.6317912100542507,6.0093,23.7194,20.5702,0.742,2.1193,0.070584,200.1891,12.0,12.0,,,,,,8.660656,PASS,
21,s08_terrain_compliance,g000002_c3,2,,,,,,,,,,,20.906674227083666,0.01,88.17012559932348,0.02919991370705475,15.8674,56.3853,31.9316,3.176,9.2528,0.108465,43.6363,12.0,4.674,,,,,,227.522532,FAIL,fell over
22,s08_terrain_compliance,g000002_c4,2,,,,,,,,,,,9.823264325904008,0.018436276379240467,3.936694759256643,0.6006456660306936,3.8169,15.035,14.5665,0.304,0.9107,0.040174,1.0004,0.922,12.0,,,,,,4.807133,PASS,
23,s08_terrain_compliance,g000002_c5,2,,,,,,,,,,,2.2548145453261066,0.01,328.2798549970528,0.02241957333290982,5.0422,19.2381,15.0997,0.588,1.1,0.116687,46.0754,0.906,12.0,,,,,,4.281558,PASS,
24,s08_terrain_compliance,g000002_c6,2,,,,,,,,,,,27.633126080549385,1.455769334326017,2.38572782750501,0.009273525106175651,3.689,16.0891,14.8582,0.346,1.0727,0.013315,0.4225,0.946,12.0,,,,,,3.840771,PASS,
25,s08_terrain_compliance,g000002_c7,2,,,,,,,,,,,10.94663967446391,0.37322509817149757,499.99999999999994,0.05122720585778618,6.3482,18.6627,23.3791,1.138,2.3103,0.03828,88.5694,12.0,12.0,,,,,,2.588333,PASS,
26,s08_terrain_compliance,g000003_c0,3,,,,,,,,,,,1.4829537725755588,0.33913548526893894,91.33241865863745,0.035470401309049306,3.8804,16.9411,14.9077,0.3,1.0102,0.119218,10.9798,0.926,12.0,,,,,,5.840119,PASS,
27,s08_terrain_compliance,g000003_c1,3,,,,,,,,,,,0.36493959472697707,0.49662962599101435,78.22383108223158,0.3122449482921517,3.8963,17.6317,14.3371,0.284,0.81,0.119841,8.6634,0.928,12.0,,,,,,8.001791,PASS,
28,s08_terrain_compliance,g000003_c2,3,,,,,,,,,,,5.166271023071897,0.09284369522130295,499.99999999999994,0.19937846638844725,5.8781,19.0293,18.5799,0.776,1.9811,0.078134,61.4369,12.0,12.0,,,,,,5.976083,PASS,
29,s08_terrain_compliance,g000003_c3,3,,,,,,,,,,,89.77912493027873,0.01786258539371521,2.45184456222706,0.2719151746967763,3.7827,15.1735,14.4616,0.302,0.9217,0.004298,0.6644,0.946,12.0,,,,,,4.489157,PASS,
30,s08_terrain_compliance,g000003_c4,3,,,,,,,,,,,72.66549790032047,0.01,499.99999999999994,0.49996059565791007,7.6087,24.4163,32.9039,3.636,3.4986,0.136731,90.9053,12.0,12.0,,,,,,9.394526,PASS,
31,s08_terrain_compliance,g000003_c5,3,,,,,,,,,,,2.1994099285582003,0.05207316210298183,1.5207455624143706,0.0086875895883582,3.9241,17.5886,14.7518,0.288,0.941,0.118601,0.3405,0.92,12.0,,,,,,7.062348,PASS,
32,s08_terrain_compliance,g000003_c6,3,,,,,,,,,,,9.736835244094175,0.01,9.29825356445628,0.001439666294507901,4.2946,15.7288,14.7615,0.316,0.9302,0.042331,1.5212,0.918,12.0,,,,,,1.550152,PASS,
33,s08_terrain_compliance,g000003_c7,3,,,,,,,,,,,100.0,0.5985886028904314,324.2986284620153,1.4997041423492792,6.805,22.5562,23.92,0.488,2.3513,0.038868,165.1358,12.0,12.0,,,,,,3.503074,PASS,
34,s08_terrain_compliance,g000004_c0,4,,,,,,,,,,,30.77745719420505,0.020716521412321418,7.74182937794629,0.02049471967989117,3.8398,15.4811,14.6053,0.33,0.9554,0.012291,0.905,0.946,12.0,,,,,,1.545786,PASS,
35,s08_terrain_compliance,g000004_c1,4,,,,,,,,,,,28.607267021374632,0.5255359879238893,10.551422062479011,0.08275489612537039,3.8556,15.6366,14.595,0.33,0.9497,0.012644,1.2783,0.948,12.0,,,,,,1.341554,PASS,
36,s08_terrain_compliance,g000004_c2,4,,,,,,,,,,,2.9777951623912324,0.03314177227925777,68.31371113460054,0.023644043513898726,4.169,15.8246,14.7786,0.39,0.9419,0.118523,10.1987,0.936,12.0,,,,,,2.221939,PASS,
37,s08_terrain_compliance,g000004_c3,4,,,,,,,,,,,80.6821957126211,0.03134974344381888,98.22372003372085,0.2440319251301656,4.8844,21.8295,17.1678,0.57,1.6448,0.01569,23.6103,12.0,12.0,,,,,,4.574826,PASS,
38,s08_terrain_compliance,g000004_c4,4,,,,,,,,,,,0.3067362366924029,0.04885359888092258,23.386466854110264,0.004438594674582382,3.9415,17.8882,13.9999,0.282,0.6611,0.121169,3.0588,0.922,12.0,,,,,,8.328943,PASS,
39,s08_terrain_compliance,g000004_c5,4,,,,,,,,,,,2.9518102154336328,0.01,4.584827592828124,0.5065999440741702,3.9487,16.9534,14.6306,0.272,0.8998,0.118585,1.8527,0.922,12.0,,,,,,2.8006,PASS,
40,s08_terrain_compliance,g000004_c6,4,,,,,,,,,,,5.88531428619179,0.0861770832326257,8.520968331770778,0.1012651058776577,3.8048,14.3476,14.5527,0.32,0.8915,0.070318,1.0775,0.938,12.0,,,,,,1.965511,PASS,
41,s08_terrain_compliance,g000004_c7,4,,,,,,,,,,,100.0,0.01,14.77487335652079,0.07078507861856734,3.8632,15.9465,14.6186,0.338,0.9709,0.004176,2.0124,0.95,12.0,,,,,,1.039333,PASS,
42,s08_terrain_compliance,g000005_c0,5,,,,,,,,,,,22.55030206307438,0.01,11.709214546869097,0.009442468662942141,3.8799,15.8669,14.6333,0.334,0.959,0.016943,1.3808,0.946,12.0,,,,,,1.182176,PASS,
43,s08_terrain_compliance,g000005_c1,5,,,,,,,,,,,2.2591393934579056,0.01,499.99999999999994,0.006785659623439873,4.1492,15.4782,14.7837,0.34,0.9358,0.115327,55.2038,0.91,12.0,,,,,,1.539355,PASS,
44,s08_terrain_compliance,g000005_c2,5,,,,,,,,,,,18.833732815072917,0.02680450455181647,14.695242877454499,0.168501536159081,3.8723,15.7291,14.6348,0.334,0.9593,0.020457,1.7917,0.948,12.0,,,,,,1.219104,PASS,
45,s08_terrain_compliance,g000005_c3,5,,,,,,,,,,,0.11413496457241111,0.028028152826236084,15.497590153706424,3.7048847152312203,3.9555,18.1052,13.9699,0.352,0.6481,0.121331,15.5204,0.902,12.0,,,,,,8.462655,PASS,
46,s08_terrain_compliance,g000005_c4,5,,,,,,,,,,,4.787599278137985,0.01,1.334270588349274,0.0024869504155588256,3.8552,13.5737,14.6289,0.314,0.9033,0.089703,0.2207,0.94,12.0,,,,,,5.385623,PASS,
47,s08_terrain_compliance,g000005_c5,5,,,,,,,,,,,51.4234892732348,0.3331597737523078,281.79104692328235,0.0974193007562404,7.4802,17.9055,28.7282,4.94,3.0296,0.128047,74.0738,12.0,12.0,,,,,,10.163179,PASS,
48,s08_terrain_compliance,g000005_c6,5,,,,,,,,,,,0.3336333023061493,0.04948609513309021,33.81658912365162,0.014185550729210851,3.9451,17.7683,14.0536,0.298,0.691,0.121122,4.336,0.922,12.0,,,,,,8.557538,PASS,
49,s08_terrain_compliance,g000005_c7,5,,,,,,,,,,,64.35514370950769,0.01,60.271531164742974,0.0005574488694910501,10.936,31.9128,19.5978,2.844,7.0441,0.140837,45.8485,12.0,4.014,,,,,,210.719713,FAIL,fell over
50,s08_terrain_compliance,g000006_c0,6,,,,,,,,,,,16.107788499255353,0.02002748511545497,22.117536398652526,0.02574455190688163,3.8932,15.9238,14.6471,0.334,0.9595,0.024244,2.5839,0.938,12.0,,,,,,0.821373,PASS,
51,s08_terrain_compliance,g000006_c1,6,,,,,,,,,,,49.12817278265246,0.04730913573281714,2.6738571622167484,0.09167761162974171,3.8168,14.9731,14.5736,0.318,0.9409,0.007547,0.4016,0.95,12.0,,,,,,3.267379,PASS,
52,s08_terrain_compliance,g000006_c2,6,,,,,,,,,,,23.077571811690024,0.07032939552347897,27.649388287135316,0.004784601641799399,9.5229,24.9574,47.1167,5.456,5.5839,0.087657,27.3377,12.0,12.0,,,,,,24.10466,PASS,
53,s08_terrain_compliance,g000006_c3,6,,,,,,,,,,,14.945585910995657,0.01,0.6736567551837956,0.01759612827128999,3.8901,15.6073,14.4931,0.294,0.8751,0.025522,0.1296,0.94,12.0,,,,,,5.683421,PASS,
54,s08_terrain_compliance,g000006_c4,6,,,,,,,,,,,3.8047529025533766,0.036204934808196615,0.3627583822547042,0.079202921407272,3.889,17.6284,14.257,0.264,0.7894,0.115455,0.1768,0.946,12.0,,,,,,5.793155,PASS,
55,s08_terrain_compliance,g000006_c5,6,,,,,,,,,,,100.0,0.01,499.99999999999994,0.011439064350445172,13.7858,31.5441,30.5048,3.674,7.9783,0.168916,63.4137,12.0,5.386,,,,,,345.449438,FAIL,fell over
56,s08_terrain_compliance,g000006_c6,6,,,,,,,,,,,100.0,0.01,5.417478031965007,0.8390455406123126,12.1721,32.2506,73.3357,8.108,7.3742,0.105112,52.8273,12.0,12.0,,,,,,21.240354,PASS,
57,s08_terrain_compliance,g000006_c7,6,,,,,,,,,,,6.990885572928355,0.17103643959691722,2.134935418285473,0.0008352162743622053,3.886,15.0102,14.5178,0.316,0.906,0.057774,0.3593,0.938,12.0,,,,,,4.239122,PASS,
58,s08_terrain_compliance,g000007_c0,7,,,,,,,,,,,30.04890046494402,0.01,499.99999999999994,0.22214003346140127,16.5475,57.2539,23.6328,2.816,7.8055,0.10421,61.9415,12.0,4.498,,,,,,299.076626,FAIL,fell over
59,s08_terrain_compliance,g000007_c1,7,,,,,,,,,,,58.2264944548802,0.01732921010404074,486.576309880907,0.018409413897861212,13.2579,58.8327,18.1723,2.374,7.775,0.131065,63.0039,12.0,3.264,,,,,,256.630951,FAIL,fell over
60,s08_terrain_compliance,g000007_c2,7,,,,,,,,,,,100.0,0.01,102.22962080118273,0.060466292005503894,15.0649,57.8654,12.1348,1.428,6.784,0.119284,54.8824,12.0,3.098,,,,,,291.347512,FAIL,fell over
61,s08_terrain_compliance,g000007_c3,7,,,,,,,,,,,31.047817528046142,0.01,25.591297663455368,0.007072135202299991,14.7457,50.8639,10.2526,1.314,7.0698,0.078616,24.5534,12.0,2.86,,,,,,243.131471,FAIL,fell over
62,s08_terrain_compliance,g000007_c4,7,,,,,,,,,,,0.6191635034527708,0.14370976519414685,0.9106497898332022,0.006069139068004686,3.9199,17.3215,14.2092,0.268,0.7787,0.120281,0.1831,0.924,12.0,,,,,,8.175911,PASS,
63,s08_terrain_compliance,g000007_c5,7,,,,,,,,,,,2.661152556855972,0.07038310846919396,228.91949647901083,0.01428881880407333,4.1193,15.7225,14.6988,0.338,0.8646,0.114972,40.8386,0.922,12.0,,,,,,1.665656,PASS,
64,s08_terrain_compliance,g000007_c6,7,,,,,,,,,,,0.4063099491531891,0.01,285.17437139823073,21.107436474274348,3.9699,18.5834,13.8374,0.312,0.571,0.121365,43.357,0.914,12.0,,,,,,8.256535,PASS,
65,s08_terrain_compliance,g000007_c7,7,,,,,,,,,,,100.0,0.01,9.418901705797756,0.015664652236000248,3.8573,15.9461,14.5804,0.33,0.9563,0.004259,1.1704,0.95,12.0,,,,,,1.297494,PASS,
66,s08_terrain_compliance,g000008_c0,8,,,,,,,,,,,9.633906585501903,0.01,158.57158244161133,0.0029064210708112177,8.4291,22.0114,35.332,4.472,3.8599,0.074452,55.9172,12.0,12.0,,,,,,5.126131,PASS,
67,s08_terrain_compliance,g000008_c1,8,,,,,,,,,,,0.1,0.01,3.805959107226452,0.0005469910561121616,3.9674,18.1139,13.9941,0.426,0.658,0.121929,0.706,0.928,12.0,,,,,,8.621199,PASS,
68,s08_terrain_compliance,g000008_c2,8,,,,,,,,,,,3.6647489794416725,0.01,28.982819958713502,0.050911521964914976,4.0974,16.3942,14.139,0.324,0.8498,0.115925,3.8656,0.962,12.0,,,,,,1.844546,PASS,
69,s08_terrain_compliance,g000008_c3,8,,,,,,,,,,,9.989579155680143,0.06054947569694324,22.872716715422136,0.07292801364505969,3.8559,15.5366,14.6281,0.336,0.9463,0.039178,2.6605,0.934,12.0,,,,,,0.895655,PASS,
70,s08_terrain_compliance,g000008_c4,8,,,,,,,,,,,53.69809842971448,0.01,499.99999999999994,0.7040067635899105,14.3496,55.8689,10.7819,1.004,5.5558,0.120837,98.484,12.0,2.938,,,,,,275.435139,FAIL,fell over
71,s08_terrain_compliance,g000008_c5,8,,,,,,,,,,,100.0,0.011627878076293233,70.93567642686645,0.08266011759681702,17.576,56.322,23.9691,2.688,7.2328,0.08304,39.7411,12.0,4.35,,,,,,320.304485,FAIL,fell over
72,s08_terrain_compliance,g000008_c6,8,,,,,,,,,,,36.78819325962347,0.07201010454608733,218.2046702159816,0.029625439735991185,8.9956,31.9735,5.5721,0.922,4.7152,0.130998,74.3519,12.0,2.27,,,,,,204.185158,FAIL,fell over
73,s08_terrain_compliance,g000008_c7,8,,,,,,,,,,,1.1764587256364332,0.09196464497295923,14.182488308096579,0.006423184455744219,3.8859,17.1232,14.286,0.276,0.7779,0.120109,2.1014,0.922,12.0,,,,,,6.643604,PASS,
74,s08_terrain_compliance,g000009_c0,9,,,,,,,,,,,2.5175824805217046,0.01,3.153123100024958,0.002794092871466563,4.0965,17.9965,15.5718,0.44,1.293,0.117825,0.8286,0.908,12.0,,,,,,6.580875,PASS,
75,s08_terrain_compliance,g000009_c1,9,,,,,,,,,,,49.72917026306444,0.01,14.53612597597932,0.05702802407450999,3.8554,15.6455,14.6302,0.338,0.9759,0.00772,1.7675,0.95,12.0,,,,,,1.028571,PASS,
76,s08_terrain_compliance,g000009_c2,9,,,,,,,,,,,43.52452735151601,0.03671088858437964,267.98461213290835,0.0051453553213289096,11.5395,54.7314,33.3421,4.784,6.7824,0.159271,64.4666,12.0,6.832,,,,,,213.442168,FAIL,fell over
77,s08_terrain_compliance,g000009_c3,9,,,,,,,,,,,100.0,0.014857644238478806,5.861310764531173,0.21031478426260877,3.8199,15.3677,14.5659,0.326,0.9547,0.004287,1.1348,0.95,12.0,,,,,,2.44606,PASS,
78,s08_terrain_compliance,g000009_c4,9,,,,,,,,,,,100.0,0.01,1.2924206275660868,0.01964498288885413,3.8685,15.316,14.5053,0.304,0.8941,0.003857,0.1995,0.95,12.0,,,,,,3.974449,PASS,
79,s08_terrain_compliance,g000009_c5,9,,,,,,,,,,,73.79143484434466,0.01,32.833738008103744,0.001612031503282725,14.9601,38.3932,25.6417,3.586,7.2144,0.141555,32.204,12.0,5.0,,,,,,230.127208,FAIL,fell over
80,s08_terrain_compliance,g000009_c6,9,,,,,,,,,,,26.9089823643498,0.01,250.93270926188447,0.004224785777545721,11.1749,33.4987,10.7667,1.518,6.5467,0.132848,64.5311,12.0,2.792,,,,,,238.787419,FAIL,fell over
81,s08_terrain_compliance,g000009_c7,9,,,,,,,,,,,0.1,0.01,1.9645045647199126,0.02240298031776773,3.9795,18.4501,13.8957,0.376,0.609,0.121861,0.4372,0.928,12.0,,,,,,8.310302,PASS,
82,s08_terrain_compliance,g000010_c0,10,,,,,,,,,,,24.167953672882508,0.01,14.854436805233595,0.10280947237656632,3.8756,15.7626,14.652,0.336,0.9705,0.015879,1.7905,0.944,12.0,,,,,,1.093035,PASS,
83,s08_terrain_compliance,g000010_c1,10,,,,,,,,,,,1.1398361008610864,0.015620124206536152,11.720905154678187,0.045676147191702925,3.9241,16.962,14.1676,0.268,0.7486,0.120644,1.8263,0.93,12.0,,,,,,6.525903,PASS,
84,s08_terrain_compliance,g000010_c2,10,,,,,,,,,,,19.220518098041072,0.025135759375735034,1.3167353819720495,0.024826046763363953,3.9283,15.8444,14.5483,0.298,0.8916,0.019643,0.2038,0.948,12.0,,,,,,4.312329,PASS,
85,s08_terrain_compliance,g000010_c3,10,,,,,,,,,,,6.614692425189182,0.01,1.673417035397321,0.010734396252307635,3.9157,14.9882,14.4916,0.296,0.8364,0.062416,0.2436,0.96,12.0,,,,,,4.195701,PASS,
86,s08_terrain_compliance,g000010_c4,10,,,,,,,,,,,3.173582443339367,0.012496426298278535,3.7868395870788683,0.005269596591473856,4.0849,18.1072,15.2603,0.406,1.1586,0.116939,0.82,0.926,12.0,,,,,,4.683675,PASS,
87,s08_terrain_compliance,g000010_c5,10,,,,,,,,,,,100.0,0.034176468495555924,499.99999999999994,1.8468350430207388,8.9352,31.8352,7.292,0.394,5.0227,0.062512,174.7407,12.0,2.42,,,,,,210.147034,FAIL,fell over
88,s08_terrain_compliance,g000010_c6,10,,,,,,,,,,,0.992557127311645,0.01,16.15192940010665,0.05035475518152919,3.9292,17.0825,14.0783,0.26,0.6975,0.121088,2.1984,0.9,12.0,,,,,,7.043738,PASS,
89,s08_terrain_compliance,g000010_c7,10,,,,,,,,,,,14.614022532739634,0.01089589455992859,72.78586716952509,0.018914845016115192,11.3873,58.1359,10.9015,1.41,6.4035,0.075721,41.9568,12.0,2.834,,,,,,245.015255,FAIL,fell over
90,s08_terrain_compliance,g000011_c0,11,,,,,,,,,,,6.944437767828679,0.01,73.39180742150609,0.054963011090228976,3.8676,15.1362,14.6719,0.342,0.9516,0.059413,11.9862,0.966,12.0,,,,,,0.651421,PASS,
91,s08_terrain_compliance,g000011_c1,11,,,,,,,,,,,44.781865618378,0.01,198.03295073482724,0.05830313802113994,9.4103,19.7313,40.7216,6.332,4.4391,0.156008,68.574,12.0,12.0,,,,,,10.021428,PASS,
92,s08_terrain_compliance,g000011_c2,11,,,,,,,,,,,12.268844845237096,0.01557742090153945,10.698824475169861,0.001284193210390227,4.4841,15.6199,14.9192,0.324,0.9863,0.035385,2.0865,0.954,12.0,,,,,,1.328465,PASS,
93,s08_terrain_compliance,g000011_c3,11,,,,,,,,,,,60.02404044838825,0.01,0.5123405576621067,0.4762125962680378,3.7268,15.057,14.4552,0.336,0.916,0.006618,0.7324,0.948,12.0,,,,,,7.614103,PASS,
94,s08_terrain_compliance,g000011_c4,11,,,,,,,,,,,34.869808042157814,0.04374833660638762,15.66086112838991,0.17257339924117174,3.8588,15.6431,14.6314,0.332,0.9676,0.010837,2.0496,0.948,12.0,,,,,,1.112163,PASS,
95,s08_terrain_compliance,g000011_c5,11,,,,,,,,,,,27.509828505896067,0.025456541470303257,12.535481086159352,0.10193450900200068,3.8644,15.6697,14.6477,0.336,0.9725,0.013753,1.5027,0.948,12.0,,,,,,1.221705,PASS,
96,s08_terrain_compliance,g000011_c6,11,,,,,,,,,,,15.6548139629807,0.06365880900000712,32.00537748066074,0.005302971225879761,7.1295,19.4057,25.385,3.714,2.8288,0.059621,28.7534,0.942,12.0,,,,,,3.217589,PASS,
97,s08_terrain_compliance,g000011_c7,11,,,,,,,,,,,19.140471050135332,0.01,28.738557928774643,0.023447316646655194,6.2771,15.9815,20.1001,0.898,2.0045,0.043557,16.2041,0.95,12.0,,,,,,1.077223,PASS,
98,s08_terrain_compliance,g000012_c0,12,,,,,,,,,,,100.0,0.01,42.27237050919434,0.12312113968390608,3.8606,16.8089,14.7456,0.354,1.0436,0.004001,7.1384,0.964,12.0,,,,,,0.660825,PASS,
99,s08_terrain_compliance,g000012_c1,12,,,,,,,,,,,3.2979861819652174,0.01,274.7216905730637,0.012918123455752224,7.7898,16.4225,22.4377,0.648,2.1696,0.10861,43.9987,0.94,12.0,,,,,,2.326716,PASS,
100,s08_terrain_compliance,g000012_c2,12,,,,,,,,,,,38.62277600452201,0.01,111.82732109012338,0.038557143337274856,7.8606,25.7167,28.4069,5.16,2.9796,0.120716,60.7142,12.0,12.0,,,,,,3.23166,PASS,
101,s08_terrain_compliance,g000012_c3,12,,,,,,,,,,,19.69696431838641,0.01,179.56318107776698,0.1356402196408742,13.7573,58.1966,25.1564,2.748,7.9253,0.104729,54.1253,12.0,4.306,,,,,,337.247247,FAIL,fell over
102,s08_terrain_compliance,g000012_c4,12,,,,,,,,,,,3.141679125571487,0.01,135.79137365238876,0.21927196617625858,4.306,16.5612,14.5455,0.312,0.7704,0.115883,16.1487,0.93,12.0,,,,,,0.917643,PASS,
103,s08_terrain_compliance,g000012_c5,12,,,,,,,,,,,4.998029953641702,0.02003657419507347,21.18787631250876,0.06499760333500079,3.8625,14.5031,14.5716,0.326,0.8795,0.085015,2.6974,0.946,12.0,,,,,,1.234664,PASS,
104,s08_terrain_compliance,g000012_c6,12,,,,,,,,,,,20.731422634721213,0.01,147.56809120772814,0.24060582526717125,3.9536,15.3787,15.2154,0.366,1.0892,0.02622,28.8516,12.0,12.0,,,,,,0.576086,PASS,
105,s08_terrain_compliance,g000012_c7,12,,,,,,,,,,,14.614256844970773,0.03812746566116685,73.25019199273153,0.012491382694706378,9.2589,23.9298,52.0639,7.466,5.586,0.084593,44.0253,12.0,12.0,,,,,,18.632076,PASS,
106,s08_terrain_compliance,g000013_c0,13,,,,,,,,,,,9.928084356930219,0.016548441461817054,58.31904608453276,0.16290427843904512,3.8684,15.5772,14.6553,0.338,0.9562,0.040138,6.8799,0.922,12.0,,,,,,0.632828,PASS,
107,s08_terrain_compliance,g000013_c1,13,,,,,,,,,,,3.756983445636468,0.023099483538406112,499.99999999999994,1.3395092875529058,4.3064,17.0001,15.32,0.38,1.163,0.118093,65.3691,0.956,12.0,,,,,,2.065271,PASS,
108,s08_terrain_compliance,g000013_c2,13,,,,,,,,,,,35.82047512927054,0.0565322197456018,69.4742081919395,0.0464764345969706,8.9262,32.3512,31.1441,3.262,3.4249,0.106689,49.674,12.0,12.0,,,,,,5.07484,PASS,
109,s08_terrain_compliance,g000013_c3,13,,,,,,,,,,,90.26648820236284,0.01,499.99999999999994,0.31373251312885536,13.4664,56.0786,11.5053,1.654,6.3336,0.134959,73.986,12.0,2.902,,,,,,243.456068,FAIL,fell over
110,s08_terrain_compliance,g000013_c4,13,,,,,,,,,,,52.36730952192616,0.01,499.99999999999994,0.376192668827396,8.624,21.9933,40.7892,5.266,4.7649,0.150699,80.539,12.0,12.0,,,,,,9.517586,PASS,
111,s08_terrain_compliance,g000013_c5,13,,,,,,,,,,,59.201882647591454,0.02236291390501713,149.5568784956493,0.06730673001313286,13.5599,58.3474,13.3893,1.62,7.1951,0.134771,60.5816,12.0,3.102,,,,,,254.507816,FAIL,fell over
112,s08_terrain_compliance,g000013_c6,13,,,,,,,,,,,18.070520444790862,0.05266639040877325,106.68117591215271,0.49900225884130833,3.8519,15.9068,14.6488,0.342,0.9691,0.020987,15.3998,0.944,12.0,,,,,,0.55212,PASS,
113,s08_terrain_compliance,g000013_c7,13,,,,,,,,,,,54.357822040537066,0.01,481.25759104988225,0.14846997358918418,10.5675,32.9027,15.2605,2.216,6.87,0.14514,68.0668,12.0,3.466,,,,,,300.81593,FAIL,fell over
114,s08_terrain_compliance,g000014_c0,14,,,,,,,,,,,13.384025246155334,0.16321606463092406,35.89260226985279,0.03692856793027847,3.9505,16.2898,14.6182,0.326,0.9275,0.028398,4.2276,0.944,12.0,,,,,,0.634375,PASS,
115,s08_terrain_compliance,g000014_c1,14,,,,,,,,,,,29.065006320326336,0.01,124.18502211205275,0.24407353987968422,3.7071,15.9857,14.7534,0.352,1.0287,0.014483,20.4499,1.078,12.0,,,,,,0.480358,PASS,
116,s08_terrain_compliance,g000014_c2,14,,,,,,,,,,,53.98482852469056,0.15330914635961268,310.40242604175506,0.2902546700921385,15.9053,57.5602,17.5901,2.116,6.5599,0.109554,70.1364,12.0,3.824,,,,,,269.350065,FAIL,fell over
117,s08_terrain_compliance,g000014_c3,14,,,,,,,,,,,3.0196494017999123,0.3375219472796005,92.10570302598423,1.7066192217956575,4.2549,16.6144,14.4767,0.304,0.7489,0.117886,12.6786,0.928,12.0,,,,,,1.695673,PASS,
118,s08_terrain_compliance,g000014_c4,14,,,,,,,,,,,64.35985421127056,0.044100754534212395,51.49663579096067,1.0741015156043472,9.1109,23.913,47.7773,4.126,4.9994,0.049741,111.874,12.0,12.0,,,,,,2.117848,PASS,
119,s08_terrain_compliance,g000014_c5,14,,,,,,,,,,,16.052020715812503,0.025847170700809174,44.09846361904044,0.222678377848551,3.8884,15.8966,14.6577,0.336,0.9653,0.024238,5.4072,0.94,12.0,,,,,,0.657278,PASS,
120,s08_terrain_compliance,g000014_c6,14,,,,,,,,,,,44.50912694439826,0.01,27.968279376168404,0.23712033845215164,3.8352,15.5635,14.6357,0.34,0.9825,0.008648,4.1407,0.946,12.0,,,,,,0.848825,PASS,
121,s08_terrain_compliance,g000014_c7,14,,,,,,,,,,,9.233208114545533,0.03912415106145291,122.13396172322662,0.1704626635380946,3.8304,15.3682,14.6602,0.348,0.9701,0.042906,15.1455,0.93,12.0,,,,,,0.547855,PASS,
122,s08_terrain_compliance,g000015_c0,15,,,,,,,,,,,27.932185244518948,0.01,12.682489923065207,0.3579328430897307,3.8471,15.5098,14.6474,0.334,0.9757,0.013688,1.844,0.95,12.0,,,,,,1.760463,PASS,
123,s08_terrain_compliance,g000015_c1,15,,,,,,,,,,,12.272402948744976,0.50027429993328,393.4641130532742,2.172793407008528,3.7438,16.235,14.814,0.354,1.0362,0.030696,103.2665,0.956,12.0,,,,,,0.763742,PASS,
124,s08_terrain_compliance,g000015_c2,15,,,,,,,,,,,9.431269260117622,0.01,443.2064083347815,0.12584743555447273,8.7092,19.8044,40.2599,5.778,4.2772,0.076153,67.2527,12.0,12.0,,,,,,7.26675,PASS,
125,s08_terrain_compliance,g000015_c3,15,,,,,,,,,,,25.033572946424247,0.02031785300179577,499.99999999999994,0.01080480188446723,10.8926,32.7539,8.1155,1.264,5.7614,0.11487,74.0628,12.0,2.348,,,,,,204.903423,FAIL,fell over
126,s08_terrain_compliance,g000015_c4,15,,,,,,,,,,,12.004633159866524,0.01,499.99999999999994,0.05680448630825298,7.8057,25.2635,33.0204,5.574,3.6478,0.066337,71.3296,12.0,12.0,,,,,,7.251272,PASS,
127,s08_terrain_compliance,g000015_c5,15,,,,,,,,,,,19.002462673932126,0.01,23.544899098788253,1.6065622290062525,3.8524,15.6944,14.6407,0.328,0.9657,0.02047,6.2761,0.948,12.0,,,,,,2.931951,PASS,
128,s08_terrain_compliance,g000015_c6,15,,,,,,,,,,,50.5676745748179,0.030541535396193895,285.3481343812952,0.4735799325602076,13.082,58.8268,11.3847,0.802,6.2812,0.092922,83.9178,12.0,2.706,,,,,,228.536937,FAIL,fell over
129,s08_terrain_compliance,g000015_c7,15,,,,,,,,,,,22.245863803976505,0.01961496950938396,292.327902323501,0.2799778863774958,16.6637,55.626,19.3941,2.118,7.4101,0.092218,66.6592,12.0,3.552,,,,,,344.99661,FAIL,fell over
130,s08_terrain_compliance,g000016_c0,16,,,,,,,,,,,3.831307805989329,0.01,74.36085315161363,0.008313517804651433,8.0547,16.3639,28.1761,1.574,2.8565,0.116723,23.8261,0.922,12.0,,,,,,2.432943,PASS,
131,s08_terrain_compliance,g000016_c1,16,,,,,,,,,,,100.0,0.061329369335983035,129.3884941369829,0.2169683910878807,7.8019,19.5637,39.3226,1.842,4.2696,0.054452,48.2038,12.0,12.0,,,,,,9.731275,PASS,
132,s08_terrain_compliance,g000016_c2,16,,,,,,,,,,,100.0,0.01,16.064155864508564,1.2800963219493517,9.6924,25.1,73.3829,8.12,7.3983,0.126954,93.8978,12.0,12.0,,,,,,7.016525,PASS,
133,s08_terrain_compliance,g000016_c3,16,,,,,,,,,,,8.333628500908182,0.01,335.63120095352616,0.20159657128287342,7.3063,16.6201,28.4524,2.52,3.005,0.079355,68.3248,12.0,12.0,,,,,,8.345559,PASS,
134,s08_terrain_compliance,g000016_c4,16,,,,,,,,,,,16.570808198607928,0.02548259791526009,57.7831081433654,0.15332022978463378,3.8913,15.9149,14.6518,0.336,0.9624,0.023418,7.1992,0.94,12.0,,,,,,0.533687,PASS,
135,s08_terrain_compliance,g000016_c5,16,,,,,,,,,,,41.24652132929404,0.0326843017487724,220.84710405275038,0.06472192549123729,12.8088,33.0813,16.1909,1.986,7.5496,0.119832,61.305,12.0,3.274,,,,,,245.855678,FAIL,fell over
136,s08_terrain_compliance,g000016_c6,16,,,,,,,,,,,100.0,0.01,499.99999999999994,0.2592875791296677,7.7605,21.1363,30.4302,4.336,3.3251,0.147793,79.5756,12.0,12.0,,,,,,3.181424,PASS,
137,s08_terrain_compliance,g000016_c7,16,,,,,,,,,,,24.87393424682853,0.01,499.99999999999994,0.057961399790520576,12.4841,59.2649,10.516,1.396,6.5272,0.117852,72.3214,12.0,2.588,,,,,,251.562018,FAIL,fell over
138,s08_terrain_compliance,g000017_c0,17,,,,,,,,,,,27.112786725482287,0.4249600393668948,184.9546382337583,1.8133157253458208,6.3225,22.8655,19.907,0.474,1.8783,0.04066,202.14,12.0,12.0,,,,,,7.658293,PASS,
139,s08_terrain_compliance,g000017_c1,17,,,,,,,,,,,31.873336846408236,0.01,4.272885154039769,0.20377209746948755,3.8269,15.1827,14.6122,0.322,0.9586,0.011709,0.6809,0.946,12.0,,,,,,2.951699,PASS,
140,s08_terrain_compliance,g000017_c2,17,,,,,,,,,,,83.31652276152016,0.01,32.58567067132533,0.00029755149585560973,15.4467,56.4661,33.6708,4.078,8.741,0.140706,28.5531,12.0,5.18,,,,,,339.538954,FAIL,fell over
141,s08_terrain_compliance,g000017_c3,17,,,,,,,,,,,18.93457767877035,0.06805724045789993,499.99999999999994,0.004836401474143404,9.8065,24.6251,44.8812,6.91,4.8827,0.113968,72.3515,12.0,12.0,,,,,,5.24763,PASS,
142,s08_terrain_compliance,g000017_c4,17,,,,,,,,,,,14.292998092714733,0.01,431.07820515649075,1.7326956612705393,4.4979,15.5738,15.6502,0.372,1.292,0.04343,107.996,0.908,12.0,,,,,,1.625444,PASS,
143,s08_terrain_compliance,g000017_c5,17,,,,,,,,,,,13.836334547837543,0.01,193.7575107783614,0.041003045594545436,18.5889,57.2829,25.2724,3.434,7.5953,0.070642,47.1203,12.0,4.868,,,,,,289.111537,FAIL,fell over
144,s08_terrain_compliance,g000017_c6,17,,,,,,,,,,,28.801093022893117,0.01,0.7913521158259106,0.01565210014293348,3.8617,15.2007,14.5462,0.31,0.916,0.012848,0.1371,0.95,12.0,,,,,,5.129305,PASS,
145,s08_terrain_compliance,g000017_c7,17,,,,,,,,,,,52.5868415917447,0.01,10.66176899316041,0.4119430436807576,3.819,15.3276,14.5862,0.326,0.9611,0.007216,2.0985,0.948,12.0,,,,,,2.158133,PASS,
146,s08_terrain_compliance,g000018_c0,18,,,,,,,,,,,2.974545453893954,0.01,60.209492977472344,0.2019465737353383,3.8216,15.9148,14.2049,0.296,0.7891,0.119141,7.875,0.922,12.0,,,,,,1.814489,PASS,
147,s08_terrain_compliance,g000018_c1,18,,,,,,,,,,,100.0,0.11153735481680313,136.65722430185045,0.19211995126454343,7.9466,22.2171,34.7423,1.448,3.7177,0.070793,56.9865,12.0,12.0,,,,,,10.446511,PASS,
148,s08_terrain_compliance,g000018_c2,18,,,,,,,,,,,51.2864736213294,0.01,9.737241345990308,0.0061799882061121525,6.1467,19.1764,22.9864,2.398,2.4399,0.025435,8.3062,0.948,12.0,,,,,,2.283853,PASS,
149,s08_terrain_compliance,g000018_c3,18,,,,,,,,,,,3.0866531231032126,0.01,208.5700722631064,0.06671483261927254,7.4386,18.0115,20.1865,0.608,1.9566,0.102768,38.2614,0.926,12.0,,,,,,2.401939,PASS,
150,s08_terrain_compliance,g000018_c4,18,,,,,,,,,,,100.0,0.01,33.83945691199073,1.0785789145511329,10.6335,29.2036,66.3126,7.296,6.8667,0.105014,81.454,12.0,12.0,,,,,,32.981321,PASS,
151,s08_terrain_compliance,g000018_c5,18,,,,,,,,,,,100.0,0.05920795666217901,499.99999999999994,0.007701431154995305,13.2837,55.7306,39.0349,5.018,8.2512,0.167899,62.3385,12.0,6.436,,,,,,224.533616,FAIL,fell over
152,s08_terrain_compliance,g000018_c6,18,,,,,,,,,,,47.04194369994813,0.01,26.295954269061696,0.034083135944001273,4.0311,16.1272,14.978,0.4,1.1051,0.008981,5.5155,0.948,12.0,,,,,,0.68135,PASS,
153,s08_terrain_compliance,g000018_c7,18,,,,,,,,,,,0.4649299615635728,0.05435126894043128,10.261017187311435,0.03401226372516061,3.9269,17.7463,14.055,0.264,0.6859,0.120985,1.6071,0.916,12.0,,,,,,8.219695,PASS,
154,s08_terrain_compliance,g000019_c0,19,,,,,,,,,,,2.5051936830063775,0.5832509363370704,9.256160926463611,0.014073868364325724,3.94,16.8169,15.2666,0.308,1.1505,0.118166,1.7171,0.928,12.0,,,,,,6.418648,PASS,
155,s08_terrain_compliance,g000019_c1,19,,,,,,,,,,,11.632954181870934,0.02805318963486992,471.67426418546347,0.009015248926423164,7.6159,24.7361,31.7005,5.042,3.4646,0.056238,71.4857,12.0,12.0,,,,,,9.742067,PASS,
156,s08_terrain_compliance,g000019_c2,19,,,,,,,,,,,0.6618616512399772,0.27647905626016034,3.2961219781152344,0.058201740154876745,3.898,17.5207,14.3729,0.282,0.8243,0.120142,0.6609,0.926,12.0,,,,,,8.127805,PASS,
157,s08_terrain_compliance,g000019_c3,19,,,,,,,,,,,100.0,0.01,386.6977319301661,6.45210270442808,9.5028,27.815,32.4173,0.956,3.3607,0.128042,280.9328,12.0,12.0,,,,,,15.445461,PASS,
158,s08_terrain_compliance,g000019_c4,19,,,,,,,,,,,100.0,0.01,499.99999999999994,0.026339733544420412,11.9489,31.2424,10.9583,1.61,7.9124,0.146995,62.3374,12.0,2.362,,,,,,214.611872,FAIL,fell over
159,s08_terrain_compliance,g000019_c5,19,,,,,,,,,,,76.26722031863348,0.01710822576353629,499.99999999999994,1.2891889041916533,8.3073,27.9596,29.2946,1.106,3.2442,0.065837,145.4657,12.0,12.0,,,,,,13.899466,PASS,
160,s08_terrain_compliance,g000019_c6,19,,,,,,,,,,,100.0,0.06082185427562271,274.57909949007603,4.681424046124937,8.5703,24.9422,43.4141,2.388,5.2129,0.124807,269.6421,12.0,12.0,,,,,,14.670572,PASS,
161,s08_terrain_compliance,g000019_c7,19,,,,,,,,,,,20.144462327404554,0.02031778851091198,200.89780307810298,0.04382363847920198,9.2812,21.3102,42.3326,6.776,4.4897,0.123393,65.6614,12.0,12.0,,,,,,3.534258,PASS,
162,s08_terrain_compliance,g000020_c0,20,,,,,,,,,,,100.0,0.010942138499397349,375.53507900171036,4.191906872557828,8.6575,25.1414,39.1058,1.996,4.2131,0.129609,264.2644,12.0,12.0,,,,,,12.664374,PASS,
163,s08_terrain_compliance,g000020_c1,20,,,,,,,,,,,100.0,0.01,32.82823765817486,4.4950168964823805,13.8071,59.2792,30.2629,2.934,7.0493,0.164027,252.308,12.0,5.8,,,,,,219.72171,FAIL,fell over
164,s08_terrain_compliance,g000020_c2,20,,,,,,,,,,,97.55573259501942,0.04344536686882124,5.400962626388738,0.104694277756363,3.8385,15.4544,14.5687,0.322,0.945,0.003996,0.8208,0.95,12.0,,,,,,2.139638,PASS,
165,s08_terrain_compliance,g000020_c3,20,,,,,,,,,,,100.0,0.061373528704642695,399.2343846369401,0.07036412190802226,11.1781,35.8185,16.4166,2.274,7.4992,0.139179,64.6916,12.0,3.392,,,,,,266.768325,FAIL,fell over
166,s08_terrain_compliance,g000020_c4,20,,,,,,,,,,,0.2341798586521912,0.10959858674348208,332.8957488748066,0.11633402507166864,3.9405,17.8895,14.0466,0.262,0.6951,0.120673,35.7933,0.924,12.0,,,,,,8.356647,PASS,
167,s08_terrain_compliance,g000020_c5,20,,,,,,,,,,,100.0,0.03587395371505009,173.64241377362595,0.26831950154288353,8.5627,19.644,45.6961,2.632,5.1674,0.08345,65.5792,12.0,12.0,,,,,,1.845932,PASS,
168,s08_terrain_compliance,g000020_c6,20,,,,,,,,,,,9.83681166624255,0.025307254270775317,47.2751537598686,2.2510159523152695,3.8344,15.2817,14.6319,0.33,0.9507,0.040188,9.4584,0.924,12.0,,,,,,2.306787,PASS,
169,s08_terrain_compliance,g000020_c7,20,,,,,,,,,,,2.0379714033383043,0.01,499.99999999999994,0.3582737131168173,3.9681,14.9603,14.7665,0.338,0.9135,0.117449,59.1189,0.906,12.0,,,,,,2.262589,PASS,
170,s08_terrain_compliance,g000021_c0,21,,,,,,,,,,,100.0,0.043816515629712526,5.19639436177082,0.07208370763629014,3.8385,15.4007,14.5821,0.326,0.9525,0.003876,0.7185,0.95,12.0,,,,,,2.12085,PASS,
171,s08_terrain_compliance,g000021_c1,21,,,,,,,,,,,39.34650893097737,0.04235991061659169,499.99999999999994,0.8412875192907311,16.6205,56.2939,11.7329,0.988,5.8363,0.100499,105.4216,12.0,2.956,,,,,,259.857384,FAIL,fell over
172,s08_terrain_compliance,g000021_c2,21,,,,,,,,,,,6.0179570202202735,1.0850710785961413,3.706294750890859,0.12426565542953963,3.8814,14.6556,14.4943,0.314,0.8838,0.067355,0.6936,0.934,12.0,,,,,,4.064869,PASS,
173,s08_terrain_compliance,g000021_c3,21,,,,,,,,,,,100.0,0.07718637388198378,37.731988519199156,0.23521540098418772,3.8542,16.5163,14.7143,0.35,1.0296,0.003899,8.6964,0.956,12.0,,,,,,0.825044,PASS,
174,s08_terrain_compliance,g000021_c4,21,,,,,,,,,,,23.47324742816044,0.01,499.99999999999994,1.034527033543721,6.1761,22.3831,22.5812,0.824,2.3576,0.052995,119.9944,12.0,12.0,,,,,,9.932535,PASS,
175,s08_terrain_compliance,g000021_c5,21,,,,,,,,,,,2.0534983709776626,0.0245327131631649,53.72888714521423,3.8091730032441804,4.1247,15.1764,14.5075,0.294,0.7596,0.117992,9.554,0.924,12.0,,,,,,2.233003,PASS,
176,s08_terrain_compliance,g000021_c6,21,,,,,,,,,,,19.44364622654202,0.01,499.99999999999994,0.004396808148384377,19.3742,44.8491,31.9916,3.884,8.9817,0.089485,50.8348,12.0,4.902,,,,,,345.004184,FAIL,fell over
177,s08_terrain_compliance,g000021_c7,21,,,,,,,,,,,21.692359484490773,0.01,499.99999999999994,0.020487428421269983,14.0082,35.6794,16.0085,2.122,7.3407,0.113552,62.3643,12.0,3.166,,,,,,344.937717,FAIL,fell over
178,s08_terrain_compliance,g000022_c0,22,,,,,,,,,,,94.46137679829044,0.039808245671090675,47.86019072163872,2.1616351434160967,10.4864,25.1843,63.4494,6.5,6.8498,0.131633,189.3712,12.0,12.0,,,,,,10.942209,PASS,
179,s08_terrain_compliance,g000022_c1,22,,,,,,,,,,,5.146551981638678,0.01798953459381043,5.6626405996590305,1.7672401385527392,3.7974,13.9944,14.5346,0.304,0.8692,0.081769,2.176,0.952,12.0,,,,,,5.584566,PASS,
180,s08_terrain_compliance,g000022_c2,22,,,,,,,,,,,23.331678600134296,0.0373192016190593,499.99999999999994,0.01554498115435884,11.0633,32.8321,12.4616,1.772,6.2148,0.107305,63.8866,12.0,3.024,,,,,,324.573775,FAIL,fell over
181,s08_terrain_compliance,g000022_c3,22,,,,,,,,,,,0.24394966163805284,0.7279791203675392,1.4866318936689806,6.104218354206079,3.8935,17.5684,14.4497,0.288,0.8524,0.119549,19.8299,0.928,12.0,,,,,,7.993122,PASS,
182,s08_terrain_compliance,g000022_c4,22,,,,,,,,,,,100.0,0.10214490702362612,4.9941672315121375,0.38147728214667603,3.7873,15.2711,14.516,0.314,0.9438,0.003739,2.2377,0.95,12.0,,,,,,3.555784,PASS,
183,s08_terrain_compliance,g000022_c5,22,,,,,,,,,,,1.1645488505157127,0.017752567275781117,35.34145409770135,1.0753345867392559,3.9289,16.6598,13.9751,0.272,0.6563,0.12074,4.4843,0.93,12.0,,,,,,5.677187,PASS,
184,s08_terrain_compliance,g000022_c6,22,,,,,,,,,,,9.758277182523965,0.01,499.99999999999994,0.7219140271304748,6.9125,27.6547,21.7201,0.812,2.3035,0.066508,93.0939,12.0,12.0,,,,,,3.856078,PASS,
185,s08_terrain_compliance,g000022_c7,22,,,,,,,,,,,100.0,0.013001525422366971,390.8484613540676,0.41917469022504933,15.4496,56.0686,13.6354,1.336,6.6697,0.117494,80.0409,12.0,3.276,,,,,,247.995445,FAIL,fell over
186,s08_terrain_compliance,g000023_c0,23,,,,,,,,,,,100.0,0.01,17.08673434252172,0.8295488247458078,11.8232,27.0952,57.0504,6.478,5.9158,0.067947,62.4052,12.0,12.0,,,,,,8.141591,PASS,
187,s08_terrain_compliance,g000023_c1,23,,,,,,,,,,,30.245672123986342,0.01,6.0104312412423875,1.0431552988568868,3.7979,15.4413,14.5822,0.314,0.9495,0.012356,1.8517,0.948,12.0,,,,,,5.136067,PASS,
188,s08_terrain_compliance,g000023_c2,23,,,,,,,,,,,6.0622870608879245,0.01,44.073654903715834,0.11273073318694489,3.8317,14.4759,14.5814,0.33,0.9046,0.068664,5.1467,0.964,12.0,,,,,,0.797974,PASS,
189,s08_terrain_compliance,g000023_c3,23,,,,,,,,,,,26.7312179975399,0.06972257460761873,6.4133458537840085,0.06294123581259463,3.8572,15.5163,14.6183,0.328,0.957,0.013844,0.7965,0.948,12.0,,,,,,1.843867,PASS,
190,s08_terrain_compliance,g000023_c4,23,,,,,,,,,,,100.0,0.8140903437337239,378.5931921377311,0.05785543629141824,8.5511,18.9596,33.7017,6.502,3.5743,0.138032,71.9114,12.0,12.0,,,,,,10.908783,PASS,
191,s08_terrain_compliance,g000023_c5,23,,,,,,,,,,,14.986087902772306,0.026955142842665144,285.4536397780353,0.09385680314984446,18.5524,50.2522,20.4176,2.252,8.7292,0.077048,60.1876,12.0,3.632,,,,,,345.097689,FAIL,fell over
192,s08_terrain_compliance,g000023_c6,23,,,,,,,,,,,0.5995907945759646,0.20309231983383674,333.5269144971343,2.0307496711088255,3.918,17.6559,14.1784,0.28,0.759,0.120315,37.8138,0.926,12.0,,,,,,8.145963,PASS,
193,s08_terrain_compliance,g000023_c7,23,,,,,,,,,,,4.52853120725557,0.013518187046349432,24.703466265111057,0.04007312341301891,4.0711,14.265,14.7916,0.326,0.906,0.093982,3.9759,0.914,12.0,,,,,,1.440506,PASS,
194,s08_terrain_compliance,g000024_c0,24,,,,,,,,,,,1.3126065084413068,0.16367773947904435,367.84786457252534,0.029814019964546752,4.0729,14.9341,14.4162,0.302,0.7268,0.119455,42.3847,0.924,12.0,,,,,,4.782465,PASS,
195,s08_terrain_compliance,g000024_c1,24,,,,,,,,,,,71.90172862008237,0.018118698783369906,76.76706723987975,0.687438423859529,6.7585,21.2873,22.7065,0.628,2.3819,0.019996,66.4689,12.0,12.0,,,,,,7.909858,PASS,
196,s08_terrain_compliance,g000024_c2,24,,,,,,,,,,,100.0,0.014355592869962318,99.72554053095877,0.32285013420763864,5.0288,16.3696,17.8133,0.744,2.0463,0.011896,28.3505,12.0,12.0,,,,,,6.453302,PASS,
197,s08_terrain_compliance,g000024_c3,24,,,,,,,,,,,100.0,0.01265931743983178,87.07070739127998,0.48606876050755526,9.0904,36.6581,6.2759,0.496,4.6787,0.034846,43.7547,12.0,2.51,,,,,,205.4937,FAIL,fell over
198,s08_terrain_compliance,g000024_c4,24,,,,,,,,,,,100.0,0.01,59.735951248131826,0.10891071506717126,4.4494,16.5734,17.4702,0.774,1.8855,0.016428,14.8375,12.0,12.0,,,,,,4.651358,PASS,
199,s08_terrain_compliance,g000024_c5,24,,,,,,,,,,,100.0,0.014299129370482631,125.74489942923498,0.37504157857214143,12.8617,57.0466,12.9218,1.27,6.6951,0.023683,33.6928,12.0,3.31,,,,,,269.99701,FAIL,fell over
200,s08_terrain_compliance,g000024_c6,24,,,,,,,,,,,4.795101542551761,0.07008886395114283,198.35262140125457,8.271374918181117,3.9397,15.566,14.7067,0.326,0.9188,0.089265,253.409,0.928,12.0,,,,,,2.531316,PASS,
201,s08_terrain_compliance,g000024_c7,24,,,,,,,,,,,10.352496847005277,0.07840127336264559,81.17345857139134,0.008738593137971944,7.0285,22.6519,26.1788,2.604,2.9332,0.054254,42.3912,12.0,12.0,,,,,,7.159048,PASS,
202,s08_terrain_compliance,g000025_c0,25,,,,,,,,,,,23.41654594360751,0.01,75.51965919271976,0.4369765346963186,3.8655,15.9876,14.6877,0.346,0.9921,0.016401,10.9261,0.944,12.0,,,,,,0.602318,PASS,
203,s08_terrain_compliance,g000025_c1,25,,,,,,,,,,,100.0,0.10784832943156836,92.82675537249347,0.09086583371862593,7.7549,18.0105,29.3891,2.174,3.0509,0.10554,57.8967,12.0,12.0,,,,,,5.766793,PASS,
204,s08_terrain_compliance,g000025_c2,25,,,,,,,,,,,64.36524806941895,0.01024369726654696,43.19717451433089,0.388126968619466,3.8688,16.3961,14.7111,0.358,1.0291,0.005811,9.6619,0.956,12.0,,,,,,0.850906,PASS,
205,s08_terrain_compliance,g000025_c3,25,,,,,,,,,,,64.96929422807325,0.01,142.2814390652913,0.2646037726331748,5.9735,26.5754,22.0607,0.974,2.3855,0.034199,36.2447,12.0,12.0,,,,,,9.183945,PASS,
206,s08_terrain_compliance,g000025_c4,25,,,,,,,,,,,29.260159621163496,0.01,143.01169658170366,0.19581717809242682,8.0183,27.478,23.6459,0.956,2.5562,0.067413,54.0963,12.0,12.0,,,,,,11.771896,PASS,
207,s08_terrain_compliance,g000025_c5,25,,,,,,,,,,,100.0,0.019137098714817734,55.97100000298247,0.09646433642946484,4.5682,17.0069,17.2358,0.656,1.6059,0.025065,16.0125,12.0,12.0,,,,,,3.691282,PASS,
208,s08_terrain_compliance,g000025_c6,25,,,,,,,,,,,90.6796210333811,0.03213878088865501,297.1348826305887,0.13307547890765797,12.441,56.4979,12.3901,1.472,7.4974,0.131818,68.5288,12.0,3.074,,,,,,280.246085,FAIL,fell over
209,s08_terrain_compliance,g000025_c7,25,,,,,,,,,,,14.48626185755163,0.01,285.196038139911,0.2512954917380973,17.1075,56.4822,12.0494,1.282,6.1314,0.060484,68.0811,12.0,3.162,,,,,,242.379352,FAIL,fell over
210,s08_terrain_compliance,g000026_c0,26,,,,,,,,,,,100.0,0.01,108.00383402478961,0.604049897279176,15.2585,39.1237,22.229,1.816,8.5408,0.073676,46.9913,12.0,3.822,,,,,,301.043615,FAIL,fell over
211,s08_terrain_compliance,g000026_c1,26,,,,,,,,,,,9.600920765371537,0.013361302607129968,187.219291091089,0.16731213431099823,7.6752,18.2997,28.7474,2.172,2.9693,0.071802,60.2411,12.0,12.0,,,,,,4.742536,PASS,
212,s08_terrain_compliance,g000026_c2,26,,,,,,,,,,,100.0,0.01,499.99999999999994,0.5440928304369331,12.7482,33.2065,14.5197,1.566,6.6154,0.142475,82.9619,12.0,3.544,,,,,,218.275456,FAIL,fell over
213,s08_terrain_compliance,g000026_c3,26,,,,,,,,,,,100.0,0.010991817486712754,226.15547591790275,0.259407977904458,9.4067,31.0174,34.8677,1.608,3.7024,0.12166,83.4742,12.0,12.0,,,,,,4.797132,PASS,
214,s08_terrain_compliance,g000026_c4,26,,,,,,,,,,,76.97631812187075,0.012665253654839812,55.03445763988328,0.44648283841222675,3.9756,17.6789,15.0146,0.366,1.1503,0.006479,20.2653,0.954,12.0,,,,,,0.941924,PASS,
215,s08_terrain_compliance,g000026_c5,26,,,,,,,,,,,20.127780785748524,0.01,499.99999999999994,0.32289472276567677,15.5566,58.9294,10.5529,1.432,5.8308,0.116969,70.6006,12.0,2.868,,,,,,232.316197,FAIL,fell over
216,s08_terrain_compliance,g000026_c6,26,,,,,,,,,,,5.06945790076348,0.09022900074165781,252.85097084110137,0.1257704387228991,4.9768,17.5895,17.4646,0.656,1.8716,0.080461,50.0365,12.0,12.0,,,,,,4.291528,PASS,
217,s08_terrain_compliance,g000026_c7,26,,,,,,,,,,,46.60189494262377,0.027514315907379887,21.078258160576322,0.16418838597077826,3.8442,15.5679,14.6123,0.334,0.9695,0.008154,2.793,0.948,12.0,,,,,,0.902054,PASS,
218,s08_terrain_compliance,g000027_c0,27,,,,,,,,,,,5.892290741685766,0.02048707992124825,38.45237050952149,0.15808566107930352,3.8413,14.5631,14.5922,0.33,0.9057,0.070658,4.58,0.962,12.0,,,,,,0.87791,PASS,
219,s08_terrain_compliance,g000027_c1,27,,,,,,,,,,,9.109710886728713,0.01,461.7230276134443,0.858253766621876,3.7808,16.6272,14.8455,0.344,1.0617,0.044709,78.4047,1.002,12.0,,,,,,0.674193,PASS,
220,s08_terrain_compliance,g000027_c2,27,,,,,,,,,,,100.0,0.01,71.97718974163627,0.35003475897692937,4.4365,17.3906,16.1497,0.552,1.6437,0.006027,24.7767,12.0,12.0,,,,,,6.209671,PASS,
221,s08_terrain_compliance,g000027_c3,27,,,,,,,,,,,22.111821237088282,0.01,74.9230449687999,0.5642759001978549,3.8702,15.9025,14.6633,0.34,0.979,0.017467,11.294,0.948,12.0,,,,,,0.670898,PASS,
222,s08_terrain_compliance,g000027_c4,27,,,,,,,,,,,10.983026369441152,0.015004852214072847,154.44663539121512,0.38728102904910583,3.8457,15.6464,14.6662,0.344,0.9694,0.035896,19.8272,0.936,12.0,,,,,,0.507039,PASS,
223,s08_terrain_compliance,g000027_c5,27,,,,,,,,,,,27.369505850613216,0.014961627053046583,64.76274198214523,0.2868402686409036,3.8566,15.9015,14.664,0.344,0.983,0.014046,8.846,0.948,12.0,,,,,,0.54174,PASS,
224,s08_terrain_compliance,g000027_c6,27,,,,,,,,,,,69.5179241159236,0.01,67.60924475580728,0.2746278640356455,3.8779,16.8718,14.7083,0.352,1.0031,0.005587,13.3531,0.972,12.0,,,,,,0.616234,PASS,
225,s08_terrain_compliance,g000027_c7,27,,,,,,,,,,,22.066230005220476,0.013641633632125352,33.947486872509174,0.15559020208655996,3.8706,15.8712,14.6707,0.342,0.9817,0.017413,4.1371,0.946,12.0,,,,,,0.703114,PASS,
226,s08_terrain_compliance,g000028_c0,28,,,,,,,,,,,27.180189936378984,0.01200447430922514,167.4778784401995,0.7159755404896136,3.7742,15.9738,14.8252,0.36,1.0613,0.014598,33.8302,0.988,12.0,,,,,,0.614649,PASS,
227,s08_terrain_compliance,g000028_c1,28,,,,,,,,,,,7.800711658471437,0.01,499.99999999999994,0.16854699215729654,15.6054,34.0589,19.1613,1.8,8.7117,0.0834,58.0257,12.0,3.49,,,,,,344.91191,FAIL,fell over
228,s08_terrain_compliance,g000028_c2,28,,,,,,,,,,,5.179502297737036,0.01,41.07607188774421,0.3350201966741244,3.8485,14.3748,14.6038,0.332,0.9038,0.081496,5.0006,0.95,12.0,,,,,,1.022808,PASS,
229,s08_terrain_compliance,g000028_c3,28,,,,,,,,,,,25.32406667906415,0.01706896981175798,90.11760190991265,0.16332426620645993,3.8699,16.2247,14.7098,0.354,1.0213,0.015173,12.7737,0.948,12.0,,,,,,0.506092,PASS,
230,s08_terrain_compliance,g000028_c4,28,,,,,,,,,,,8.321724850473553,0.01,111.22463577876418,0.2809570550072323,3.8409,15.2071,14.6853,0.346,0.9722,0.048624,13.6558,0.936,12.0,,,,,,0.592476,PASS,
231,s08_terrain_compliance,g000028_c5,28,,,,,,,,,,,47.943497055271415,0.01,26.920893717476595,0.2272952030555358,3.8573,15.7637,14.6327,0.336,0.9763,0.00805,3.8585,0.95,12.0,,,,,,0.840439,PASS,
232,s08_terrain_compliance,g000028_c6,28,,,,,,,,,,,47.49330975951347,0.01,32.98882507240738,0.12908606902429032,3.9077,16.1042,14.596,0.324,0.9482,0.008137,4.3539,0.95,12.0,,,,,,0.614719,PASS,
233,s08_terrain_compliance,g000028_c7,28,,,,,,,,,,,19.072186446150067,0.01,28.66253434994725,0.6843744003142981,3.8826,15.8135,14.6528,0.332,0.9654,0.020696,4.4487,0.95,12.0,,,,,,1.361707,PASS,
234,s08_terrain_compliance,g000029_c0,29,,,,,,,,,,,30.214405293833295,0.01,87.67812658697481,0.11100155944353486,17.6629,56.9158,12.4119,1.104,6.6155,0.075747,46.0909,12.0,3.066,,,,,,250.259279,FAIL,fell over
235,s08_terrain_compliance,g000029_c1,29,,,,,,,,,,,26.9980887254435,0.01,144.29462076171743,0.2007658803918376,7.0318,20.8496,23.2037,0.958,2.5057,0.055206,53.5745,12.0,12.0,,,,,,6.088209,PASS,
236,s08_terrain_compliance,g000029_c2,29,,,,,,,,,,,17.734633961597,0.01,69.88001898460026,0.315204444045433,3.9129,16.0391,14.642,0.332,0.9526,0.022293,9.0987,0.942,12.0,,,,,,0.542867,PASS,
237,s08_terrain_compliance,g000029_c3,29,,,,,,,,,,,37.173225141458886,0.01,339.0598123845663,0.36095359840107916,8.8051,36.2881,7.35,0.594,5.5459,0.123196,86.1342,12.0,2.506,,,,,,204.958874,FAIL,fell over
238,s08_terrain_compliance,g000029_c4,29,,,,,,,,,,,31.503064897751337,0.01744310755335075,223.85778571141273,0.1837483363671025,11.5715,58.5656,14.228,1.37,6.9278,0.108992,68.0632,12.0,3.176,,,,,,245.430945,FAIL,fell over
239,s08_terrain_compliance,g000029_c5,29,,,,,,,,,,,34.72309775890787,0.01,112.48146204322859,0.5012863712833079,3.8364,16.1182,14.7433,0.362,1.0405,0.010925,21.0717,0.958,12.0,,,,,,0.597725,PASS,
240,s08_terrain_compliance,g000029_c6,29,,,,,,,,,,,17.272903315421864,0.011111726418092029,329.12350620981204,0.32775154679550944,16.4627,47.7236,22.2661,2.552,7.6812,0.092298,65.722,12.0,4.22,,,,,,226.961671,FAIL,fell over
241,s08_terrain_compliance,g000029_c7,29,,,,,,,,,,,71.9972634165029,0.01,315.2822885530693,0.1166944157736666,12.4268,32.043,21.5451,2.852,7.4147,0.153598,68.6681,12.0,4.178,,,,,,220.634522,FAIL,fell over
242,s08_terrain_compliance,g000030_c0,30,,,,,,,,,,,23.913631896555568,0.01,126.5594981569502,0.26149370581739473,3.7702,16.3083,14.7483,0.358,1.0278,0.016234,19.0495,1.014,12.0,,,,,,0.455868,PASS,
243,s08_terrain_compliance,g000030_c1,30,,,,,,,,,,,26.577677206244573,0.01,86.6104406063499,0.24087162068946338,3.8589,15.9774,14.6447,0.34,0.9709,0.014493,11.9781,0.948,12.0,,,,,,0.472771,PASS,
244,s08_terrain_compliance,g000030_c2,30,,,,,,,,,,,30.982300054658808,0.010190882294165765,161.3017818740586,0.23842234906619156,6.6106,20.2465,22.419,0.684,2.4874,0.05066,53.9911,12.0,12.0,,,,,,7.121663,PASS,
245,s08_terrain_compliance,g000030_c3,30,,,,,,,,,,,35.98995261379782,0.012480168597179002,46.52570351129869,0.2121246792156176,3.8424,15.7771,14.6485,0.338,0.9757,0.010917,6.5793,0.948,12.0,,,,,,0.593654,PASS,
246,s08_terrain_compliance,g000030_c4,30,,,,,,,,,,,27.439214700484857,0.011457404410564502,118.21738776897602,0.27491338594772885,3.7929,15.9966,14.7151,0.348,1.0115,0.014441,17.56,0.976,12.0,,,,,,0.474397,PASS,
247,s08_terrain_compliance,g000030_c5,30,,,,,,,,,,,26.894430413617837,0.01356471728526208,293.4300918462084,0.25039090886151566,10.0177,33.1254,37.7439,4.246,4.5249,0.126273,78.3297,12.0,12.0,,,,,,31.01102,PASS,
248,s08_terrain_compliance,g000030_c6,30,,,,,,,,,,,76.25513731042616,0.01,52.86604152759934,0.11228767505802542,3.9743,16.3502,15.2748,0.442,1.2183,0.00661,8.9974,1.006,12.0,,,,,,1.14983,PASS,
249,s08_terrain_compliance,g000030_c7,30,,,,,,,,,,,24.47907366868616,0.011612999672806662,73.82149520264859,0.19669641910388813,3.8341,15.942,14.691,0.35,1.0051,0.015628,9.8019,0.946,12.0,,,,,,0.495053,PASS,
250,s08_terrain_compliance,g000031_c0,31,,,,,,,,,,,28.038742051404885,0.01,89.67645056469115,0.45144264001215534,3.858,15.9543,14.6693,0.34,0.9842,0.013796,14.24,0.95,12.0,,,,,,0.574179,PASS,
251,s08_terrain_compliance,g000031_c1,31,,,,,,,,,,,25.69155899097956,0.011577477634930404,96.9049477204044,0.22426418795468928,3.8325,15.9894,14.7037,0.354,1.0084,0.015052,13.5779,0.956,12.0,,,,,,0.468154,PASS,
252,s08_terrain_compliance,g000031_c2,31,,,,,,,,,,,32.66791828725345,0.01,87.55029975526159,0.27116883736495334,3.8195,15.9714,14.7152,0.354,1.0161,0.011899,12.8685,0.95,12.0,,,,,,0.503168,PASS,
253,s08_terrain_compliance,g000031_c3,31,,,,,,,,,,,25.31560387727505,0.01,57.88879577873709,0.5865140804377095,3.8504,15.7776,14.6494,0.34,0.978,0.015176,9.4096,0.946,12.0,,,,,,0.794135,PASS,
254,s08_terrain_compliance,g000031_c4,31,,,,,,,,,,,31.15485069954811,0.02035662182056163,133.95391244542085,0.29555475149285065,3.9501,16.9639,15.834,0.462,1.5652,0.01546,23.2261,1.058,12.0,,,,,,4.910261,PASS,
255,s08_terrain_compliance,g000031_c5,31,,,,,,,,,,,33.349158166783845,0.01,185.3657749588908,0.3004256204126585,4.9986,18.6573,19.5306,0.67,1.8473,0.041643,51.7558,12.0,12.0,,,,,,5.167912,PASS,
256,s08_terrain_compliance,g000031_c6,31,,,,,,,,,,,27.20661003899732,0.01214664578201458,71.98441831617474,0.290137451998353,3.8518,15.9506,14.695,0.348,1.0011,0.014174,10.0133,0.948,12.0,,,,,,0.533876,PASS,
257,s08_terrain_compliance,g000031_c7,31,,,,,,,,,,,21.110164730920495,0.018349700286636968,78.47810792220474,0.2872685683975244,3.8489,15.8873,14.6556,0.342,0.9749,0.01807,10.298,0.948,12.0,,,,,,0.513166,PASS,
258,s08_terrain_compliance,g000032_c0,32,,,,,,,,,,,24.588675929129934,0.01557817357204156,69.29594485056724,0.20702595424984205,3.8499,15.9109,14.6573,0.34,0.9776,0.015451,9.1437,0.944,12.0,,,,,,0.496424,PASS,
259,s08_terrain_compliance,g000032_c1,32,,,,,,,,,,,32.221638900205626,0.01,169.38510430187273,0.27863214198415126,6.4091,24.3361,23.0796,0.766,2.8604,0.048788,43.9818,12.0,12.0,,,,,,2.682063,PASS,
260,s08_terrain_compliance,g000032_c2,32,,,,,,,,,,,28.495538862162775,0.01,135.09246696670948,0.33950034739944546,3.8218,16.4093,14.9949,0.364,1.1529,0.013947,21.7706,0.99,12.0,,,,,,0.841655,PASS,
261,s08_terrain_compliance,g000032_c3,32,,,,,,,,,,,32.49602172884365,0.014366604542794295,159.43960075449954,0.27620231017366514,4.8688,20.192,17.8045,0.506,1.5582,0.027576,36.2349,12.0,12.0,,,,,,4.852342,PASS,
262,s08_terrain_compliance,g000032_c4,32,,,,,,,,,,,27.732806627252007,0.01,174.85101173310335,0.21940498463335317,8.5439,20.6806,32.6038,1.98,3.365,0.100957,70.514,12.0,12.0,,,,,,3.264824,PASS,
263,s08_terrain_compliance,g000032_c5,32,,,,,,,,,,,44.55059903473453,0.0111043019027017,135.33935386124986,0.2614352971001468,4.628,20.8493,16.1639,0.574,1.4224,0.021127,29.071,12.0,12.0,,,,,,5.533638,PASS,
264,s08_terrain_compliance,g000032_c6,32,,,,,,,,,,,24.620983056950152,0.01,228.1470818433642,0.2173287930196469,8.5237,20.0068,31.7142,2.566,3.3326,0.114043,80.0215,12.0,12.0,,,,,,9.543837,PASS,
265,s08_terrain_compliance,g000032_c7,32,,,,,,,,,,,31.25695320999397,0.010384545682127698,152.8835142335691,0.3207402148263045,4.0207,16.4145,15.3108,0.448,1.3226,0.020244,27.7999,3.014,12.0,,,,,,0.953789,PASS,
266,s08_terrain_compliance,g000033_c0,33,,,,,,,,,,,33.786603306024524,0.010684044964694401,211.6888823520769,0.2752070615165195,8.4717,21.7024,32.0693,1.986,3.2435,0.093168,79.742,12.0,12.0,,,,,,9.737794,PASS,
267,s08_terrain_compliance,g000033_c1,33,,,,,,,,,,,21.852754500288032,0.01408859026062237,179.08282768957895,0.28475775849956425,5.1797,15.2805,16.859,0.458,1.6235,0.034762,42.2547,1.302,12.0,,,,,,2.149215,PASS,
268,s08_terrain_compliance,g000033_c2,33,,,,,,,,,,,40.51659050474265,0.01,136.88101564545488,0.22182012746479474,5.1455,20.4966,18.9298,0.54,1.9793,0.036876,39.2101,12.0,12.0,,,,,,1.819226,PASS,
269,s08_terrain_compliance,g000033_c3,33,,,,,,,,,,,23.448540377498013,0.01,97.35814455749711,0.4348738781619484,3.8675,16.0419,14.6869,0.344,0.9923,0.016375,14.3976,0.946,12.0,,,,,,0.540874,PASS,
270,s08_terrain_compliance,g000033_c4,33,,,,,,,,,,,21.30759352150426,0.012260939719238119,130.47530383062897,0.2620662447228927,3.9063,16.5653,14.8209,0.36,1.0582,0.017958,19.1786,0.956,12.0,,,,,,0.498532,PASS,
271,s08_terrain_compliance,g000033_c5,33,,,,,,,,,,,18.238580489506035,0.01,164.53393310669588,0.22218409219557708,6.8231,19.6375,25.4331,1.366,2.8882,0.062376,63.5041,12.0,12.0,,,,,,12.383606,PASS,
272,s08_terrain_compliance,g000033_c6,33,,,,,,,,,,,25.10089095963311,0.01,230.3932638289169,0.29246546864992923,7.8889,19.4242,30.2807,1.166,3.2077,0.089115,83.9301,12.0,12.0,,,,,,13.75715,PASS,
273,s08_terrain_compliance,g000033_c7,33,,,,,,,,,,,20.985173578781826,0.01,161.48615226178657,0.2495925949685347,5.5684,20.737,19.0852,0.874,1.8796,0.045218,43.4085,12.0,12.0,,,,,,3.157492,PASS,
274,s08_terrain_compliance,g000034_c0,34,,,,,,,,,,,18.071281231541946,0.01,134.84060972896089,0.26463133926442445,3.8596,16.3195,14.7718,0.362,1.0546,0.021417,19.2036,0.946,12.0,,,,,,0.509611,PASS,
275,s08_terrain_compliance,g000034_c1,34,,,,,,,,,,,31.180581372761104,0.0113113930795005,143.08505407961079,0.36400623085133743,3.7673,16.4937,14.9137,0.362,1.0944,0.012755,24.8358,1.012,12.0,,,,,,0.518955,PASS,
276,s08_terrain_compliance,g000034_c2,34,,,,,,,,,,,20.48414620689837,0.01,145.8795762872703,0.1859205657421722,7.4311,21.6319,27.9156,1.716,3.1991,0.069644,62.1677,12.0,12.0,,,,,,10.405275,PASS,
277,s08_terrain_compliance,g000034_c3,34,,,,,,,,,,,21.034101143212396,0.01666690984525326,91.54441669297051,0.2441258275762101,3.8422,15.865,14.6793,0.348,0.9912,0.018133,12.2605,0.95,12.0,,,,,,0.476234,PASS,
278,s08_terrain_compliance,g000034_c4,34,,,,,,,,,,,19.46982914379738,0.01,105.57841042164343,0.23462627040144654,3.8867,16.1772,14.6801,0.338,0.9758,0.019887,14.167,0.95,12.0,,,,,,0.459129,PASS,
279,s08_terrain_compliance,g000034_c5,34,,,,,,,,,,,17.119512649901473,0.01,120.9308365518265,0.260626442137381,3.83,15.8832,14.6952,0.36,1.0169,0.022647,16.3409,0.94,12.0,,,,,,0.47805,PASS,
280,s08_terrain_compliance,g000034_c6,34,,,,,,,,,,,25.10457903240604,0.011603866123148586,110.48132849735052,0.3515166112667952,3.845,15.9342,14.673,0.34,0.9881,0.015299,16.2206,0.948,12.0,,,,,,0.486077,PASS,
281,s08_terrain_compliance,g000034_c7,34,,,,,,,,,,,26.098381827212496,0.01,98.50324902734386,0.2317189088622741,3.8388,16.0195,14.676,0.346,0.999,0.014591,13.8408,0.95,12.0,,,,,,0.463462,PASS,
282,s08_terrain_compliance,g000035_c0,35,,,,,,,,,,,16.00830243724339,0.011012458112102148,138.45192653438005,0.2042867222572626,4.4983,15.6824,16.3363,0.41,1.3209,0.034007,29.9141,12.0,12.0,,,,,,0.862584,PASS,
283,s08_terrain_compliance,g000035_c1,35,,,,,,,,,,,19.232203512557167,0.01,157.10326342679937,0.25361611072833484,4.0827,15.9562,16.4706,0.54,1.451,0.027641,32.8058,12.0,12.0,,,,,,2.05535,PASS,
284,s08_terrain_compliance,g000035_c2,35,,,,,,,,,,,24.675863304656897,0.010904590186653159,115.83330499862664,0.256912604571279,3.8946,16.3455,14.7284,0.346,1.0057,0.015804,17.1167,0.948,12.0,,,,,,0.470416,PASS,
285,s08_terrain_compliance,g000035_c3,35,,,,,,,,,,,22.820224237245334,0.01,140.00141188804636,0.34601882116898763,3.8819,16.3096,14.724,0.344,1.0032,0.017045,21.0195,0.944,12.0,,,,,,0.473919,PASS,
286,s08_terrain_compliance,g000035_c4,35,,,,,,,,,,,27.973832369959034,0.01,146.03812040762455,0.23612608872474292,5.7292,23.4138,17.8369,0.506,1.7297,0.039773,35.4705,12.0,12.0,,,,,,2.282583,PASS,
287,s08_terrain_compliance,g000035_c5,35,,,,,,,,,,,27.090642786843524,0.01,175.98595743651387,0.2506872793408615,7.3074,22.6881,23.0159,0.944,2.4148,0.067051,57.7517,12.0,12.0,,,,,,17.325811,PASS,
288,s08_terrain_compliance,g000035_c6,35,,,,,,,,,,,18.595684291122726,0.010479675779343733,105.10337676941158,0.2635078114651499,3.8789,16.2749,14.7291,0.352,1.0081,0.020733,13.9625,0.948,12.0,,,,,,0.465373,PASS,
289,s08_terrain_compliance,g000035_c7,35,,,,,,,,,,,27.452581393706602,0.010908691029385926,160.0595373265711,0.2522538414604124,5.5216,23.7564,19.8095,0.892,2.1338,0.041493,44.3125,12.0,12.0,,,,,,7.670397,PASS,
290,s08_terrain_compliance,g000036_c0,36,,,,,,,,,,,25.279906168164175,0.01,133.57526279936894,0.25422407854425255,3.7048,16.0141,14.709,0.348,1.014,0.015999,20.9985,1.028,12.0,,,,,,0.495315,PASS,
291,s08_terrain_compliance,g000036_c1,36,,,,,,,,,,,27.859980911090293,0.010895785062335642,116.34797123629552,0.2758030636755586,3.8089,16.2091,14.7172,0.346,1.0043,0.013969,17.726,0.98,12.0,,,,,,0.464973,PASS,
292,s08_terrain_compliance,g000036_c2,36,,,,,,,,,,,26.337904239913172,0.011721351537617504,105.30478397477249,0.2873807443150961,3.8257,15.8584,14.6794,0.348,0.9972,0.014649,15.3785,0.954,12.0,,,,,,0.482744,PASS,
293,s08_terrain_compliance,g000036_c3,36,,,,,,,,,,,29.564396123755905,0.01,120.03776564121038,0.26797043662700415,3.8291,16.1215,14.8017,0.362,1.0621,0.01336,19.0848,0.95,12.0,,,,,,0.509391,PASS,
294,s08_terrain_compliance,g000036_c4,36,,,,,,,,,,,29.096074714317094,0.011417660216348347,97.37449834399261,0.22099933804666422,3.8605,16.1483,14.6829,0.34,0.987,0.013454,14.0674,0.94,12.0,,,,,,0.456251,PASS,
