run_id,scenario,label,gen,timestamp,Q_PITCH,Q_PITCH_RATE,Q_VEL,R,KP_V,KI_V,KFF_V,KP_YAW,KI_YAW,LEG_K_S,LEG_B_S,LEG_K_ROLL,LEG_D_ROLL,rms_pitch_deg,max_pitch_deg,wheel_travel_m,wheel_liftoff_s,vel_track_rms_ms,hip_track_rms_rad,hip_cmd_rate_rms,settle_time_s,survived_s,fitness_balance,fitness_disturbance,fitness_drive_slow,fitness_drive_med,fitness_obstacle,fitness,status,fail_reason
1,s01_lqr_pitch_step,evo_seed,0,,0.164326,0.150062,0.0009532,16.0213,,,,,,,,,,3.7013,5.5004,2.1922,0.0,0.5082,0.008011,0.0,0.14,5.0,,,,,,3.85415,PASS,
2,s01_lqr_pitch_step,g000000_c0,0,,2.9904261090908637,0.010335982442188463,0.001255735227732541,100.0,,,,,,,,,,3.5812,5.2832,2.3924,0.0,0.5513,0.007986,0.0,0.148,5.0,,,,,,3.642675,PASS,
3,s01_lqr_pitch_step,g000000_c1,0,,17.74863865316082,0.9280101749484607,1.3509217449888564e-05,100.0,,,,,,,,,,3.4623,5.1167,2.5769,0.0,0.5939,0.00801,0.0,0.154,5.0,,,,,,3.42155,PASS,
4,s01_lqr_pitch_step,g000000_c2,0,,0.017213785423638953,0.07133345430839626,0.00042067759582091756,0.523481870443731,,,,,,,,,,3.9334,6.1418,1.5756,0.0,0.3668,0.008033,0.0,0.074,5.0,,,,,,5.62875,PASS,
5,s01_lqr_pitch_step,g000000_c3,0,,0.07882904973837938,0.12437963053798771,0.0008441447955372486,11.998198985980993,,,,,,,,,,3.7164,5.5292,2.1631,0.0,0.5015,0.008013,0.0,0.14,5.0,,,,,,3.895925,PASS,
6,s01_lqr_pitch_step,g000000_c4,0,,0.014924885436654723,0.6490724854190522,0.007064547965035819,20.493386976049663,,,,,,,,,,3.8787,5.91,1.7778,0.0,0.4194,0.008031,0.0,0.114,5.0,,,,,,4.53035,PASS,
7,s01_lqr_pitch_step,g000000_c5,0,,12.189156390303227,0.3778758292479738,0.03119147657460107,5.983044154862952,,,,,,,,,,9.0361,17.1548,2.9879,0.1,0.0,0.024919,0.0,5.0,0.356,,,,,,296.0442,FAIL,wheels off ground
8,s01_lqr_pitch_step,g000000_c6,0,,0.9142309529799396,0.03115020385197224,0.0010716588727697942,37.77589546043067,,,,,,,,,,3.6374,5.3772,2.3173,0.0,0.5378,0.007974,0.0,0.146,5.0,,,,,,3.70295,PASS,
9,s01_lqr_pitch_step,g000000_c7,0,,3.9454382526332257,0.5616985221695444,2.4685589690883466e-05,100.0,,,,,,,,,,3.4674,5.1224,2.5707,0.0,0.5926,0.008011,0.0,0.154,5.0,,,,,,3.444675,PASS,
10,s01_lqr_pitch_step,g000001_c0,1,,9.40160844225768,3.8975589070788916,4.0079618567718857e-07,47.25096773368399,,,,,,,,,,3.4476,5.1098,2.6055,0.0,0.6005,0.008005,0.0,0.158,5.0,,,,,,3.5033,PASS,
11,s01_lqr_pitch_step,g000001_c1,1,,2.868670837738554,0.9281382498344433,8.111938871647831e-07,9.539699908592757,,,,,,,,,,3.4557,5.1177,2.5949,0.0,0.598,0.008006,0.0,0.158,5.0,,,,,,3.516,PASS,
12,s01_lqr_pitch_step,g000001_c2,1,,18.470343287338732,0.4079382046959485,0.00019631283336245232,100.0,,,,,,,,,,3.5022,5.1599,2.5218,0.0,0.5818,0.008008,0.0,0.152,5.0,,,,,,3.521425,PASS,
13,s01_lqr_pitch_step,g000001_c3,1,,30.910408858133714,1.0794662414805771,1e-07,100.0,,,,,,,,,,3.4487,5.107,2.5986,0.0,0.599,0.008009,0.0,0.156,5.0,,,,,,3.46725,PASS,
14,s01_lqr_pitch_step,g000001_c4,1,,0.4865272549721774,0.08415421575673687,0.0008883651888551346,100.0,,,,,,,,,,3.5608,5.2512,2.4289,0.0,0.5603,0.008014,0.0,0.15,5.0,,,,,,3.597825,PASS,
15,s01_lqr_pitch_step,g000001_c5,1,,5.694848201148125,3.4855032337705194,2.7774086574855907e-06,100.0,,,,,,,,,,3.4521,5.1113,2.5959,0.0,0.5983,0.008005,0.0,0.156,5.0,,,,,,3.4547,PASS,
16,s01_lqr_pitch_step,g000001_c6,1,,0.2973618328889908,0.5061053342892804,0.0005968703990141162,1.442632307926903,,,,,,,,,,3.9031,5.9647,1.7769,0.0,0.4221,0.007964,0.0,0.12,5.0,,,,,,5.365625,PASS,
17,s01_lqr_pitch_step,g000001_c7,1,,49.99999999999999,1.7444777045669357,1.8514631187335335e-05,100.0,,,,,,,,,,3.4643,5.1222,2.5743,0.0,0.5935,0.007978,0.0,0.154,5.0,,,,,,3.470075,PASS,
18,s01_lqr_pitch_step,g000002_c0,2,,0.9709290576680779,2.3451306511406322,5.970506169922185e-06,47.289670811226564,,,,,,,,,,3.4587,5.1178,2.5869,0.0,0.5963,0.008,0.0,0.156,5.0,,,,,,3.488925,PASS,
19,s01_lqr_pitch_step,g000002_c1,2,,1.332080713944714,10.0,1.0158904204865142e-06,8.032345545353717,,,,,,,,,,3.4224,5.4622,3.7815,0.0,1.0071,0.010652,0.0,0.304,5.0,,,,,,8.7459,PASS,
20,s01_lqr_pitch_step,g000002_c2,2,,42.56652817875798,0.02324944002420902,0.00038460592790004835,100.0,,,,,,,,,,3.5238,5.1896,2.4846,0.0,0.5728,0.007996,0.0,0.15,5.0,,,,,,3.570975,PASS,
21,s01_lqr_pitch_step,g000002_c3,2,,49.99999999999999,0.08721785035136466,7.003082195327333e-06,100.0,,,,,,,,,,3.4573,5.1141,2.588,0.0,0.5975,0.008012,0.0,0.154,5.0,,,,,,3.45025,PASS,
22,s01_lqr_pitch_step,g000002_c4,2,,7.469786519401988,5.151811822665238,1.3047373828028207e-05,100.0,,,,,,,,,,3.4595,5.1183,2.5856,0.0,0.5959,0.008005,0.0,0.156,5.0,,,,,,3.479925,PASS,
23,s01_lqr_pitch_step,g000002_c5,2,,49.99999999999999,2.8841376435915222,2.5219549395705032e-06,19.342116824079625,,,,,,,,,,3.4598,5.1191,2.5928,0.0,0.5988,0.007972,0.0,0.156,5.0,,,,,,3.7962,PASS,
24,s01_lqr_pitch_step,g000002_c6,2,,49.99999999999999,1.4595623539554183,8.95319977508295e-06,33.736948661355285,,,,,,,,,,3.4681,5.123,2.5671,0.0,0.5918,0.008006,0.0,0.154,5.0,,,,,,3.5902,PASS,
25,s01_lqr_pitch_step,g000002_c7,2,,49.99999999999999,7.546769589985178,7.75556310678954e-06,2.3629462547648408,,,,,,,,,,3.37,5.0,0.4577,0.1,0.0,0.032929,0.0,5.0,0.232,,,,,,204.0789,FAIL,wheels off ground
26,s01_lqr_pitch_step,g000003_c0,3,,20.342245084563746,0.2852106515085161,2.8230614672375867e-07,29.339877279701312,,,,,,,,,,3.4512,5.1126,2.5908,0.0,0.5971,0.008007,0.0,0.154,5.0,,,,,,3.457825,PASS,
27,s01_lqr_pitch_step,g000003_c1,3,,0.9379442252394348,10.0,6.119257903678647e-05,35.9286197432581,,,,,,,,,,3.4907,5.1641,2.5662,0.0,0.5914,0.007999,0.0,0.162,5.0,,,,,,4.00965,PASS,
28,s01_lqr_pitch_step,g000003_c2,3,,49.99999999999999,0.006479739807280416,6.741871569403944e-05,100.0,,,,,,,,,,3.4801,5.1374,2.5564,0.0,0.5903,0.008006,0.0,0.154,5.0,,,,,,3.483925,PASS,
29,s01_lqr_pitch_step,g000003_c3,3,,4.487719959048801,10.0,1.2309816066359647e-05,9.435319990366203,,,,,,,,,,3.4693,5.2681,3.2443,0.0,0.7849,0.008469,0.0,0.176,5.0,,,,,,6.6944,PASS,
30,s01_lqr_pitch_step,g000003_c4,3,,49.99999999999999,0.2694096825714007,5.990117515849772e-06,0.2809871096356656,,,,,,,,,,2.6817,5.0,1.0447,0.1,0.0,0.020867,0.0,5.0,0.212,,,,,,204.95685,FAIL,wheels off ground
31,s01_lqr_pitch_step,g000003_c5,3,,22.71987421785282,0.08335161466357094,3.060814262621528e-07,65.14293690428997,,,,,,,,,,3.4499,5.1062,2.5939,0.0,0.5977,0.007968,0.0,0.154,5.0,,,,,,3.40925,PASS,
32,s01_lqr_pitch_step,g000003_c6,3,,17.782590078072882,0.13939976993657846,1e-07,100.0,,,,,,,,,,3.4484,5.1097,2.6015,0.0,0.6001,0.007996,0.0,0.154,5.0,,,,,,3.4198,PASS,
33,s01_lqr_pitch_step,g000003_c7,3,,10.817679599227441,0.2745427142441017,2.1068524051991727e-06,100.0,,,,,,,,,,3.4519,5.1058,2.5924,0.0,0.5976,0.007996,0.0,0.154,5.0,,,,,,3.420625,PASS,
34,s01_lqr_pitch_step,g000004_c0,4,,4.812691087210515,0.07130494277414867,2.797246157471904e-06,43.27738333508514,,,,,,,,,,3.4579,5.1191,2.5844,0.0,0.5957,0.008011,0.0,0.154,5.0,,,,,,3.42495,PASS,
35,s01_lqr_pitch_step,g000004_c1,4,,4.979313503127055,2.1265537851162293,1.8331251337454086e-06,100.0,,,,,,,,,,3.4518,5.1077,2.6142,0.0,0.6064,0.007983,0.0,0.156,5.0,,,,,,3.44465,PASS,
36,s01_lqr_pitch_step,g000004_c2,4,,8.565039692347563,0.06000766818855304,1.4828479049849684e-06,100.0,,,,,,,,,,3.4511,5.1105,2.5933,0.0,0.5978,0.008,0.0,0.154,5.0,,,,,,3.4068,PASS,
37,s01_lqr_pitch_step,g000004_c3,4,,49.99999999999999,0.556991708195629,2.5972585685512835e-06,100.0,,,,,,,,,,3.453,5.1108,2.5883,0.0,0.5965,0.00801,0.0,0.154,5.0,,,,,,3.458075,PASS,
38,s01_lqr_pitch_step,g000004_c4,4,,0.544733902923357,0.0071846313263943876,6.60427406671651e-06,100.0,,,,,,,,,,3.4577,5.1112,2.5809,0.0,0.5943,0.007991,0.0,0.154,5.0,,,,,,3.431175,PASS,
39,s01_lqr_pitch_step,g000004_c5,4,,12.63227147971544,0.11016240556965153,1e-07,2.1590526249361517,,,,,,,,,,3.4579,5.1113,2.5541,0.0,0.5879,0.007947,0.0,0.15,5.0,,,,,,3.889,PASS,
40,s01_lqr_pitch_step,g000004_c6,4,,19.551215919861836,1.1833947528278885,5.309238737550844e-07,2.0628847824329686,,,,,,,,,,3.4576,5.1405,2.7947,0.0,0.6475,0.007804,0.0,0.158,5.0,,,,,,5.531075,PASS,
41,s01_lqr_pitch_step,g000004_c7,4,,12.152466336753182,2.412536036833161,3.7485495634227514e-07,100.0,,,,,,,,,,3.4479,5.1058,2.5987,0.0,0.5989,0.008005,0.0,0.156,5.0,,,,,,3.439425,PASS,
42,s01_lqr_pitch_step,g000005_c0,5,,28.74741927936344,0.09327340379333339,2.3482076796676075e-06,69.32360745356348,,,,,,,,,,3.456,5.1135,2.5824,0.0,0.5947,0.007974,0.0,0.154,5.0,,,,,,3.411125,PASS,
43,s01_lqr_pitch_step,g000005_c1,5,,2.1752710108019135,0.039026441631135424,2.62677308792402e-05,100.0,,,,,,,,,,3.4676,5.1246,2.5694,0.0,0.5922,0.00801,0.0,0.154,5.0,,,,,,3.419925,PASS,
44,s01_lqr_pitch_step,g000005_c2,5,,0.41758401107688226,0.007132780247585235,1.256461319130808e-06,100.0,,,,,,,,,,3.4516,5.1078,2.5935,0.0,0.5977,0.00801,0.0,0.154,5.0,,,,,,3.4035,PASS,
45,s01_lqr_pitch_step,g000005_c3,5,,0.2895022782172713,0.06773302162499925,1.4179911339197085e-06,100.0,,,,,,,,,,3.4511,5.1107,2.5935,0.0,0.5977,0.008009,0.0,0.154,5.0,,,,,,3.3989,PASS,
46,s01_lqr_pitch_step,g000005_c4,5,,49.99999999999999,0.5546703359712019,4.1397062602265796e-07,11.753848320601726,,,,,,,,,,3.4554,5.1086,2.573,0.0,0.5931,0.007996,0.0,0.152,5.0,,,,,,3.7314,PASS,
47,s01_lqr_pitch_step,g000005_c5,5,,17.39971990280723,0.0011444903205781066,1e-07,21.80777864293267,,,,,,,,,,3.4485,5.1077,2.5922,0.0,0.5975,0.008007,0.0,0.154,5.0,,,,,,3.47095,PASS,
48,s01_lqr_pitch_step,g000005_c6,5,,49.99999999999999,0.006527192810169609,2.474286864291771e-07,0.45905055128367556,,,,,,,,,,2.1627,5.0,0.5187,0.1,0.0,0.024845,0.0,5.0,0.378,,,,,,202.53455,FAIL,wheels off ground
49,s01_lqr_pitch_step,g000005_c7,5,,2.496967682877722,0.5415698115953964,1e-07,100.0,,,,,,,,,,3.4483,5.1047,2.601,0.0,0.5996,0.007996,0.0,0.156,5.0,,,,,,3.399875,PASS,
50,s01_lqr_pitch_step,g000006_c0,6,,19.863443186163643,0.03204423874614985,4.1147590133911947e-07,5.488149482093899,,,,,,,,,,3.4602,5.112,2.5651,0.0,0.5913,0.007998,0.0,0.15,5.0,,,,,,3.63065,PASS,
51,s01_lqr_pitch_step,g000006_c1,6,,0.07988157928100882,0.0309813910164288,1.732631320728204e-05,3.619197906917605,,,,,,,,,,3.5325,5.2082,2.4762,0.0,0.5711,0.007992,0.0,0.152,5.0,,,,,,3.5293,PASS,
52,s01_lqr_pitch_step,g000006_c2,6,,0.03150118671913165,0.9798648205661648,1.318326207759508e-06,83.3497162893097,,,,,,,,,,3.4527,5.1108,2.5878,0.0,0.5958,0.007985,0.0,0.156,5.0,,,,,,3.452575,PASS,
53,s01_lqr_pitch_step,g000006_c3,6,,1.5045705394827351,0.9798638730879303,4.661941032010803e-06,42.486849156682304,,,,,,,,,,3.4606,5.121,2.5842,0.0,0.5957,0.008,0.0,0.156,5.0,,,,,,3.4369,PASS,
54,s01_lqr_pitch_step,g000006_c4,6,,1.6621564282304917,0.031081503081231004,2.3642290140797576e-06,100.0,,,,,,,,,,3.4524,5.1092,2.5912,0.0,0.5973,0.008002,0.0,0.154,5.0,,,,,,3.4039,PASS,
55,s01_lqr_pitch_step,g000006_c5,6,,0.07803340983998852,2.4039202183966255,2.1071596250261655e-07,100.0,,,,,,,,,,3.448,5.1087,2.5989,0.0,0.599,0.00801,0.0,0.156,5.0,,,,,,3.431775,PASS,
56,s01_lqr_pitch_step,g000006_c6,6,,0.10238785550387991,0.6283520873369695,1e-07,23.56944355453267,,,,,,,,,,3.4483,5.1082,2.6064,0.0,0.6017,0.00801,0.0,0.156,5.0,,,,,,3.434525,PASS,
57,s01_lqr_pitch_step,g000006_c7,6,,0.09457926605985972,0.02179645318316638,2.310676601528429e-06,100.0,,,,,,,,,,3.4527,5.1069,2.5887,0.0,0.5963,0.007967,0.0,0.154,5.0,,,,,,3.3593,PASS,
58,s01_lqr_pitch_step,g000007_c0,7,,0.01,0.5719650021870031,3.2181189567389546e-05,100.0,,,,,,,,,,3.47,5.1229,2.5669,0.0,0.5917,0.008007,0.0,0.154,5.0,,,,,,3.475375,PASS,
59,s01_lqr_pitch_step,g000007_c1,7,,0.3166849353793751,0.001,4.21736151560231e-06,85.15164006539538,,,,,,,,,,3.456,5.1143,2.5872,0.0,0.5964,0.008011,0.0,0.154,5.0,,,,,,3.44665,PASS,
60,s01_lqr_pitch_step,g000007_c2,7,,0.17077910549150777,0.005422419254137202,2.907857895327567e-06,100.0,,,,,,,,,,3.4541,5.1121,2.5903,0.0,0.5972,0.008009,0.0,0.154,5.0,,,,,,3.4474,PASS,
61,s01_lqr_pitch_step,g000007_c3,7,,0.23867268404221273,0.0014782158097615304,4.1215953849547814e-07,0.5918887334301668,,,,,,,,,,3.4811,5.1324,2.5508,0.0,0.5879,0.007994,0.0,0.154,5.0,,,,,,3.497975,PASS,
62,s01_lqr_pitch_step,g000007_c4,7,,0.9877277574494298,0.16262782940624992,2.663296306326867e-06,100.0,,,,,,,,,,3.4537,5.1087,2.5914,0.0,0.5973,0.00801,0.0,0.154,5.0,,,,,,3.38435,PASS,
63,s01_lqr_pitch_step,g000007_c5,7,,0.293361834255847,0.002748781938404714,1e-07,100.0,,,,,,,,,,3.4476,5.1032,2.5987,0.0,0.599,0.008009,0.0,0.156,5.0,,,,,,3.3947,PASS,
64,s01_lqr_pitch_step,g000007_c6,7,,0.030278894122000587,0.5212626396581048,1.3004493468525577e-06,100.0,,,,,,,,,,3.4505,5.1118,2.5938,0.0,0.5978,0.008011,0.0,0.154,5.0,,,,,,3.427975,PASS,
65,s01_lqr_pitch_step,g000007_c7,7,,0.015149347568379868,0.0016574714954141138,0.0007763701433288261,100.0,,,,,,,,,,3.5542,5.2381,2.4401,0.0,0.5629,0.008013,0.0,0.15,5.0,,,,,,3.5761,PASS,
66,s01_lqr_pitch_step,g000008_c0,8,,0.13380140526493406,0.07973079055369509,2.526401166032113e-06,100.0,,,,,,,,,,3.4538,5.1099,2.5916,0.0,0.5972,0.007978,0.0,0.154,5.0,,,,,,3.4166,PASS,
67,s01_lqr_pitch_step,g000008_c1,8,,1.6315183302370644,0.0038251092776924326,0.0002527759121094533,100.0,,,,,,,,,,3.5102,5.1704,2.5086,0.0,0.5784,0.007997,0.0,0.152,5.0,,,,,,3.487525,PASS,
68,s01_lqr_pitch_step,g000008_c2,8,,0.2100397121914159,0.07110412185938397,5.645656154974977e-07,88.30722883577579,,,,,,,,,,3.4495,5.1092,2.5968,0.0,0.5985,0.00801,0.0,0.156,5.0,,,,,,3.4232,PASS,
69,s01_lqr_pitch_step,g000008_c3,8,,0.05361317880397015,0.5029023862346038,1.4181231907678902e-05,100.0,,,,,,,,,,3.463,5.1185,2.5745,0.0,0.593,0.007981,0.0,0.154,5.0,,,,,,3.429625,PASS,
70,s01_lqr_pitch_step,g000008_c4,8,,0.10333885694270026,0.8750832019634672,3.572595815846902e-06,100.0,,,,,,,,,,3.454,5.1137,2.5963,0.0,0.5995,0.008012,0.0,0.156,5.0,,,,,,3.463325,PASS,
71,s01_lqr_pitch_step,g000008_c5,8,,0.015195286720450327,0.0037424078986984383,4.061048250997824e-06,100.0,,,,,,,,,,3.4559,5.1118,2.5889,0.0,0.5968,0.007997,0.0,0.154,5.0,,,,,,3.4086,PASS,
72,s01_lqr_pitch_step,g000008_c6,8,,1.2714222766514387,0.01163664797534508,0.0006844803247520433,16.3246108320777,,,,,,,,,,3.6686,5.4385,2.2497,0.0,0.5207,0.008017,0.0,0.142,5.0,,,,,,3.76435,PASS,
73,s01_lqr_pitch_step,g000008_c7,8,,0.01,0.5467077551021553,1.4548987602636522e-05,3.7571349857467946,,,,,,,,,,3.5207,5.1971,2.5069,0.0,0.5778,0.008002,0.0,0.156,5.0,,,,,,3.71475,PASS,
74,s01_lqr_pitch_step,g000009_c0,9,,6.297608917596244,0.09193035695017804,2.796850131242537e-05,100.0,,,,,,,,,,3.4679,5.1233,2.5685,0.0,0.592,0.008006,0.0,0.154,5.0,,,,,,3.434175,PASS,
75,s01_lqr_pitch_step,g000009_c1,9,,0.7361630162769346,0.13699236811196042,1.4271741198288418e-06,35.41145778446619,,,,,,,,,,3.4556,5.1166,2.587,0.0,0.596,0.007982,0.0,0.156,5.0,,,,,,3.42355,PASS,
76,s01_lqr_pitch_step,g000009_c2,9,,0.12148440848159764,1.4927828425561707,1e-07,100.0,,,,,,,,,,3.4474,5.1069,2.6026,0.0,0.5999,0.007995,0.0,0.156,5.0,,,,,,3.397575,PASS,
77,s01_lqr_pitch_step,g000009_c3,9,,0.018079366597621598,0.018267099018421586,1.5874969101633974e-06,100.0,,,,,,,,,,3.4519,5.1069,2.5935,0.0,0.5979,0.007999,0.0,0.154,5.0,,,,,,3.393825,PASS,
78,s01_lqr_pitch_step,g000009_c4,9,,0.09902878187889351,0.28027599854110335,5.243584286191655e-06,100.0,,,,,,,,,,3.4556,5.1135,2.5874,0.0,0.5965,0.007999,0.0,0.154,5.0,,,,,,3.45765,PASS,
79,s01_lqr_pitch_step,g000009_c5,9,,0.06442945445933111,0.4301941260937314,2.397005395670251e-07,100.0,,,,,,,,,,3.4491,5.1056,2.5986,0.0,0.599,0.008001,0.0,0.156,5.0,,,,,,3.410875,PASS,
80,s01_lqr_pitch_step,g000009_c6,9,,0.02994771721064666,0.0859931881396257,2.0178448394816226e-06,100.0,,,,,,,,,,3.4532,5.1127,2.5913,0.0,0.5971,0.007979,0.0,0.154,5.0,,,,,,3.4012,PASS,
81,s01_lqr_pitch_step,g000009_c7,9,,0.3766845494798131,0.0020242211863641794,2.2563522596847372e-05,4.067403360405484,,,,,,,,,,3.54,5.2144,2.464,0.0,0.5684,0.00801,0.0,0.15,5.0,,,,,,3.55445,PASS,
82,s01_lqr_pitch_step,g000010_c0,10,,0.3467035313300886,0.001,7.107911035324162e-06,30.887471471045377,,,,,,,,,,3.4662,5.1207,2.5701,0.0,0.5923,0.008009,0.0,0.154,5.0,,,,,,3.453275,PASS,
83,s01_lqr_pitch_step,g000010_c1,10,,0.9772432735652234,0.010899766921783054,1.680109279946739e-05,100.0,,,,,,,,,,3.4638,5.1175,2.5754,0.0,0.5936,0.00801,0.0,0.154,5.0,,,,,,3.4409,PASS,
84,s01_lqr_pitch_step,g000010_c2,10,,0.2515002822676552,0.012146124186455122,1.3725494421707241e-06,8.795348014504077,,,,,,,,,,3.4629,5.1182,2.5763,0.0,0.5939,0.008005,0.0,0.154,5.0,,,,,,3.4362,PASS,
85,s01_lqr_pitch_step,g000010_c3,10,,0.042654465690870426,0.044346165183850345,8.562082553815841e-06,100.0,,,,,,,,,,3.4602,5.1177,2.582,0.0,0.5951,0.00801,0.0,0.154,5.0,,,,,,3.438925,PASS,
86,s01_lqr_pitch_step,g000010_c4,10,,0.08807003242409915,0.4647257105083513,1e-07,100.0,,,,,,,,,,3.448,5.1055,2.5997,0.0,0.5992,0.008008,0.0,0.156,5.0,,,,,,3.39335,PASS,
87,s01_lqr_pitch_step,g000010_c5,10,,49.99999999999999,0.001990684142193124,1.069651454124704e-06,100.0,,,,,,,,,,3.4515,5.1059,2.5908,0.0,0.5973,0.007997,0.0,0.154,5.0,,,,,,3.459,PASS,
88,s01_lqr_pitch_step,g000010_c6,10,,0.01,0.001,2.4618063940611147e-06,100.0,,,,,,,,,,3.4524,5.1097,2.5923,0.0,0.5975,0.008012,0.0,0.154,5.0,,,,,,3.437825,PASS,
89,s01_lqr_pitch_step,g000010_c7,10,,0.918568836784216,0.010310027253538339,1.039367043657525e-06,23.692026544029574,,,,,,,,,,3.4554,5.1131,2.5835,0.0,0.595,0.007978,0.0,0.154,5.0,,,,,,3.414325,PASS,
90,s01_lqr_pitch_step,g000011_c0,11,,0.7630955624829192,0.04454748025163291,3.768982288201213e-07,100.0,,,,,,,,,,3.4501,5.1081,2.5948,0.0,0.5981,0.00801,0.0,0.156,5.0,,,,,,3.414775,PASS,
91,s01_lqr_pitch_step,g000011_c1,11,,0.0435388851762515,0.004739218448519103,1e-07,81.94180400399375,,,,,,,,,,3.4487,5.1059,2.6009,0.0,0.5999,0.007977,0.0,0.156,5.0,,,,,,3.418175,PASS,
92,s01_lqr_pitch_step,g000011_c2,11,,0.30101805265366494,0.005404282546438253,6.936676660418471e-07,24.817234519234212,,,,,,,,,,3.4539,5.1133,2.5895,0.0,0.5965,0.007972,0.0,0.154,5.0,,,,,,3.41265,PASS,
93,s01_lqr_pitch_step,g000011_c3,11,,0.0233748126474309,0.001,3.1131130270007047e-07,0.6045248124025049,,,,,,,,,,3.4768,5.1303,2.5578,0.0,0.5896,0.008009,0.0,0.154,5.0,,,,,,3.4543,PASS,
94,s01_lqr_pitch_step,g000011_c4,11,,0.14306419579024096,0.08690334316939405,2.8462469911396785e-06,100.0,,,,,,,,,,3.4544,5.1104,2.59,0.0,0.597,0.00801,0.0,0.154,5.0,,,,,,3.415875,PASS,
95,s01_lqr_pitch_step,g000011_c5,11,,0.01,0.65193282016811,7.606945384529906e-07,100.0,,,,,,,,,,3.4504,5.1085,2.5959,0.0,0.5984,0.008008,0.0,0.156,5.0,,,,,,3.4354,PASS,
96,s01_lqr_pitch_step,g000011_c6,11,,0.1817492325854881,0.007428727061180867,3.285255478071428e-05,100.0,,,,,,,,,,3.47,5.1269,2.5701,0.0,0.5929,0.007993,0.0,0.154,5.0,,,,,,3.46745,PASS,
97,s01_lqr_pitch_step,g000011_c7,11,,0.01,0.04999811693191722,2.508925799678864e-07,4.48708051229843,,,,,,,,,,3.4564,5.1123,2.5873,0.0,0.5964,0.008009,0.0,0.154,5.0,,,,,,3.445125,PASS,
98,s01_lqr_pitch_step,g000012_c0,12,,0.08773531340875206,0.017599436878001376,1.000031281033068e-05,100.0,,,,,,,,,,3.4599,5.114,2.5821,0.0,0.5953,0.008012,0.0,0.154,5.0,,,,,,3.4226,PASS,
99,s01_lqr_pitch_step,g000012_c1,12,,0.18810248794473844,0.003941594908671907,1.294240010190569e-05,61.611858395168596,,,,,,,,,,3.4664,5.1203,2.5725,0.0,0.5929,0.008011,0.0,0.154,5.0,,,,,,3.4381,PASS,
100,s01_lqr_pitch_step,g000012_c2,12,,0.26350889613526335,1.024214743988026,2.970664978370369e-06,1.395655833736992,,,,,,,,,,3.4864,5.1893,2.6504,0.0,0.6149,0.007862,0.0,0.192,5.0,,,,,,4.734725,PASS,
101,s01_lqr_pitch_step,g000012_c3,12,,1.6223909170766049,0.0033883271686855417,7.452589542764002e-06,100.0,,,,,,,,,,3.458,5.1141,2.585,0.0,0.596,0.007996,0.0,0.154,5.0,,,,,,3.427575,PASS,
102,s01_lqr_pitch_step,g000012_c4,12,,0.06583762903905026,0.05516336726678407,1.7796535342222753e-06,1.004431768189685,,,,,,,,,,3.4994,5.1573,2.5309,0.0,0.5834,0.007975,0.0,0.154,5.0,,,,,,3.5278,PASS,
103,s01_lqr_pitch_step,g000012_c5,12,,0.01458251224933736,0.13519673599639098,2.347519650035931e-05,3.8225950276615803,,,,,,,,,,3.5433,5.2252,2.4622,0.0,0.5679,0.008011,0.0,0.152,5.0,,,,,,3.598975,PASS,
104,s01_lqr_pitch_step,g000012_c6,12,,0.01,0.007253971393141426,6.28319768081043e-06,100.0,,,,,,,,,,3.4558,5.1136,2.5876,0.0,0.5968,0.008013,0.0,0.154,5.0,,,,,,3.452075,PASS,
105,s01_lqr_pitch_step,g000012_c7,12,,0.24528941082003886,0.007630098410033777,1.651280969536293e-05,10.293775656017461,,,,,,,,,,3.4988,5.1541,2.5387,0.0,0.5875,0.007976,0.0,0.154,5.0,,,,,,3.47525,PASS,
106,s01_lqr_pitch_step,g000013_c0,13,,0.6574978287052351,0.009523572371263207,5.959150307369754e-07,9.02041867073888,,,,,,,,,,3.4575,5.1115,2.5865,0.0,0.5963,0.008001,0.0,0.154,5.0,,,,,,3.42575,PASS,
107,s01_lqr_pitch_step,g000013_c1,13,,0.06597631184121992,0.005599415237652694,1.6145759287891576e-05,4.952034728498829,,,,,,,,,,3.5186,5.181,2.4946,0.0,0.5752,0.008008,0.0,0.152,5.0,,,,,,3.5262,PASS,
108,s01_lqr_pitch_step,g000013_c2,13,,0.259969232148943,0.006575889918049527,8.486939288586376e-07,6.341566221678964,,,,,,,,,,3.4624,5.1182,2.5783,0.0,0.5944,0.007995,0.0,0.154,5.0,,,,,,3.421575,PASS,
109,s01_lqr_pitch_step,g000013_c3,13,,0.3292864742898197,0.02352292986520592,2.420279299138793e-06,100.0,,,,,,,,,,3.4526,5.1119,2.591,0.0,0.5973,0.008011,0.0,0.154,5.0,,,,,,3.410475,PASS,
110,s01_lqr_pitch_step,g000013_c4,13,,0.02508906710057942,0.9181369659555373,7.301345922962867e-07,100.0,,,,,,,,,,3.4503,5.1074,2.5912,0.0,0.5967,0.008004,0.0,0.156,5.0,,,,,,3.434225,PASS,
111,s01_lqr_pitch_step,g000013_c5,13,,32.50810314079283,0.023788054042775467,6.774628082011099e-06,42.70079499422677,,,,,,,,,,3.4638,5.1175,2.5725,0.0,0.5929,0.008005,0.0,0.154,5.0,,,,,,3.4573,PASS,
112,s01_lqr_pitch_step,g000013_c6,13,,44.411415240158796,0.07437919934986055,6.230823095931896e-07,1.4733825974470711,,,,,,,,,,3.4791,5.1527,2.4573,0.0,0.574,0.007826,0.0,0.138,5.0,,,,,,5.403775,PASS,
113,s01_lqr_pitch_step,g000013_c7,13,,0.01,0.001,1.586416980072711e-06,100.0,,,,,,,,,,3.4511,5.106,2.5954,0.0,0.5985,0.007983,0.0,0.154,5.0,,,,,,3.40875,PASS,
114,s01_lqr_pitch_step,g000014_c0,14,,0.6385656590288766,0.00219414920571549,1.580345571901192e-07,100.0,,,,,,,,,,3.4478,5.1031,2.5984,0.0,0.5989,0.008012,0.0,0.154,5.0,,,,,,3.4046,PASS,
115,s01_lqr_pitch_step,g000014_c1,14,,0.06885399983797703,0.007154682499044925,1e-07,42.111984284715746,,,,,,,,,,3.4489,5.1066,2.597,0.0,0.5987,0.008011,0.0,0.156,5.0,,,,,,3.442325,PASS,
116,s01_lqr_pitch_step,g000014_c2,14,,2.922815269447504,0.0018724569593972398,3.4009246897222074e-05,100.0,,,,,,,,,,3.4708,5.126,2.5752,0.0,0.5952,0.007976,0.0,0.154,5.0,,,,,,3.449225,PASS,
117,s01_lqr_pitch_step,g000014_c3,14,,0.18621792327923536,0.6224917581190292,4.6143570765219935e-07,100.0,,,,,,,,,,3.4484,5.1052,2.6029,0.0,0.6009,0.00801,0.0,0.156,5.0,,,,,,3.44915,PASS,
118,s01_lqr_pitch_step,g000014_c4,14,,19.921995840350643,0.018892458851580907,6.250183375307075e-07,13.676820527398393,,,,,,,,,,3.4566,5.1149,2.5775,0.0,0.594,0.008009,0.0,0.154,5.0,,,,,,3.502125,PASS,
119,s01_lqr_pitch_step,g000014_c5,14,,0.6653523091695132,0.18147617107667396,3.3049103790300095e-06,100.0,,,,,,,,,,3.4539,5.1093,2.589,0.0,0.5967,0.008007,0.0,0.154,5.0,,,,,,3.41275,PASS,
120,s01_lqr_pitch_step,g000014_c6,14,,0.7152745719991452,0.003817969894714354,1e-07,32.96758798670763,,,,,,,,,,3.4495,5.1077,2.5966,0.0,0.5985,0.00801,0.0,0.156,5.0,,,,,,3.40335,PASS,
121,s01_lqr_pitch_step,g000014_c7,14,,0.01,0.005781530739753397,1e-07,100.0,,,,,,,,,,3.4483,5.1032,2.5997,0.0,0.5994,0.008001,0.0,0.154,5.0,,,,,,3.379475,PASS,
122,s01_lqr_pitch_step,g000015_c0,15,,0.025285447477280613,0.017955574829627854,1.840398269748657e-06,100.0,,,,,,,,,,3.4524,5.111,2.589,0.0,0.5963,0.007974,0.0,0.154,5.0,,,,,,3.388975,PASS,
123,s01_lqr_pitch_step,g000015_c1,15,,0.5045448714484052,0.09867881955277538,8.459314706314e-07,36.34103293101765,,,,,,,,,,3.4533,5.1136,2.5919,0.0,0.5974,0.008009,0.0,0.154,5.0,,,,,,3.3621,PASS,
124,s01_lqr_pitch_step,g000015_c2,15,,1.7093573493987329,0.006823076290239247,5.530652476643917e-07,27.659812255411925,,,,,,,,,,3.453,5.1133,2.5913,0.0,0.5973,0.008011,0.0,0.154,5.0,,,,,,3.393625,PASS,
125,s01_lqr_pitch_step,g000015_c3,15,,0.11704907426998586,0.06838799684033715,2.9814131657545014e-05,6.623041208399889,,,,,,,,,,3.53,5.2008,2.4823,0.0,0.5728,0.007986,0.0,0.152,5.0,,,,,,3.5406,PASS,
126,s01_lqr_pitch_step,g000015_c4,15,,0.035546000448392616,0.042409145649240546,2.710847555107925e-07,10.374272817089762,,,,,,,,,,3.4536,5.1094,2.5913,0.0,0.5974,0.008001,0.0,0.154,5.0,,,,,,3.408475,PASS,
127,s01_lqr_pitch_step,g000015_c5,15,,0.3019258733227685,0.022710029155957417,1.0904642222285121e-07,18.376262470324406,,,,,,,,,,3.4495,5.1095,2.595,0.0,0.5981,0.008011,0.0,0.154,5.0,,,,,,3.379625,PASS,
128,s01_lqr_pitch_step,g000015_c6,15,,0.5284131615622134,0.3703226291475652,6.9837072405794685e-06,13.124097630922614,,,,,,,,,,3.4767,5.1316,2.5589,0.0,0.5894,0.007976,0.0,0.154,5.0,,,,,,3.47685,PASS,
129,s01_lqr_pitch_step,g000015_c7,15,,0.013816761342188705,0.016768715318333818,1e-07,93.31747921890506,,,,,,,,,,3.448,5.1051,2.5985,0.0,0.5989,0.008012,0.0,0.156,5.0,,,,,,3.422825,PASS,
130,s01_lqr_pitch_step,g000016_c0,16,,0.6144403404076436,0.015519720106761307,1.402796284901174e-06,2.5499621527544654,,,,,,,,,,3.4772,5.1317,2.5698,0.0,0.5945,0.007979,0.0,0.154,5.0,,,,,,3.483925,PASS,
131,s01_lqr_pitch_step,g000016_c1,16,,0.12056992043033514,0.008646106244174223,9.921963882386511e-06,100.0,,,,,,,,,,3.4594,5.1148,2.5833,0.0,0.5957,0.008013,0.0,0.154,5.0,,,,,,3.428175,PASS,
132,s01_lqr_pitch_step,g000016_c2,16,,0.029073693360320584,0.007544809837977593,1.8226140234919604e-06,13.946064717668934,,,,,,,,,,3.4622,5.1155,2.5687,0.0,0.5912,0.007997,0.0,0.154,5.0,,,,,,3.4582,PASS,
133,s01_lqr_pitch_step,g000016_c3,16,,1.5234250264146434,0.03464277461882856,4.665364722733674e-06,100.0,,,,,,,,,,3.4554,5.113,2.588,0.0,0.5965,0.008006,0.0,0.154,5.0,,,,,,3.4236,PASS,
134,s01_lqr_pitch_step,g000016_c4,16,,0.12439276730654415,0.015933812441761966,1.718497632883775e-06,100.0,,,,,,,,,,3.4515,5.1113,2.5927,0.0,0.5976,0.008006,0.0,0.154,5.0,,,,,,3.410575,PASS,
135,s01_lqr_pitch_step,g000016_c5,16,,3.2990765605058,0.04251433505917452,1.2923308490307851e-07,94.55128551266498,,,,,,,,,,3.4487,5.1064,2.5899,0.0,0.5963,0.007987,0.0,0.154,5.0,,,,,,3.40135,PASS,
136,s01_lqr_pitch_step,g000016_c6,16,,0.03478903599018242,0.002807564158875139,9.761736037266267e-07,15.871783548617143,,,,,,,,,,3.4559,5.1151,2.5842,0.0,0.5956,0.008011,0.0,0.154,5.0,,,,,,3.427275,PASS,
137,s01_lqr_pitch_step,g000016_c7,16,,1.139792113046114,0.1244521814814488,2.431575007211343e-07,84.82934405039087,,,,,,,,,,3.4486,5.1051,2.6007,0.0,0.6,0.008012,0.0,0.156,5.0,,,,,,3.424925,PASS,
138,s01_lqr_pitch_step,g000017_c0,17,,0.5905134195447133,0.016058287346345554,4.094549231090696e-06,86.12995109799652,,,,,,,,,,3.4553,5.1143,2.5903,0.0,0.5974,0.007977,0.0,0.154,5.0,,,,,,3.394775,PASS,
139,s01_lqr_pitch_step,g000017_c1,17,,0.0681217766761909,0.03584991153851716,6.317642373591048e-07,100.0,,,,,,,,,,3.4496,5.1071,2.5969,0.0,0.5985,0.008012,0.0,0.154,5.0,,,,,,3.424175,PASS,
140,s01_lqr_pitch_step,g000017_c2,17,,0.11993420169782884,0.0024622960794824116,1.26069200939094e-06,100.0,,,,,,,,,,3.4516,5.1095,2.5941,0.0,0.5981,0.008011,0.0,0.156,5.0,,,,,,3.46865,PASS,
141,s01_lqr_pitch_step,g000017_c3,17,,0.1695101055340101,0.08460533452589541,4.6375379171665295e-06,100.0,,,,,,,,,,3.4557,5.1154,2.5883,0.0,0.5966,0.008006,0.0,0.154,5.0,,,,,,3.429575,PASS,
142,s01_lqr_pitch_step,g000017_c4,17,,0.04947559998690235,0.0036181951092008743,4.354631037926454e-07,100.0,,,,,,,,,,3.4491,5.1093,2.5979,0.0,0.5988,0.00801,0.0,0.154,5.0,,,,,,3.398025,PASS,
143,s01_lqr_pitch_step,g000017_c5,17,,0.052003196595052634,0.009531487062932517,1.6499562757399206e-05,28.957637565893105,,,,,,,,,,3.4775,5.1301,2.5556,0.0,0.5891,0.008009,0.0,0.154,5.0,,,,,,3.45975,PASS,
144,s01_lqr_pitch_step,g000017_c6,17,,0.09307802813922263,0.007712814733576821,2.366686103748683e-06,82.50019179007809,,,,,,,,,,3.454,5.1114,2.5909,0.0,0.5972,0.008012,0.0,0.154,5.0,,,,,,3.439775,PASS,
145,s01_lqr_pitch_step,g000017_c7,17,,0.17277816486744804,0.008256573278103611,9.519942053439414e-06,100.0,,,,,,,,,,3.4594,5.113,2.5816,0.0,0.5951,0.008008,0.0,0.154,5.0,,,,,,3.397625,PASS,
146,s01_lqr_pitch_step,g000018_c0,18,,0.018199713216764224,0.03995995978905205,1.8341724371410719e-06,31.576489014234667,,,,,,,,,,3.4559,5.1141,2.5863,0.0,0.5961,0.008015,0.0,0.154,5.0,,,,,,3.398925,PASS,
147,s01_lqr_pitch_step,g000018_c1,18,,0.23501253399175043,0.023925020302497498,3.7070280776204334e-06,100.0,,,,,,,,,,3.4546,5.1098,2.5896,0.0,0.5969,0.008006,0.0,0.154,5.0,,,,,,3.4034,PASS,
148,s01_lqr_pitch_step,g000018_c2,18,,0.027484508521891857,0.0343626943550935,2.2762733358580245e-06,86.4876904628847,,,,,,,,,,3.453,5.1124,2.5916,0.0,0.5974,0.008003,0.0,0.154,5.0,,,,,,3.4236,PASS,
149,s01_lqr_pitch_step,g000018_c3,18,,1.1680537383959735,0.07725162015624061,1.9113170655210898e-06,100.0,,,,,,,,,,3.4523,5.1052,2.5914,0.0,0.5973,0.008008,0.0,0.154,5.0,,,,,,3.412875,PASS,
150,s01_lqr_pitch_step,g000018_c4,18,,0.0941951345451364,0.03378566831861304,1.206766775468345e-06,100.0,,,,,,,,,,3.453,5.1112,2.5949,0.0,0.5982,0.007994,0.0,0.154,5.0,,,,,,3.406025,PASS,
151,s01_lqr_pitch_step,g000018_c5,18,,0.02090112477714231,0.007048811067939837,1.151797446424059e-06,100.0,,,,,,,,,,3.4506,5.1104,2.5886,0.0,0.596,0.008012,0.0,0.154,5.0,,,,,,3.399675,PASS,
152,s01_lqr_pitch_step,g000018_c6,18,,0.10183023566247708,0.011723610312246497,7.068418292571702e-06,100.0,,,,,,,,,,3.4579,5.1145,2.5853,0.0,0.596,0.008001,0.0,0.154,5.0,,,,,,3.4223,PASS,
153,s01_lqr_pitch_step,g000018_c7,18,,0.4674937163089007,0.02130867019557608,1.960448615554272e-06,100.0,,,,,,,,,,3.4529,5.1107,2.5923,0.0,0.5975,0.008009,0.0,0.154,5.0,,,,,,3.417775,PASS,
154,s01_lqr_pitch_step,g000019_c0,19,,0.057910422802084936,0.0049619099369015394,1.103293533817478e-06,100.0,,,,,,,,,,3.4507,5.1094,2.5952,0.0,0.5983,0.008012,0.0,0.154,5.0,,,,,,3.4591,PASS,
155,s01_lqr_pitch_step,g000019_c1,19,,0.022104390716337727,0.04962896542140912,6.890360555871191e-07,13.519276569632648,,,,,,,,,,3.4562,5.1126,2.5848,0.0,0.5953,0.007991,0.0,0.154,5.0,,,,,,3.39875,PASS,
156,s01_lqr_pitch_step,g000019_c2,19,,0.016550224927474825,0.019166578691231426,7.334901527743923e-07,100.0,,,,,,,,,,3.4494,5.1049,2.5952,0.0,0.5982,0.00801,0.0,0.154,5.0,,,,,,3.417975,PASS,
157,s01_lqr_pitch_step,g000019_c3,19,,0.027323378435947114,0.014878758516275023,2.2755939655291647e-06,100.0,,,,,,,,,,3.4538,5.1108,2.5852,0.0,0.5953,0.007982,0.0,0.154,5.0,,,,,,3.417425,PASS,
158,s01_lqr_pitch_step,g000019_c4,19,,0.14543932815172525,0.0140367386036421,1.612323461706852e-05,100.0,,,,,,,,,,3.4629,5.1209,2.5756,0.0,0.5936,0.008003,0.0,0.154,5.0,,,,,,3.4013,PASS,
159,s01_lqr_pitch_step,g000019_c5,19,,0.18506910741158158,0.10363778098622656,3.931379952270851e-06,100.0,,,,,,,,,,3.4551,5.1119,2.589,0.0,0.5968,0.008001,0.0,0.154,5.0,,,,,,3.40635,PASS,
160,s01_lqr_pitch_step,g000019_c6,19,,0.015923110659552698,0.01862289015828966,1.1220713249010067e-06,100.0,,,,,,,,,,3.4516,5.1056,2.5932,0.0,0.5977,0.008008,0.0,0.154,5.0,,,,,,3.401475,PASS,
161,s01_lqr_pitch_step,g000019_c7,19,,0.07156771398323744,0.03927979071801314,1.8524461477339964e-06,100.0,,,,,,,,,,3.452,5.1063,2.6051,0.0,0.6025,0.007982,0.0,0.154,5.0,,,,,,3.3944,PASS,
162,s01_lqr_pitch_step,g000020_c0,20,,0.03278130327412432,0.0344699590717592,1.7436815575462956e-06,83.57145676026097,,,,,,,,,,3.4532,5.1094,2.5914,0.0,0.5973,0.008009,0.0,0.154,5.0,,,,,,3.41745,PASS,
163,s01_lqr_pitch_step,g000020_c1,20,,0.07937163948455081,0.003769002371773308,4.791345681318756e-06,100.0,,,,,,,,,,3.4563,5.1148,2.5881,0.0,0.5967,0.008006,0.0,0.154,5.0,,,,,,3.432,PASS,
164,s01_lqr_pitch_step,g000020_c2,20,,0.3150606061552008,0.006842964660347233,1.5606246422582313e-06,77.34537154875942,,,,,,,,,,3.4527,5.1092,2.5926,0.0,0.5975,0.008003,0.0,0.154,5.0,,,,,,3.3879,PASS,
165,s01_lqr_pitch_step,g000020_c3,20,,0.2035463894332386,0.01966881354787568,1.3151198349697228e-06,100.0,,,,,,,,,,3.4511,5.1066,2.5949,0.0,0.598,0.008012,0.0,0.154,5.0,,,,,,3.3846,PASS,
166,s01_lqr_pitch_step,g000020_c4,20,,0.06153326195754312,0.016268439580988284,9.39699687813734e-06,100.0,,,,,,,,,,3.4591,5.1182,2.5757,0.0,0.593,0.008007,0.0,0.154,5.0,,,,,,3.439775,PASS,
167,s01_lqr_pitch_step,g000020_c5,20,,0.4544556523978396,0.031564407274114345,1.0117293280150982e-06,100.0,,,,,,,,,,3.4515,5.1103,2.5938,0.0,0.5978,0.008011,0.0,0.156,5.0,,,,,,3.4153,PASS,
168,s01_lqr_pitch_step,g000020_c6,20,,0.07014150992994239,0.0180965363648295,1.7732920422023036e-06,88.42579127783789,,,,,,,,,,3.4526,5.1082,2.5912,0.0,0.5972,0.008009,0.0,0.154,5.0,,,,,,3.412,PASS,
169,s01_lqr_pitch_step,g000020_c7,20,,0.13362518977869944,0.03636032657995024,4.818643188577991e-06,100.0,,,,,,,,,,3.4572,5.1153,2.5836,0.0,0.5951,0.007979,0.0,0.154,5.0,,,,,,3.403775,PASS,
170,s01_lqr_pitch_step,g000021_c0,21,,0.07885595030983618,0.026867110449809214,2.7240475480689855e-06,100.0,,,,,,,,,,3.453,5.1099,2.5906,0.0,0.5971,0.008002,0.0,0.154,5.0,,,,,,3.428275,PASS,
171,s01_lqr_pitch_step,g000021_c1,21,,0.021588840091270406,0.04172925375669809,2.110555706880657e-06,100.0,,,,,,,,,,3.4523,5.1086,2.5819,0.0,0.5942,0.007996,0.0,0.154,5.0,,,,,,3.432575,PASS,
172,s01_lqr_pitch_step,g000021_c2,21,,0.051625658706512964,0.02681263639291424,1.691876412793977e-06,44.45014374502508,,,,,,,,,,3.4547,5.1114,2.5888,0.0,0.5968,0.008009,0.0,0.154,5.0,,,,,,3.435275,PASS,
173,s01_lqr_pitch_step,g000021_c3,21,,0.06516105359445205,0.01620575050791523,2.729715312298541e-06,100.0,,,,,,,,,,3.454,5.11,2.5846,0.0,0.5951,0.007981,0.0,0.154,5.0,,,,,,3.4219,PASS,
174,s01_lqr_pitch_step,g000021_c4,21,,0.03884520822341527,0.01012118391075821,4.579165131374556e-06,56.42774827875388,,,,,,,,,,3.4587,5.114,2.5794,0.0,0.594,0.007976,0.0,0.154,5.0,,,,,,3.410075,PASS,
175,s01_lqr_pitch_step,g000021_c5,21,,0.07516429433385262,0.03912880177989557,7.098644430786715e-07,100.0,,,,,,,,,,3.451,5.1102,2.5998,0.0,0.5998,0.007992,0.0,0.154,5.0,,,,,,3.41315,PASS,
176,s01_lqr_pitch_step,g000021_c6,21,,0.08462222895354113,0.014632788095830844,9.302649499364349e-07,100.0,,,,,,,,,,3.4498,5.1084,2.5968,0.0,0.5986,0.00801,0.0,0.156,5.0,,,,,,3.432375,PASS,
177,s01_lqr_pitch_step,g000021_c7,21,,0.04601165212222894,0.009151226093476772,8.870066366021807e-06,100.0,,,,,,,,,,3.4582,5.1143,2.5815,0.0,0.595,0.00801,0.0,0.154,5.0,,,,,,3.41035,PASS,
178,s01_lqr_pitch_step,g000022_c0,22,,0.20589193449867935,0.022539470057262603,4.074509946495378e-06,100.0,,,,,,,,,,3.455,5.1141,2.5899,0.0,0.5971,0.007993,0.0,0.154,5.0,,,,,,3.4232,PASS,
179,s01_lqr_pitch_step,g000022_c1,22,,0.1382062157790145,0.02517478855753458,2.1796908399472407e-06,100.0,,,,,,,,,,3.4534,5.1103,2.5912,0.0,0.5973,0.008007,0.0,0.154,5.0,,,,,,3.4387,PASS,
180,s01_lqr_pitch_step,g000022_c2,22,,0.05391522759984085,0.0539713087255151,2.0762900729717114e-06,77.15031617459191,,,,,,,,,,3.4533,5.1119,2.5902,0.0,0.5969,0.008011,0.0,0.154,5.0,,,,,,3.388375,PASS,
181,s01_lqr_pitch_step,g000022_c3,22,,0.1648188427633508,0.03045695462929989,2.905972096382345e-06,100.0,,,,,,,,,,3.4543,5.1129,2.5887,0.0,0.5964,0.007974,0.0,0.154,5.0,,,,,,3.408925,PASS,
182,s01_lqr_pitch_step,g000022_c4,22,,0.11211961192740898,0.018420556711989052,3.280843054537973e-06,90.4938504984903,,,,,,,,,,3.4548,5.1127,2.5874,0.0,0.5964,0.008009,0.0,0.154,5.0,,,,,,3.4136,PASS,
183,s01_lqr_pitch_step,g000022_c5,22,,0.09595065220473119,0.009013719919867068,4.685285762749178e-06,100.0,,,,,,,,,,3.455,5.1113,2.5869,0.0,0.5962,0.008006,0.0,0.154,5.0,,,,,,3.4414,PASS,
184,s01_lqr_pitch_step,g000022_c6,22,,0.09441922628879258,0.01344137532851187,1.0339153185598418e-06,87.26699751401962,,,,,,,,,,3.4509,5.1037,2.5944,0.0,0.5981,0.008001,0.0,0.154,5.0,,,,,,3.381575,PASS,
185,s01_lqr_pitch_step,g000022_c7,22,,0.19036315962821787,0.014429127289871488,3.143650775220309e-06,82.43501490604575,,,,,,,,,,3.4554,5.111,2.589,0.0,0.5969,0.00801,0.0,0.154,5.0,,,,,,3.401925,PASS,
186,s01_lqr_pitch_step,g000023_c0,23,,0.1054496174379799,0.01635342083057516,2.2249532080736867e-06,100.0,,,,,,,,,,3.4528,5.1113,2.5913,0.0,0.5972,0.008009,0.0,0.154,5.0,,,,,,3.396375,PASS,
187,s01_lqr_pitch_step,g000023_c1,23,,0.06617022178068732,0.015773769227782366,2.7124764893953344e-06,100.0,,,,,,,,,,3.4535,5.1124,2.5915,0.0,0.5974,0.008005,0.0,0.154,5.0,,,,,,3.429125,PASS,
188,s01_lqr_pitch_step,g000023_c2,23,,0.08134752210954893,0.02528995602360674,1.6745764297075234e-06,77.94454771090304,,,,,,,,,,3.4523,5.1103,2.5913,0.0,0.5973,0.008004,0.0,0.154,5.0,,,,,,3.427675,PASS,
189,s01_lqr_pitch_step,g000023_c3,23,,0.07542427265990649,0.012429075313367594,2.0797639607101394e-06,83.61375126045347,,,,,,,,,,3.4534,5.1084,2.5879,0.0,0.5961,0.008003,0.0,0.154,5.0,,,,,,3.422625,PASS,
190,s01_lqr_pitch_step,g000023_c4,23,,0.09923115693394437,0.01681341604852383,1.7945752478279625e-06,100.0,,,,,,,,,,3.452,5.109,2.6064,0.0,0.6031,0.007979,0.0,0.154,5.0,,,,,,3.392425,PASS,
191,s01_lqr_pitch_step,g000023_c5,23,,0.12054294405607659,0.024439062708625652,2.201587435829562e-06,47.58072223359065,,,,,,,,,,3.4565,5.1112,2.5906,0.0,0.5975,0.007988,0.0,0.154,5.0,,,,,,3.41385,PASS,
192,s01_lqr_pitch_step,g000023_c6,23,,0.08807766005698385,0.016619767582004733,2.394941029609847e-06,53.58344763713376,,,,,,,,,,3.4555,5.1096,2.588,0.0,0.5965,0.008004,0.0,0.154,5.0,,,,,,3.412,PASS,
193,s01_lqr_pitch_step,g000023_c7,23,,0.09644968729668722,0.02552159386835541,2.323848531221968e-06,100.0,,,,,,,,,,3.4536,5.1086,2.5888,0.0,0.5962,0.007973,0.0,0.154,5.0,,,,,,3.417075,PASS,
194,s01_lqr_pitch_step,g000024_c0,24,,0.09613341136843019,0.0218371963736189,2.416251441364059e-06,88.42690822197892,,,,,,,,,,3.4533,5.111,2.5869,0.0,0.5957,0.007977,0.0,0.154,5.0,,,,,,3.4071,PASS,
195,s01_lqr_pitch_step,g000024_c1,24,,0.09131074690512218,0.010445283589356728,1.1856328579871508e-06,100.0,,,,,,,,,,3.451,5.1089,2.5912,0.0,0.5968,0.00798,0.0,0.154,5.0,,,,,,3.39275,PASS,
196,s01_lqr_pitch_step,g000024_c2,24,,0.09871630350317831,0.024035537257761676,2.6612905850547263e-06,63.39308283697345,,,,,,,,,,3.4559,5.1138,2.5881,0.0,0.5965,0.007977,0.0,0.154,5.0,,,,,,3.4089,PASS,
197,s01_lqr_pitch_step,g000024_c3,24,,0.11396923524331613,0.031226936746423507,2.0360711950786983e-06,100.0,,,,,,,,,,3.4529,5.1104,2.5921,0.0,0.5975,0.008007,0.0,0.154,5.0,,,,,,3.403925,PASS,
198,s01_lqr_pitch_step,g000024_c4,24,,0.11136262639057626,0.021823635206322585,2.551734346864427e-06,100.0,,,,,,,,,,3.4529,5.1115,2.5914,0.0,0.5973,0.008011,0.0,0.154,5.0,,,,,,3.453325,PASS,
199,s01_lqr_pitch_step,g000024_c5,24,,0.09201085263085347,0.024689947752325997,1.979663923951721e-06,100.0,,,,,,,,,,3.4526,5.1105,2.592,0.0,0.5975,0.008002,0.0,0.154,5.0,,,,,,3.421025,PASS,
200,s01_lqr_pitch_step,g000024_c6,24,,0.07161252774466684,0.022279883677751283,4.3513311287652e-06,85.69939862369448,,,,,,,,,,3.456,5.1107,2.5864,0.0,0.5961,0.008008,0.0,0.154,5.0,,,,,,3.407825,PASS,
201,s01_lqr_pitch_step,g000024_c7,24,,0.061695817564148416,0.01610920257704106,1.7082961058862067e-06,79.61242148571445,,,,,,,,,,3.4529,5.1111,2.5922,0.0,0.5975,0.008006,0.0,0.154,5.0,,,,,,3.421325,PASS,
202,s01_lqr_pitch_step,g000025_c0,25,,0.08720846747091786,0.018739414135505558,2.2228870225698466e-06,100.0,,,,,,,,,,3.4521,5.1094,2.5934,0.0,0.5978,0.008004,0.0,0.154,5.0,,,,,,3.398375,PASS,
203,s01_lqr_pitch_step,g000025_c1,25,,0.0866350225400926,0.017478576071125223,2.5144573387534687e-06,97.71487427733655,,,,,,,,,,3.4533,5.1101,2.5912,0.0,0.5973,0.008002,0.0,0.154,5.0,,,,,,3.388625,PASS,
204,s01_lqr_pitch_step,g000025_c2,25,,0.0717708552324113,0.01698637811975018,1.080600933950489e-06,100.0,,,,,,,,,,3.4505,5.1058,2.5957,0.0,0.5983,0.008015,0.0,0.154,5.0,,,,,,3.415375,PASS,
205,s01_lqr_pitch_step,g000025_c3,25,,0.1098257212741442,0.02494330613871106,1.6617497437595254e-06,83.05567307103478,,,,,,,,,,3.4522,5.1092,2.5925,0.0,0.5976,0.008013,0.0,0.154,5.0,,,,,,3.40675,PASS,
206,s01_lqr_pitch_step,g000025_c4,25,,0.12645324361355303,0.014562842401404989,3.107149182319147e-06,71.4236235361171,,,,,,,,,,3.4545,5.1116,2.6054,0.0,0.6038,0.007972,0.0,0.154,5.0,,,,,,3.38905,PASS,
207,s01_lqr_pitch_step,g000025_c5,25,,0.10177057239636605,0.02354489129948516,1.7377938885664943e-06,66.34639121921167,,,,,,,,,,3.4539,5.1107,2.5905,0.0,0.5973,0.008013,0.0,0.154,5.0,,,,,,3.446575,PASS,
208,s01_lqr_pitch_step,g000025_c6,25,,0.06663325770002147,0.015356530054856427,2.602029707132274e-06,100.0,,,,,,,,,,3.4534,5.1095,2.5919,0.0,0.5975,0.008002,0.0,0.156,5.0,,,,,,3.4201,PASS,
209,s01_lqr_pitch_step,g000025_c7,25,,0.11400623241931664,0.030110658712459222,2.1825366393326517e-06,86.74953588673911,,,,,,,,,,3.4532,5.1117,2.593,0.0,0.5978,0.007997,0.0,0.154,5.0,,,,,,3.42445,PASS,
210,s01_lqr_pitch_step,g000026_c0,26,,0.11644234078653498,0.017237945235420722,1.975826465343096e-06,78.51362005987153,,,,,,,,,,3.4546,5.1141,2.5909,0.0,0.5971,0.00801,0.0,0.154,5.0,,,,,,3.407625,PASS,
211,s01_lqr_pitch_step,g000026_c1,26,,0.09291512933751878,0.022669758489904705,3.045006052362103e-06,93.45484849609701,,,,,,,,,,3.454,5.1093,2.59,0.0,0.597,0.008,0.0,0.154,5.0,,,,,,3.4116,PASS,
212,s01_lqr_pitch_step,g000026_c2,26,,0.1139353659528925,0.021919434416518373,2.142446176269023e-06,75.44531155147922,,,,,,,,,,3.4538,5.1109,2.593,0.0,0.5979,0.00799,0.0,0.156,5.0,,,,,,3.446525,PASS,
213,s01_lqr_pitch_step,g000026_c3,26,,0.10092735882247353,0.016182626892094303,1.5049856102365993e-06,75.91404345557079,,,,,,,,,,3.4521,5.1082,2.594,0.0,0.598,0.007985,0.0,0.154,5.0,,,,,,3.4219,PASS,
214,s01_lqr_pitch_step,g000026_c4,26,,0.12577778698504194,0.03638632583909172,2.5601923754143664e-06,100.0,,,,,,,,,,3.4527,5.1095,2.5909,0.0,0.5972,0.008012,0.0,0.154,5.0,,,,,,3.4292,PASS,
215,s01_lqr_pitch_step,g000026_c5,26,,0.09519941972236506,0.017021383711286833,2.979279197472163e-06,99.7056921034639,,,,,,,,,,3.4541,5.1092,2.5902,0.0,0.5971,0.008001,0.0,0.154,5.0,,,,,,3.4011,PASS,
216,s01_lqr_pitch_step,g000026_c6,26,,0.09884232311766515,0.026142269116257253,1.6184372966818982e-06,100.0,,,,,,,,,,3.4532,5.1094,2.5868,0.0,0.5955,0.007985,0.0,0.154,5.0,,,,,,3.43015,PASS,
217,s01_lqr_pitch_step,g000026_c7,26,,0.11796164606285242,0.022327127025844214,2.4750634864427896e-06,100.0,,,,,,,,,,3.453,5.1107,2.5921,0.0,0.5974,0.00801,0.0,0.154,5.0,,,,,,3.390825,PASS,
218,s01_lqr_pitch_step,g000027_c0,27,,0.12365480700510247,0.03141540646618177,2.3118750803011766e-06,91.647254112961,,,,,,,,,,3.453,5.1071,2.591,0.0,0.5972,0.008004,0.0,0.154,5.0,,,,,,3.390925,PASS,
219,s01_lqr_pitch_step,g000027_c1,27,,0.14602955693612008,0.027272572417111434,2.1611949055797345e-06,100.0,,,,,,,,,,3.4534,5.1101,2.5934,0.0,0.5981,0.007998,0.0,0.154,5.0,,,,,,3.413625,PASS,
220,s01_lqr_pitch_step,g000027_c2,27,,0.08125296010876316,0.025887892139204435,2.9196486976405664e-06,100.0,,,,,,,,,,3.4546,5.1129,2.5903,0.0,0.5972,0.008011,0.0,0.154,5.0,,,,,,3.4381,PASS,
221,s01_lqr_pitch_step,g000027_c3,27,,0.0899021681942949,0.021387757255963,2.0355138777690357e-06,100.0,,,,,,,,,,3.453,5.1098,2.5927,0.0,0.5977,0.00801,0.0,0.154,5.0,,,,,,3.4223,PASS,
222,s01_lqr_pitch_step,g000027_c4,27,,0.09662057382802285,0.021518571624720532,1.8739159954796492e-06,100.0,,,,,,,,,,3.4527,5.1082,2.5923,0.0,0.5975,0.008006,0.0,0.154,5.0,,,,,,3.405675,PASS,
223,s01_lqr_pitch_step,g000027_c5,27,,0.08439324271505272,0.023122974433791077,2.2976396522075337e-06,70.11852763597417,,,,,,,,,,3.454,5.1119,2.5901,0.0,0.5969,0.008011,0.0,0.154,5.0,,,,,,3.3934,PASS,
224,s01_lqr_pitch_step,g000027_c6,27,,0.10297869675039752,0.026959013294081617,2.9800815305533304e-06,100.0,,,,,,,,,,3.4539,5.1105,2.5906,0.0,0.5972,0.00801,0.0,0.154,5.0,,,,,,3.44045,PASS,
225,s01_lqr_pitch_step,g000027_c7,27,,0.11701396232450957,0.017770206476503222,2.5004321798705747e-06,87.8668908437789,,,,,,,,,,3.4533,5.1126,2.5902,0.0,0.597,0.008009,0.0,0.154,5.0,,,,,,3.405375,PASS,
226,s01_lqr_pitch_step,g000028_c0,28,,0.08168923805200093,0.01744170226490106,2.178917550487423e-06,93.42300242429393,,,,,,,,,,3.4534,5.1119,2.5912,0.0,0.5972,0.008009,0.0,0.154,5.0,,,,,,3.40865,PASS,
227,s01_lqr_pitch_step,g000028_c1,28,,0.11381934751828729,0.02997741016732592,2.568295954290942e-06,99.922832474246,,,,,,,,,,3.4536,5.1103,2.5843,0.0,0.5949,0.007995,0.0,0.156,5.0,,,,,,3.444175,PASS,
228,s01_lqr_pitch_step,g000028_c2,28,,0.10782256539171184,0.015661147904077875,2.774328105058811e-06,84.88348149183442,,,,,,,,,,3.4552,5.1132,2.5951,0.0,0.5989,0.008011,0.0,0.154,5.0,,,,,,3.435475,PASS,
229,s01_lqr_pitch_step,g000028_c3,28,,0.12093170574869902,0.02427507591963533,2.0492617922461807e-06,93.10409303026546,,,,,,,,,,3.4533,5.107,2.5988,0.0,0.6001,0.007977,0.0,0.154,5.0,,,,,,3.4093,PASS,
230,s01_lqr_pitch_step,g000028_c4,28,,0.08092912999557673,0.023727194455305536,2.92095567242467e-06,95.95300506528925,,,,,,,,,,3.4533,5.1062,2.5814,0.0,0.5941,0.008005,0.0,0.154,5.0,,,,,,3.41765,PASS,
231,s01_lqr_pitch_step,g000028_c5,28,,0.10745912541545276,0.02204194808151801,2.0669315402724936e-06,100.0,,,,,,,,,,3.4527,5.1105,2.5909,0.0,0.5971,0.008011,0.0,0.154,5.0,,,,,,3.3981,PASS,
232,s01_lqr_pitch_step,g000028_c6,28,,0.09716763750818842,0.020486695697515128,1.9666427263911743e-06,94.72895130294006,,,,,,,,,,3.4531,5.109,2.5916,0.0,0.5973,0.008014,0.0,0.156,5.0,,,,,,3.4187,PASS,
233,s01_lqr_pitch_step,g000028_c7,28,,0.10249309866546935,0.020986211711099146,2.2899259273748396e-06,100.0,,,,,,,,,,3.4531,5.1081,2.5914,0.0,0.5973,0.007983,0.0,0.154,5.0,,,,,,3.421,PASS,
234,s01_lqr_pitch_step,g000029_c0,29,,0.10114599012623521,0.020218748296910307,2.1842570758196905e-06,100.0,,,,,,,,,,3.4532,5.1052,2.5907,0.0,0.5972,0.008009,0.0,0.154,5.0,,,,,,3.43095,PASS,
235,s01_lqr_pitch_step,g000029_c1,29,,0.09282413868435282,0.02573279905901557,2.2128763992222255e-06,100.0,,,,,,,,,,3.4525,5.1085,2.5935,0.0,0.5978,0.008,0.0,0.156,5.0,,,,,,3.405875,PASS,
236,s01_lqr_pitch_step,g000029_c2,29,,0.11086359058355895,0.018362881666584476,1.8514145860114887e-06,100.0,,,,,,,,,,3.4528,5.1088,2.5992,0.0,0.6,0.007978,0.0,0.154,5.0,,,,,,3.40405,PASS,
237,s01_lqr_pitch_step,g000029_c3,29,,0.09182494283686185,0.021173723714983137,2.044528517770204e-06,100.0,,,,,,,,,,3.4529,5.1093,2.5966,0.0,0.599,0.00801,0.0,0.154,5.0,,,,,,3.4019,PASS,
238,s01_lqr_pitch_step,g000029_c4,29,,0.08950707603921211,0.02825577205711615,2.3248756283513116e-06,100.0,,,,,,,,,,3.4532,5.1107,2.5901,0.0,0.597,0.008009,0.0,0.154,5.0,,,,,,3.3885,PASS,
239,s01_lqr_pitch_step,g000029_c5,29,,0.09888654461037379,0.01977226122948469,2.3526679055027817e-06,97.59213073626748,,,,,,,,,,3.4532,5.1134,2.5859,0.0,0.5955,0.007985,0.0,0.156,5.0,,,,,,3.400175,PASS,
240,s01_lqr_pitch_step,g000029_c6,29,,0.07777385419541027,0.022231562329761135,2.610026628864839e-06,83.61760983637222,,,,,,,,,,3.4543,5.1131,2.5913,0.0,0.5973,0.008006,0.0,0.156,5.0,,,,,,3.39165,PASS,
241,s01_lqr_pitch_step,g000029_c7,29,,0.09982964537471099,0.018337566464060557,2.152220401476253e-06,98.13869066106837,,,,,,,,,,3.4535,5.1107,2.5939,0.0,0.5982,0.007987,0.0,0.154,5.0,,,,,,3.38525,PASS,
242,s01_lqr_pitch_step,g000030_c0,30,,0.09781197450355819,0.02393202743031903,2.5731384446705203e-06,100.0,,,,,,,,,,3.4536,5.1101,2.5967,0.0,0.5993,0.008007,0.0,0.154,5.0,,,,,,3.424425,PASS,
243,s01_lqr_pitch_step,g000030_c1,30,,0.10709890107896992,0.024841743545129167,2.4621522167659365e-06,100.0,,,,,,,,,,3.4532,5.1137,2.5806,0.0,0.5939,0.007996,0.0,0.154,5.0,,,,,,3.390475,PASS,
244,s01_lqr_pitch_step,g000030_c2,30,,0.08093949466425497,0.022106045584556085,2.143954513723282e-06,90.08022274079285,,,,,,,,,,3.4537,5.1113,2.5909,0.0,0.5972,0.008009,0.0,0.154,5.0,,,,,,3.406325,PASS,
245,s01_lqr_pitch_step,g000030_c3,30,,0.10182075757807939,0.020621326942573882,2.223015149165737e-06,100.0,,,,,,,,,,3.4536,5.1116,2.5908,0.0,0.5971,0.00801,0.0,0.154,5.0,,,,,,3.361875,PASS,
246,s01_lqr_pitch_step,g000030_c4,30,,0.10268595284484555,0.01999903918763157,2.5167680452864096e-06,100.0,,,,,,,,,,3.4539,5.1082,2.5879,0.0,0.596,0.007977,0.0,0.154,5.0,,,,,,3.40055,PASS,
247,s01_lqr_pitch_step,g000030_c5,30,,0.09822852256355857,0.021566643792441834,2.289599972273437e-06,100.0,,,,,,,,,,3.4523,5.107,2.5926,0.0,0.5976,0.008009,0.0,0.154,5.0,,,,,,3.43735,PASS,
248,s01_lqr_pitch_step,g000030_c6,30,,0.09889743755041304,0.019003044801517502,2.281140860938811e-06,100.0,,,,,,,,,,3.4532,5.1104,2.5936,0.0,0.5979,0.008006,0.0,0.154,5.0,,,,,,3.4269,PASS,
249,s01_lqr_pitch_step,g000030_c7,30,,0.09264663594541306,0.02007027194473516,2.099819435345577e-06,100.0,,,,,,,,,,3.4525,5.1098,2.5917,0.0,0.5973,0.008011,0.0,0.154,5.0,,,,,,3.42935,PASS,
250,s01_lqr_pitch_step,g000031_c0,31,,0.09320915698801008,0.024275590715214835,2.357294288106671e-06,91.64484995273644,,,,,,,,,,3.4534,5.1105,2.5897,0.0,0.5969,0.008003,0.0,0.154,5.0,,,,,,3.41025,PASS,
251,s01_lqr_pitch_step,g000031_c1,31,,0.10351530752210154,0.019595715484431182,2.4323278292623384e-06,92.25904161554412,,,,,,,,,,3.4529,5.1093,2.5908,0.0,0.5972,0.008008,0.0,0.154,5.0,,,,,,3.4018,PASS,
252,s01_lqr_pitch_step,g000031_c2,31,,0.09118088056801801,0.020763235760886387,2.406057723417057e-06,100.0,,,,,,,,,,3.4532,5.1105,2.5966,0.0,0.5994,0.007983,0.0,0.154,5.0,,,,,,3.381275,PASS,
253,s01_lqr_pitch_step,g000031_c3,31,,0.09650020281436518,0.022595206081252386,1.9325798581998933e-06,99.11238878636019,,,,,,,,,,3.4514,5.1103,2.5932,0.0,0.5978,0.008001,0.0,0.154,5.0,,,,,,3.3991,PASS,
254,s01_lqr_pitch_step,g000031_c4,31,,0.09966221521172229,0.020552558238380318,2.3965423384285503e-06,94.02887399941963,,,,,,,,,,3.4539,5.1115,2.5918,0.0,0.5975,0.008009,0.0,0.154,5.0,,,,,,3.4254,PASS,
255,s01_lqr_pitch_step,g000031_c5,31,,0.09705445618475107,0.02102835722670213,2.3583958483639048e-06,98.28211598596083,,,,,,,,,,3.4537,5.1111,2.5876,0.0,0.596,0.00798,0.0,0.154,5.0,,,,,,3.40555,PASS,
256,s01_lqr_pitch_step,g000031_c6,31,,0.09135294573680353,0.022203061068914884,2.3635476386987244e-06,97.0697277841589,,,,,,,,,,3.4531,5.1111,2.588,0.0,0.5961,0.007982,0.0,0.154,5.0,,,,,,3.4223,PASS,
257,s01_lqr_pitch_step,g000031_c7,31,,0.11029991400359239,0.0240239765672027,2.3394278746597333e-06,96.69579466464866,,,,,,,,,,3.4536,5.1101,2.5919,0.0,0.5974,0.008001,0.0,0.154,5.0,,,,,,3.41695,PASS,
258,s01_lqr_pitch_step,g000032_c0,32,,0.092853872183697,0.022772008481038452,2.1312465886876663e-06,100.0,,,,,,,,,,3.4536,5.1111,2.5907,0.0,0.5971,0.008008,0.0,0.154,5.0,,,,,,3.392975,PASS,
259,s01_lqr_pitch_step,g000032_c1,32,,0.08590355496006767,0.02202067651088873,2.5764110855150184e-06,100.0,,,,,,,,,,3.4539,5.1105,2.5901,0.0,0.597,0.008013,0.0,0.154,5.0,,,,,,3.403325,PASS,
260,s01_lqr_pitch_step,g000032_c2,32,,0.08716451015300686,0.021035753345902637,2.379977506676852e-06,95.87303501081158,,,,,,,,,,3.4534,5.1107,2.5914,0.0,0.5973,0.008013,0.0,0.154,5.0,,,,,,3.4241,PASS,
261,s01_lqr_pitch_step,g000032_c3,32,,0.09128893332194295,0.019565584280780014,2.532236538751288e-06,100.0,,,,,,,,,,3.4535,5.1099,2.5916,0.0,0.5974,0.008012,0.0,0.154,5.0,,,,,,3.434625,PASS,
262,s01_lqr_pitch_step,g000032_c4,32,,0.08280343513961401,0.021746102567864894,2.3309056431178966e-06,94.32055333087729,,,,,,,,,,3.4532,5.1091,2.5906,0.0,0.5971,0.008011,0.0,0.154,5.0,,,,,,3.436775,PASS,
263,s01_lqr_pitch_step,g000032_c5,32,,0.10097072404550475,0.01844148997334884,2.2973674358779276e-06,99.98446290323002,,,,,,,,,,3.4523,5.108,2.5908,0.0,0.5971,0.00801,0.0,0.154,5.0,,,,,,3.4141,PASS,
264,s01_lqr_pitch_step,g000032_c6,32,,0.10302705256687182,0.021626215790904617,2.4251767164989375e-06,100.0,,,,,,,,,,3.4533,5.1125,2.5914,0.0,0.5974,0.00801,0.0,0.154,5.0,,,,,,3.44035,PASS,
265,s01_lqr_pitch_step,g000032_c7,32,,0.08416260383866674,0.022326275292872757,2.3281046668293066e-06,89.12959442145056,,,,,,,,,,3.4529,5.1106,2.592,0.0,0.5975,0.008009,0.0,0.154,5.0,,,,,,3.431725,PASS,
266,s01_lqr_pitch_step,g000033_c0,33,,0.0885725254714391,0.021143960501867017,2.2195442936076633e-06,96.92179769275589,,,,,,,,,,3.4528,5.1084,2.5929,0.0,0.5976,0.008005,0.0,0.154,5.0,,,,,,3.420775,PASS,
267,s01_lqr_pitch_step,g000033_c1,33,,0.08545580315758777,0.02345252936664092,2.489450106495688e-06,99.30499460814623,,,,,,,,,,3.4538,5.111,2.592,0.0,0.5975,0.008004,0.0,0.154,5.0,,,,,,3.433925,PASS,
268,s01_lqr_pitch_step,g000033_c2,33,,0.10287300646332515,0.020902745679310743,2.3100286459926772e-06,99.24230113549393,,,,,,,,,,3.4533,5.1098,2.5933,0.0,0.5978,0.008009,0.0,0.154,5.0,,,,,,3.438175,PASS,
269,s01_lqr_pitch_step,g000033_c3,33,,0.09505447423298323,0.02205581072082333,2.214692000499333e-06,91.32089775462471,,,,,,,,,,3.4538,5.1128,2.5914,0.0,0.5973,0.008009,0.0,0.154,5.0,,,,,,3.409625,PASS,
270,s01_lqr_pitch_step,g000033_c4,33,,0.09631815992401117,0.02039930852676781,2.327150865167298e-06,100.0,,,,,,,,,,3.4524,5.1077,2.5921,0.0,0.5975,0.007994,0.0,0.154,5.0,,,,,,3.407375,PASS,
271,s01_lqr_pitch_step,g000033_c5,33,,0.09195496688207933,0.022351897666187098,2.2864555052669686e-06,94.11267951865486,,,,,,,,,,3.4533,5.1136,2.5913,0.0,0.5973,0.008013,0.0,0.154,5.0,,,,,,3.42675,PASS,
272,s01_lqr_pitch_step,g000033_c6,33,,0.09783200478470756,0.023123442566117598,2.538685068377485e-06,92.89785700612819,,,,,,,,,,3.4542,5.1089,2.5848,0.0,0.595,0.007986,0.0,0.154,5.0,,,,,,3.406225,PASS,
273,s01_lqr_pitch_step,g000033_c7,33,,0.0889933957781608,0.021444822098049696,2.132455964040851e-06,100.0,,,,,,,,,,3.4526,5.1085,2.5925,0.0,0.5975,0.008007,0.0,0.154,5.0,,,,,,3.396225,PASS,
274,s01_lqr_pitch_step,g000034_c0,34,,0.0906523976187396,0.022092449511451333,2.21593237428246e-06,97.57742289019264,,,,,,,,,,3.453,5.111,2.5831,0.0,0.5945,0.007989,0.0,0.154,5.0,,,,,,3.41195,PASS,
275,s01_lqr_pitch_step,g000034_c1,34,,0.09636132332351482,0.020999143455122906,2.2303239285619962e-06,98.86730783999475,,,,,,,,,,3.4524,5.111,2.5923,0.0,0.5975,0.008007,0.0,0.154,5.0,,,,,,3.40415,PASS,
276,s01_lqr_pitch_step,g000034_c2,34,,0.0927744541342147,0.02058851961152971,2.3934330590061736e-06,95.6192290905721,,,,,,,,,,3.4533,5.1097,2.5911,0.0,0.5973,0.008011,0.0,0.154,5.0,,,,,,3.391125,PASS,
277,s01_lqr_pitch_step,g000034_c3,34,,0.09856710253653722,0.02174488698493162,2.615341728477526e-06,92.54175661188229,,,,,,,,,,3.4544,5.1109,2.5895,0.0,0.597,0.008012,0.0,0.154,5.0,,,,,,3.446825,PASS,
278,s01_lqr_pitch_step,g000034_c4,34,,0.09995403658370232,0.02431144059321761,2.2379474744137585e-06,100.0,,,,,,,,,,3.4533,5.11,2.5916,0.0,0.5974,0.008011,0.0,0.154,5.0,,,,,,3.397225,PASS,
279,s01_lqr_pitch_step,g000034_c5,34,,0.0935779441822972,0.022415143764617593,2.357992246308713e-06,98.22910048243024,,,,,,,,,,3.4528,5.1106,2.5911,0.0,0.5972,0.008011,0.0,0.154,5.0,,,,,,3.372375,PASS,
280,s01_lqr_pitch_step,g000034_c6,34,,0.09868829374462323,0.02094316243511284,2.330217991683304e-06,100.0,,,,,,,,,,3.4523,5.1091,2.5916,0.0,0.5975,0.008011,0.0,0.154,5.0,,,,,,3.413375,PASS,
281,s01_lqr_pitch_step,g000034_c7,34,,0.08873154847449889,0.02140233327705263,2.0921081130941205e-06,100.0,,,,,,,,,,3.4533,5.108,2.5878,0.0,0.596,0.007974,0.0,0.154,5.0,,,,,,3.40795,PASS,
282,s01_lqr_pitch_step,g000035_c0,35,,0.09819314285091624,0.02288375746201611,2.3585645766427633e-06,100.0,,,,,,,,,,3.4535,5.1138,2.5931,0.0,0.5977,0.008,0.0,0.156,5.0,,,,,,3.4043,PASS,
283,s01_lqr_pitch_step,g000035_c1,35,,0.09065571586787162,0.02135051680021288,2.214303776310047e-06,96.20441537448504,,,,,,,,,,3.4534,5.1122,2.5906,0.0,0.597,0.008008,0.0,0.154,5.0,,,,,,3.382225,PASS,
284,s01_lqr_pitch_step,g000035_c2,35,,0.099211359418641,0.02189759441361066,2.168837719558335e-06,95.25261689629617,,,,,,,,,,3.4538,5.1109,2.5918,0.0,0.5974,0.008011,0.0,0.154,5.0,,,,,,3.4282,PASS,
285,s01_lqr_pitch_step,g000035_c3,35,,0.08644101571882261,0.022872588097286678,2.18395331917793e-06,100.0,,,,,,,,,,3.4534,5.1101,2.5927,0.0,0.5976,0.008001,0.0,0.156,5.0,,,,,,3.41485,PASS,
286,s01_lqr_pitch_step,g000035_c4,35,,0.09447910392925461,0.021881574796532764,2.3407610377438297e-06,96.55093626146217,,,,,,,,,,3.4531,5.1087,2.5911,0.0,0.5973,0.008009,0.0,0.154,5.0,,,,,,3.4294,PASS,
287,s01_lqr_pitch_step,g000035_c5,35,,0.08805200739855491,0.021536247298036548,2.309337880625425e-06,100.0,,,,,,,,,,3.4541,5.1137,2.5909,0.0,0.5972,0.008004,0.0,0.154,5.0,,,,,,3.4375,PASS,
288,s01_lqr_pitch_step,g000035_c6,35,,0.09510861695185828,0.021773427452982986,2.2954103290186256e-06,98.35024738262166,,,,,,,,,,3.453,5.1119,2.5931,0.0,0.5979,0.00799,0.0,0.154,5.0,,,,,,3.4234,PASS,
289,s01_lqr_pitch_step,g000035_c7,35,,0.09155425092413413,0.022168142160485706,2.3774960246864313e-06,99.52941054350616,,,,,,,,,,3.4528,5.1098,2.5913,0.0,0.5973,0.008009,0.0,0.154,5.0,,,,,,3.394225,PASS,
290,s01_lqr_pitch_step,g000036_c0,36,,0.0896189251149636,0.02245625438754863,2.1857857796362633e-06,97.81065627440512,,,,,,,,,,3.4535,5.1077,2.5918,0.0,0.5975,0.008003,0.0,0.154,5.0,,,,,,3.4138,PASS,
291,s01_lqr_pitch_step,g000036_c1,36,,0.09324255884047514,0.021652447436784447,2.270659463636762e-06,100.0,,,,,,,,,,3.4536,5.1119,2.5918,0.0,0.5975,0.007993,0.0,0.154,5.0,,,,,,3.404475,PASS,
292,s01_lqr_pitch_step,g000036_c2,36,,0.09508816982673952,0.02142091961309499,2.292084257766532e-06,99.33735816779442,,,,,,,,,,3.4528,5.1075,2.5976,0.0,0.5995,0.008011,0.0,0.154,5.0,,,,,,3.42005,PASS,
293,s01_lqr_pitch_step,g000036_c3,36,,0.09082888321520678,0.02246421772646902,2.336225703781248e-06,92.9108830656338,,,,,,,,,,3.4535,5.1119,2.5902,0.0,0.597,0.008009,0.0,0.156,5.0,,,,,,3.424425,PASS,
294,s01_lqr_pitch_step,g000036_c4,36,,0.09468333939999746,0.020615794806197987,2.332474863411642e-06,96.04093248296131,,,,,,,,,,3.4531,5.1109,2.5925,0.0,0.5977,0.00801,0.0,0.154,5.0,,,,,,3.43535,PASS,
295,s01_lqr_pitch_step,g000036_c5,36,,0.09369585593119184,0.022301832328154733,2.286467458685211e-06,99.08874824250928,,,,,,,,,,3.4528,5.1115,2.5953,0.0,0.5986,0.008007,0.0,0.154,5.0,,,,,,3.431975,PASS,
296,s01_lqr_pitch_step,g000036_c6,36,,0.0940562955859764,0.022116453522097648,2.3476629287804614e-06,95.60544725675672,,,,,,,,,,3.4538,5.1091,2.5913,0.0,0.5973,0.008011,0.0,0.154,5.0,,,,,,3.397675,PASS,
297,s01_lqr_pitch_step,g000036_c7,36,,0.0964645491155331,0.022416897530916795,2.426107035191475e-06,95.44781973115163,,,,,,,,,,3.4539,5.1121,2.5888,0.0,0.5965,0.007989,0.0,0.154,5.0,,,,,,3.397975,PASS,
298,s01_lqr_pitch_step,g000037_c0,37,,0.09261119846086222,0.02259619124216654,2.4240981852069046e-06,100.0,,,,,,,,,,3.4538,5.1132,2.5871,0.0,0.5959,0.007973,0.0,0.154,5.0,,,,,,3.4122,PASS,
299,s01_lqr_pitch_step,g000037_c1,37,,0.09240179434190109,0.021901694490371194,2.3080755355554802e-06,100.0,,,,,,,,,,3.4526,5.1128,2.591,0.0,0.5972,0.00801,0.0,0.154,5.0,,,,,,3.423325,PASS,
300,s01_lqr_pitch_step,g000037_c2,37,,0.09580144979061544,0.02219303837941977,2.2989670570940365e-06,99.92627163680818,,,,,,,,,,3.4531,5.1136,2.5927,0.0,0.5976,0.00801,0.0,0.154,5.0,,,,,,3.413925,PASS,
301,s01_lqr_pitch_step,g000037_c3,37,,0.09375834888532604,0.022673682167717948,2.2562256395407535e-06,100.0,,,,,,,,,,3.4531,5.109,2.5911,0.0,0.5973,0.008009,0.0,0.154,5.0,,,,,,3.4296,PASS,
302,s01_lqr_pitch_step,g000037_c4,37,,0.09448328067766858,0.02168975164678541,2.251394312749188e-06,96.95540090547455,,,,,,,,,,3.4534,5.1129,2.5914,0.0,0.5973,0.00801,0.0,0.154,5.0,,,,,,3.40495,PASS,
303,s01_lqr_pitch_step,g000037_c5,37,,0.09637478600593706,0.02258032811521305,2.3531879516289463e-06,98.92477411030318,,,,,,,,,,3.4536,5.1071,2.5842,0.0,0.5949,0.00799,0.0,0.154,5.0,,,,,,3.413625,PASS,
304,s01_lqr_pitch_step,g000037_c6,37,,0.09684450049175014,0.021776082882150074,2.3961456265720716e-06,100.0,,,,,,,,,,3.4524,5.1096,2.5935,0.0,0.5978,0.007997,0.0,0.154,5.0,,,,,,3.400025,PASS,
305,s01_lqr_pitch_step,g000037_c7,37,,0.08960804069366059,0.021947397353530552,2.3357313792883935e-06,100.0,,,,,,,,,,3.4539,5.1104,2.5901,0.0,0.597,0.008005,0.0,0.154,5.0,,,,,,3.39755,PASS,
306,s01_lqr_pitch_step,g000038_c0,38,,0.09912360614779861,0.022006900408114607,2.254425659809223e-06,100.0,,,,,,,,,,3.4512,5.1103,2.5918,0.0,0.5973,0.008009,0.0,0.154,5.0,,,,,,3.4081,PASS,
307,s01_lqr_pitch_step,g000038_c1,38,,0.09452814182182011,0.02143160803186233,2.3637611442839803e-06,100.0,,,,,,,,,,3.4532,5.1085,2.5919,0.0,0.5975,0.00801,0.0,0.156,5.0,,,,,,3.427975,PASS,
308,s01_lqr_pitch_step,g000038_c2,38,,0.09639449427814378,0.021698210235697974,2.246774760242477e-06,100.0,,,,,,,,,,3.4536,5.1072,2.5909,0.0,0.5972,0.00801,0.0,0.154,5.0,,,,,,3.4127,PASS,
309,s01_lqr_pitch_step,g000038_c3,38,,0.09440633620297913,0.02152569941092266,2.294270557215537e-06,97.11928537303199,,,,,,,,,,3.4528,5.1066,2.5927,0.0,0.5977,0.008,0.0,0.154,5.0,,,,,,3.4284,PASS,
