run_id,scenario,label,gen,timestamp,Q_PITCH,Q_PITCH_RATE,Q_VEL,R,KP_V,KI_V,KFF_V,KP_YAW,KI_YAW,LEG_K_S,LEG_B_S,LEG_K_ROLL,LEG_D_ROLL,rms_pitch_deg,max_pitch_deg,wheel_travel_m,wheel_liftoff_s,vel_track_rms_ms,hip_track_rms_rad,hip_cmd_rate_rms,settle_time_s,survived_s,fitness_balance,fitness_disturbance,fitness_drive_slow,fitness_drive_med,fitness_obstacle,fitness,status,fail_reason
1,,evo_seed,0,,,,,,,,,,,,,,,12.1323,46.0,19.2653,2.936,3.5574,0.229058,22.5328,8.0,8.0,,,,,,0.08599999999999997,PASS,
2,,g000000_c0,0,,,,,,,,,,,,,,,3.7096,3.7096,0.0,0.0,0.0,0.0,0.0,8.0,0.0,,,,,,201.66666666666666,FAIL,fell over
3,,g000000_c1,0,,,,,,,,,,,,,,,,,,,,,,,,,,,,,500.0,FAIL,infeasible_geometry
4,,g000000_c2,0,,,,,,,,,,,,,,,4.187,46.4224,0.7869,0.0,2.8946,0.161885,17.2856,0.37,1.448,,,,,,199.8615,FAIL,fell over
5,,g000000_c3,0,,,,,,,,,,,,,,,13.1237,49.764,3.7782,0.262,8.5806,0.139158,11.7883,8.0,1.79,,,,,,200.16466666666665,FAIL,fell over
6,,g000000_c4,0,,,,,,,,,,,,,,,10.2799,46.8434,10.5193,0.722,9.0758,0.343744,32.1166,0.0,2.566,,,,,,199.402,FAIL,fell over
7,,g000000_c5,0,,,,,,,,,,,,,,,9.3447,31.3487,1.0488,0.116,3.8688,0.134682,13.3876,8.0,1.39,,,,,,200.22899999999998,FAIL,fell over
8,,g000000_c6,0,,,,,,,,,,,,,,,0.0,0.0,0.0,0.0,0.0,0.0,0.0,8.0,0.0,,,,,,201.66666666666666,FAIL,fell over
9,,g000000_c7,0,,,,,,,,,,,,,,,9.835,25.9189,18.4681,3.898,3.4293,0.137225,15.925,8.0,8.0,,,,,,0.08166666666666667,PASS,
10,,evo_seed,0,,,,,,,,,,,,,,,10.6981,39.1442,18.1291,2.932,3.3149,0.228702,22.5164,8.0,8.0,,,,,,0.03733333333333311,PASS,
11,,g000000_c0,0,,,,,,,,,,,,,,,,,,,,,,,,,,,,,500.0,FAIL,infeasible_geometry
12,,g000000_c1,0,,,,,,,,,,,,,,,0.0,0.0,0.0,0.0,0.0,0.0,0.0,8.0,0.0,,,,,,201.66666666666666,FAIL,fell over
13,,g000000_c2,0,,,,,,,,,,,,,,,10.5535,36.3771,13.0698,1.574,2.8103,0.235353,21.7302,8.0,8.0,,,,,,0.1443333333333333,PASS,
14,,g000000_c3,0,,,,,,,,,,,,,,,9.9843,28.5283,24.086,2.424,5.4501,0.189719,20.4206,0.0,8.0,,,,,,-0.7556666666666665,PASS,
15,,g000000_c4,0,,,,,,,,,,,,,,,10.839,36.2187,18.7057,3.388,3.7333,0.405311,38.3971,8.0,8.0,,,,,,0.3609999999999999,PASS,
16,,g000000_c5,0,,,,,,,,,,,,,,,,,,,,,,,,,,,,,500.0,FAIL,infeasible_geometry
17,,g000000_c6,0,,,,,,,,,,,,,,,,,,,,,,,,,,,,,500.0,FAIL,infeasible_geometry
18,,g000000_c7,0,,,,,,,,,,,,,,,7.0884,16.8964,11.576,1.244,2.6339,0.366032,33.547,8.0,8.0,,,,,,0.275,PASS,
19,,g000001_c0,1,,,,,,,,,,,,,,,15.1209,54.8988,3.5175,0.274,9.1409,0.144124,13.7165,8.0,1.588,,,,,,200.31366666666665,FAIL,fell over
20,,g000001_c1,1,,,,,,,,,,,,,,,11.4926,64.3925,5.9823,0.306,12.3743,0.181887,17.9506,0.426,1.656,,,,,,199.3925,FAIL,fell over
21,,g000001_c2,1,,,,,,,,,,,,,,,9.9786,45.0326,10.0131,1.134,3.0444,0.171947,15.8605,0.0,5.572,,,,,,199.39833333333334,FAIL,fell over
22,,g000001_c3,1,,,,,,,,,,,,,,,8.8799,22.0284,16.6938,3.074,3.3271,0.143044,15.6139,8.0,8.0,,,,,,0.31066666666666654,PASS,
23,,g000001_c4,1,,,,,,,,,,,,,,,,,,,,,,,,,,,,,500.0,FAIL,infeasible_geometry
24,,g000001_c5,1,,,,,,,,,,,,,,,9.0278,45.7263,6.43,0.984,3.0584,0.167801,16.8349,0.0,3.582,,,,,,199.316,FAIL,fell over
25,,g000001_c6,1,,,,,,,,,,,,,,,3.7096,3.7096,0.0,0.0,0.0,0.0,0.0,8.0,0.0,,,,,,201.66666666666666,FAIL,fell over
26,,g000001_c7,1,,,,,,,,,,,,,,,15.1708,58.1134,3.3576,0.28,9.0346,0.144675,13.0544,8.0,1.596,,,,,,200.29366666666667,FAIL,fell over
27,,g000002_c0,2,,,,,,,,,,,,,,,9.564,45.4577,8.3548,1.136,2.5448,0.169438,15.9356,0.0,5.532,,,,,,199.44166666666666,FAIL,fell over
28,,g000002_c1,2,,,,,,,,,,,,,,,0.0,0.0,0.0,0.0,0.0,0.0,0.0,8.0,0.0,,,,,,201.66666666666666,FAIL,fell over
29,,g000002_c2,2,,,,,,,,,,,,,,,0.0,0.0,0.0,0.0,0.0,0.0,0.0,8.0,0.0,,,,,,201.66666666666666,FAIL,fell over
30,,g000002_c3,2,,,,,,,,,,,,,,,11.5491,32.9157,15.777,3.552,2.9786,0.13384,13.9691,8.0,8.0,,,,,,0.01766666666666661,PASS,
31,,g000002_c4,2,,,,,,,,,,,,,,,0.0,0.0,0.0,0.0,0.0,0.0,0.0,8.0,0.0,,,,,,201.66666666666666,FAIL,fell over
32,,g000002_c5,2,,,,,,,,,,,,,,,,,,,,,,,,,,,,,500.0,FAIL,infeasible_geometry
33,,g000002_c6,2,,,,,,,,,,,,,,,9.2462,26.6727,21.0454,4.8,3.8375,0.426397,42.2061,8.0,8.0,,,,,,0.23999999999999988,PASS,
34,,g000002_c7,2,,,,,,,,,,,,,,,9.798,24.4521,26.9119,2.618,5.8544,0.169843,19.5857,0.0,8.0,,,,,,-0.8370000000000002,PASS,
35,,g000003_c0,3,,,,,,,,,,,,,,,,,,,,,,,,,,,,,500.0,FAIL,infeasible_geometry
36,,g000003_c1,3,,,,,,,,,,,,,,,10.5995,29.2006,16.0402,4.19,2.9575,0.131925,15.8559,8.0,8.0,,,,,,0.06933333333333314,PASS,
37,,g000003_c2,3,,,,,,,,,,,,,,,,,,,,,,,,,,,,,500.0,FAIL,infeasible_geometry
38,,g000003_c3,3,,,,,,,,,,,,,,,5.0611,45.6195,0.9699,0.008,3.1243,0.20267,20.5824,0.352,1.472,,,,,,199.78,FAIL,fell over
39,,g000003_c4,3,,,,,,,,,,,,,,,13.1996,52.5988,3.5094,0.246,8.1367,0.13759,11.8409,8.0,1.774,,,,,,200.24566666666666,FAIL,fell over
40,,g000003_c5,3,,,,,,,,,,,,,,,,,,,,,,,,,,,,,500.0,FAIL,infeasible_geometry
41,,g000003_c6,3,,,,,,,,,,,,,,,,,,,,,,,,,,,,,500.0,FAIL,infeasible_geometry
42,,g000003_c7,3,,,,,,,,,,,,,,,11.1439,30.8715,22.0195,2.072,5.2716,0.220979,18.6766,8.0,8.0,,,,,,-0.2636666666666666,PASS,
43,,g000004_c0,4,,,,,,,,,,,,,,,13.661,49.5088,3.2929,0.236,8.966,0.140361,12.6035,8.0,1.566,,,,,,200.20633333333333,FAIL,fell over
44,,g000004_c1,4,,,,,,,,,,,,,,,19.7046,19.7046,0.0,0.0,0.0,0.0,0.0,8.0,0.0,,,,,,201.66666666666666,FAIL,fell over
45,,g000004_c2,4,,,,,,,,,,,,,,,,,,,,,,,,,,,,,500.0,FAIL,infeasible_geometry
46,,g000004_c3,4,,,,,,,,,,,,,,,9.5716,26.7237,13.0318,2.028,2.7064,0.405559,37.9284,8.0,8.0,,,,,,0.20299999999999996,PASS,
47,,g000004_c4,4,,,,,,,,,,,,,,,5.527,42.6624,0.9289,0.012,2.5382,0.139182,13.7847,0.0,1.514,,,,,,199.642,FAIL,fell over
48,,g000004_c5,4,,,,,,,,,,,,,,,19.7046,19.7046,0.0,0.0,0.0,0.0,0.0,8.0,0.0,,,,,,201.66666666666666,FAIL,fell over
49,,g000004_c6,4,,,,,,,,,,,,,,,12.6212,45.7203,13.1422,0.686,6.7848,0.213547,24.3763,0.0,3.416,,,,,,199.263,FAIL,fell over
50,,g000004_c7,4,,,,,,,,,,,,,,,0.0,0.0,0.0,0.0,0.0,0.0,0.0,8.0,0.0,,,,,,201.66666666666666,FAIL,fell over
51,,g000005_c0,5,,,,,,,,,,,,,,,9.8502,26.2785,17.3287,3.698,3.187,0.140176,14.7589,8.0,8.0,,,,,,0.09633333333333327,PASS,
52,,g000005_c1,5,,,,,,,,,,,,,,,0.0,0.0,0.0,0.0,0.0,0.0,0.0,8.0,0.0,,,,,,201.66666666666666,FAIL,fell over
53,,g000005_c2,5,,,,,,,,,,,,,,,10.1788,24.199,14.1113,2.31,2.9355,0.564861,39.719,8.0,8.0,,,,,,0.5356666666666666,PASS,
54,,g000005_c3,5,,,,,,,,,,,,,,,17.1324,45.0694,7.6818,1.002,4.8394,0.262743,24.321,8.0,3.708,,,,,,200.01966666666667,FAIL,fell over
55,,g000005_c4,5,,,,,,,,,,,,,,,7.9466,18.9147,16.8585,1.766,3.4373,0.343226,35.5636,8.0,8.0,,,,,,0.21766666666666656,PASS,
56,,g000005_c5,5,,,,,,,,,,,,,,,9.6992,26.208,26.7248,2.168,5.9748,0.157561,17.4561,0.0,8.0,,,,,,-0.825,PASS,
57,,g000005_c6,5,,,,,,,,,,,,,,,,,,,,,,,,,,,,,500.0,FAIL,infeasible_geometry
58,,g000005_c7,5,,,,,,,,,,,,,,,13.5314,49.3858,3.0467,0.26,8.6444,0.139773,12.8431,8.0,1.55,,,,,,200.28766666666667,FAIL,fell over
59,,g000006_c0,6,,,,,,,,,,,,,,,12.6244,31.1349,18.6844,3.63,3.3975,0.14077,14.117,0.0,8.0,,,,,,-0.7630000000000001,PASS,
60,,g000006_c1,6,,,,,,,,,,,,,,,6.8201,36.8349,0.6979,0.05,2.1888,0.130691,12.563,8.0,1.574,,,,,,200.27666666666667,FAIL,fell over
61,,g000006_c2,6,,,,,,,,,,,,,,,7.4969,7.4969,0.0,0.0,0.0,0.0,0.0,8.0,0.0,,,,,,201.66666666666666,FAIL,fell over
62,,g000006_c3,6,,,,,,,,,,,,,,,9.8309,27.0019,15.1199,1.986,3.0093,0.561129,37.4136,8.0,8.0,,,,,,0.5743333333333333,PASS,
63,,g000006_c4,6,,,,,,,,,,,,,,,8.734,27.665,16.8244,5.524,2.9672,0.213421,25.169,8.0,8.0,,,,,,0.09866666666666657,PASS,
64,,g000006_c5,6,,,,,,,,,,,,,,,8.8444,44.9936,5.9686,0.42,12.5365,0.275507,28.5353,0.0,1.59,,,,,,199.336,FAIL,fell over
65,,g000006_c6,6,,,,,,,,,,,,,,,0.0,0.0,0.0,0.0,0.0,0.0,0.0,8.0,0.0,,,,,,201.66666666666666,FAIL,fell over
66,,g000006_c7,6,,,,,,,,,,,,,,,8.5941,21.4749,15.0203,2.292,2.8649,0.355231,36.2376,8.0,8.0,,,,,,0.2583333333333332,PASS,
67,,g000007_c0,7,,,,,,,,,,,,,,,10.5889,32.6353,21.1703,5.342,3.705,0.42053,43.7741,8.0,8.0,,,,,,0.32199999999999995,PASS,
68,,g000007_c1,7,,,,,,,,,,,,,,,,,,,,,,,,,,,,,500.0,FAIL,infeasible_geometry
69,,g000007_c2,7,,,,,,,,,,,,,,,3.7096,3.7096,0.0,0.0,0.0,0.0,0.0,8.0,0.0,,,,,,201.66666666666666,FAIL,fell over
70,,g000007_c3,7,,,,,,,,,,,,,,,,,,,,,,,,,,,,,500.0,FAIL,infeasible_geometry
71,,g000007_c4,7,,,,,,,,,,,,,,,9.2722,39.7121,8.203,2.696,2.8624,0.163612,20.0928,0.23,4.886,,,,,,199.3015,FAIL,fell over
72,,g000007_c5,7,,,,,,,,,,,,,,,10.397,45.3533,4.6028,0.284,4.5632,0.129839,11.7785,0.554,2.702,,,,,,199.3835,FAIL,fell over
73,,g000007_c6,7,,,,,,,,,,,,,,,9.8318,30.0196,21.4014,1.98,4.6323,0.182389,15.0198,8.0,8.0,,,,,,-0.3253333333333336,PASS,
74,,g000007_c7,7,,,,,,,,,,,,,,,3.7096,3.7096,0.0,0.0,0.0,0.0,0.0,8.0,0.0,,,,,,201.66666666666666,FAIL,fell over
75,,g000008_c0,8,,,,,,,,,,,,,,,15.1567,45.4359,6.516,0.308,6.943,0.219841,25.4004,0.0,2.258,,,,,,199.64466666666667,FAIL,fell over
76,,g000008_c1,8,,,,,,,,,,,,,,,11.3077,31.3089,22.3867,2.616,4.3511,0.177925,16.5954,8.0,8.0,,,,,,-0.40900000000000014,PASS,
77,,g000008_c2,8,,,,,,,,,,,,,,,8.8055,26.4732,13.5561,3.53,2.5469,0.221947,21.3054,8.0,8.0,,,,,,0.33333333333333315,PASS,
78,,g000008_c3,8,,,,,,,,,,,,,,,0.0,0.0,0.0,0.0,0.0,0.0,0.0,8.0,0.0,,,,,,201.66666666666666,FAIL,fell over
79,,g000008_c4,8,,,,,,,,,,,,,,,7.4606,35.0403,0.7445,0.05,2.6743,0.128095,13.2435,8.0,1.41,,,,,,200.26333333333332,FAIL,fell over
80,,g000008_c5,8,,,,,,,,,,,,,,,9.6632,34.369,0.8957,0.094,2.8657,0.140753,13.3114,8.0,1.406,,,,,,200.30566666666667,FAIL,fell over
81,,g000008_c6,8,,,,,,,,,,,,,,,10.0003,34.3593,18.0571,2.962,3.6802,0.134839,14.4394,8.0,8.0,,,,,,0.1273333333333332,PASS,
82,,g000008_c7,8,,,,,,,,,,,,,,,,,,,,,,,,,,,,,500.0,FAIL,infeasible_geometry
83,,g000009_c0,9,,,,,,,,,,,,,,,,,,,,,,,,,,,,,500.0,FAIL,infeasible_geometry
84,,g000009_c1,9,,,,,,,,,,,,,,,5.7806,13.4396,6.7818,1.892,1.6152,0.143695,14.4776,8.0,8.0,,,,,,0.09033333333333327,PASS,
85,,g000009_c2,9,,,,,,,,,,,,,,,0.0,0.0,0.0,0.0,0.0,0.0,0.0,8.0,0.0,,,,,,201.66666666666666,FAIL,fell over
86,,g000009_c3,9,,,,,,,,,,,,,,,10.875,30.5073,18.773,4.57,3.2811,0.135369,16.768,8.0,8.0,,,,,,0.1356666666666667,PASS,
87,,g000009_c4,9,,,,,,,,,,,,,,,15.1451,51.0699,3.6898,0.3,9.5654,0.141922,12.5885,8.0,1.574,,,,,,200.12099999999998,FAIL,fell over
88,,g000009_c5,9,,,,,,,,,,,,,,,11.9892,29.8999,19.3192,2.13,4.532,0.234199,20.3484,8.0,8.0,,,,,,-0.12633333333333352,PASS,
89,,g000009_c6,9,,,,,,,,,,,,,,,8.6328,22.0878,18.5645,2.486,3.6454,0.492984,43.2382,8.0,8.0,,,,,,0.18333333333333324,PASS,
90,,g000009_c7,9,,,,,,,,,,,,,,,0.0,0.0,0.0,0.0,0.0,0.0,0.0,8.0,0.0,,,,,,201.66666666666666,FAIL,fell over
91,,g000010_c0,10,,,,,,,,,,,,,,,0.0,0.0,0.0,0.0,0.0,0.0,0.0,8.0,0.0,,,,,,201.66666666666666,FAIL,fell over
92,,g000010_c1,10,,,,,,,,,,,,,,,7.2132,36.9768,0.69,0.044,2.3755,0.128542,11.6873,8.0,1.452,,,,,,200.28866666666667,FAIL,fell over
93,,g000010_c2,10,,,,,,,,,,,,,,,,,,,,,,,,,,,,,500.0,FAIL,infeasible_geometry
94,,g000010_c3,10,,,,,,,,,,,,,,,0.0,0.0,0.0,0.0,0.0,0.0,0.0,8.0,0.0,,,,,,201.66666666666666,FAIL,fell over
95,,g000010_c4,10,,,,,,,,,,,,,,,15.1226,51.6267,3.8476,0.302,9.9784,0.143828,12.9744,8.0,1.578,,,,,,200.207,FAIL,fell over
96,,g000010_c5,10,,,,,,,,,,,,,,,9.3011,27.812,20.488,2.602,4.4965,0.249009,21.0251,8.0,8.0,,,,,,0.19799999999999984,PASS,
97,,g000010_c6,10,,,,,,,,,,,,,,,10.5502,36.635,21.5635,4.666,3.8786,0.4816,45.349,8.0,8.0,,,,,,0.17400000000000004,PASS,
98,,g000010_c7,10,,,,,,,,,,,,,,,10.9075,35.5579,14.6452,2.828,2.5839,0.141872,14.4797,8.0,8.0,,,,,,0.33666666666666656,PASS,
99,,g000011_c0,11,,,,,,,,,,,,,,,10.0223,26.1201,19.058,4.232,3.5448,0.138092,15.8921,8.0,8.0,,,,,,0.2536666666666666,PASS,
100,,g000011_c1,11,,,,,,,,,,,,,,,5.1462,5.1462,0.0,0.0,0.0,0.0,0.0,8.0,0.0,,,,,,201.66666666666666,FAIL,fell over
101,,g000011_c2,11,,,,,,,,,,,,,,,,,,,,,,,,,,,,,500.0,FAIL,infeasible_geometry
102,,g000011_c3,11,,,,,,,,,,,,,,,6.86,34.1229,0.7182,0.058,2.4761,0.131778,12.6181,8.0,1.558,,,,,,200.27266666666665,FAIL,fell over
103,,g000011_c4,11,,,,,,,,,,,,,,,0.0,0.0,0.0,0.0,0.0,0.0,0.0,8.0,0.0,,,,,,201.66666666666666,FAIL,fell over
104,,g000011_c5,11,,,,,,,,,,,,,,,0.0,0.0,0.0,0.0,0.0,0.0,0.0,8.0,0.0,,,,,,201.66666666666666,FAIL,fell over
105,,g000011_c6,11,,,,,,,,,,,,,,,12.3927,42.1429,22.8819,4.22,4.0047,0.256834,23.5946,0.0,8.0,,,,,,-1.12,PASS,
106,,g000011_c7,11,,,,,,,,,,,,,,,0.0,0.0,0.0,0.0,0.0,0.0,0.0,8.0,0.0,,,,,,201.66666666666666,FAIL,fell over
107,,g000012_c0,12,,,,,,,,,,,,,,,11.2792,27.9062,17.5542,2.582,3.723,0.184078,16.6233,0.0,8.0,,,,,,-0.865,PASS,
108,,g000012_c1,12,,,,,,,,,,,,,,,,,,,,,,,,,,,,,500.0,FAIL,infeasible_geometry
109,,g000012_c2,12,,,,,,,,,,,,,,,9.2487,32.4168,25.6654,2.23,5.6563,0.164952,18.0787,0.382,8.0,,,,,,-0.7834999999999999,PASS,
110,,g000012_c3,12,,,,,,,,,,,,,,,0.0,0.0,0.0,0.0,0.0,0.0,0.0,8.0,0.0,,,,,,201.66666666666666,FAIL,fell over
111,,g000012_c4,12,,,,,,,,,,,,,,,0.0,0.0,0.0,0.0,0.0,0.0,0.0,8.0,0.0,,,,,,201.66666666666666,FAIL,fell over
112,,g000012_c5,12,,,,,,,,,,,,,,,4.7504,4.7504,0.0,0.0,0.0,0.0,0.0,8.0,0.0,,,,,,201.66666666666666,FAIL,fell over
113,,g000012_c6,12,,,,,,,,,,,,,,,9.113,57.584,7.1128,0.434,15.1735,0.325907,28.6698,0.0,1.572,,,,,,199.42966666666666,FAIL,fell over
114,,g000012_c7,12,,,,,,,,,,,,,,,43.2696,88.1632,1.5499,0.0,0.0,0.164759,4.503,8.0,0.084,,,,,,200.83366666666666,FAIL,fell over
115,,g000013_c0,13,,,,,,,,,,,,,,,9.1953,43.0008,6.161,0.34,12.3778,0.293517,27.9747,0.0,1.656,,,,,,199.304,FAIL,fell over
116,,g000013_c1,13,,,,,,,,,,,,,,,,,,,,,,,,,,,,,500.0,FAIL,infeasible_geometry
117,,g000013_c2,13,,,,,,,,,,,,,,,,,,,,,,,,,,,,,500.0,FAIL,infeasible_geometry
118,,g000013_c3,13,,,,,,,,,,,,,,,18.0469,18.0469,0.0,0.0,0.0,0.0,0.0,8.0,0.0,,,,,,201.66666666666666,FAIL,fell over
119,,g000013_c4,13,,,,,,,,,,,,,,,0.0,0.0,0.0,0.0,0.0,0.0,0.0,8.0,0.0,,,,,,201.66666666666666,FAIL,fell over
120,,g000013_c5,13,,,,,,,,,,,,,,,,,,,,,,,,,,,,,500.0,FAIL,infeasible_geometry
121,,g000013_c6,13,,,,,,,,,,,,,,,9.7445,9.7445,0.0,0.0,0.0,0.0,0.0,8.0,0.0,,,,,,201.66666666666666,FAIL,fell over
122,,g000013_c7,13,,,,,,,,,,,,,,,7.0346,45.7232,1.1089,0.0,2.9909,0.216047,21.8546,0.0,1.508,,,,,,199.894,FAIL,fell over
123,,g000014_c0,14,,,,,,,,,,,,,,,,,,,,,,,,,,,,,500.0,FAIL,infeasible_geometry
124,,g000014_c1,14,,,,,,,,,,,,,,,11.6787,11.6787,0.0,0.0,0.0,0.0,0.0,8.0,0.0,,,,,,201.66666666666666,FAIL,fell over
125,,g000014_c2,14,,,,,,,,,,,,,,,0.0,0.0,0.0,0.0,0.0,0.0,0.0,8.0,0.0,,,,,,201.66666666666666,FAIL,fell over
126,,g000014_c3,14,,,,,,,,,,,,,,,0.0,0.0,0.0,0.0,0.0,0.0,0.0,8.0,0.0,,,,,,201.66666666666666,FAIL,fell over
127,,g000014_c4,14,,,,,,,,,,,,,,,10.8882,26.7216,20.9831,2.098,4.264,0.179796,16.3924,8.0,8.0,,,,,,-0.3043333333333337,PASS,
128,,g000014_c5,14,,,,,,,,,,,,,,,0.0,0.0,0.0,0.0,0.0,0.0,0.0,8.0,0.0,,,,,,201.66666666666666,FAIL,fell over
129,,g000014_c6,14,,,,,,,,,,,,,,,21.3955,74.5123,8.0081,0.508,8.6112,0.136181,12.7952,0.546,2.266,,,,,,199.3045,FAIL,fell over
130,,g000014_c7,14,,,,,,,,,,,,,,,6.731,45.0926,0.9427,0.016,4.2697,0.1147,14.9521,8.0,1.21,,,,,,200.24433333333332,FAIL,fell over
131,,g000015_c0,15,,,,,,,,,,,,,,,10.8813,29.2233,11.9506,2.344,2.204,0.14068,15.3688,8.0,8.0,,,,,,0.030999999999999805,PASS,
132,,g000015_c1,15,,,,,,,,,,,,,,,11.3728,68.5819,6.9643,0.626,7.8706,0.380368,35.4292,0.0,2.122,,,,,,199.57733333333334,FAIL,fell over
133,,g000015_c2,15,,,,,,,,,,,,,,,9.2434,29.4043,22.0325,2.316,4.1259,0.267055,29.1321,0.0,8.0,,,,,,-0.5673333333333335,PASS,
134,,g000015_c3,15,,,,,,,,,,,,,,,,,,,,,,,,,,,,,500.0,FAIL,infeasible_geometry
135,,g000015_c4,15,,,,,,,,,,,,,,,5.6059,14.4572,0.2269,0.06,0.5928,0.067663,1.7405,8.0,1.09,,,,,,200.66933333333333,FAIL,fell over
136,,g000015_c5,15,,,,,,,,,,,,,,,10.9713,30.894,23.2651,2.672,4.6884,0.175812,16.4687,8.0,8.0,,,,,,-0.31866666666666676,PASS,
137,,g000015_c6,15,,,,,,,,,,,,,,,12.0043,27.7312,11.7413,1.806,2.3477,0.276936,25.4497,0.0,8.0,,,,,,-0.8266666666666669,PASS,
138,,g000015_c7,15,,,,,,,,,,,,,,,10.1601,26.5489,11.881,1.978,2.3726,0.260538,31.6656,0.0,8.0,,,,,,-0.7396666666666669,PASS,
139,,g000016_c0,16,,,,,,,,,,,,,,,,,,,,,,,,,,,,,500.0,FAIL,infeasible_geometry
140,,g000016_c1,16,,,,,,,,,,,,,,,0.0,0.0,0.0,0.0,0.0,0.0,0.0,8.0,0.0,,,,,,201.66666666666666,FAIL,fell over
141,,g000016_c2,16,,,,,,,,,,,,,,,24.3686,61.9677,20.9761,0.65,20.185,0.191403,18.4307,0.37,2.188,,,,,,199.13383333333334,FAIL,fell over
142,,g000016_c3,16,,,,,,,,,,,,,,,0.0,0.0,0.0,0.0,0.0,0.0,0.0,8.0,0.0,,,,,,201.66666666666666,FAIL,fell over
143,,g000016_c4,16,,,,,,,,,,,,,,,21.4016,52.0319,22.7382,1.836,11.5505,0.4022,38.6404,0.0,3.322,,,,,,199.47233333333332,FAIL,fell over
144,,g000016_c5,16,,,,,,,,,,,,,,,19.7046,19.7046,0.0,0.0,0.0,0.0,0.0,8.0,0.0,,,,,,201.66666666666666,FAIL,fell over
145,,g000016_c6,16,,,,,,,,,,,,,,,0.0,0.0,0.0,0.0,0.0,0.0,0.0,8.0,0.0,,,,,,201.66666666666666,FAIL,fell over
146,,g000016_c7,16,,,,,,,,,,,,,,,19.0012,78.5542,8.3311,0.324,16.9627,0.177572,15.8751,8.0,1.584,,,,,,199.88533333333334,FAIL,fell over
147,,g000017_c0,17,,,,,,,,,,,,,,,12.2733,30.6044,13.7088,1.57,4.5018,0.344089,27.0789,8.0,5.804,,,,,,200.19766666666666,FAIL,fell over
148,,g000017_c1,17,,,,,,,,,,,,,,,0.0,0.0,0.0,0.0,0.0,0.0,0.0,8.0,0.0,,,,,,201.66666666666666,FAIL,fell over
149,,g000017_c2,17,,,,,,,,,,,,,,,13.7415,46.9621,5.9578,0.86,4.458,0.390471,35.6126,0.0,2.718,,,,,,199.294,FAIL,fell over
150,,g000017_c3,17,,,,,,,,,,,,,,,10.4255,31.8973,29.7732,2.21,6.655,0.150132,16.8812,0.0,8.0,,,,,,-0.6373333333333335,PASS,
151,,g000017_c4,17,,,,,,,,,,,,,,,0.0,0.0,0.0,0.0,0.0,0.0,0.0,8.0,0.0,,,,,,201.66666666666666,FAIL,fell over
152,,g000017_c5,17,,,,,,,,,,,,,,,6.4961,16.9075,0.0687,0.0,0.1178,0.09358,1.6314,8.0,1.166,,,,,,200.57066666666665,FAIL,fell over
153,,g000017_c6,17,,,,,,,,,,,,,,,8.7768,49.6789,5.7117,0.396,12.594,0.288748,28.7863,0.0,1.56,,,,,,199.45166666666665,FAIL,fell over
154,,g000017_c7,17,,,,,,,,,,,,,,,11.6802,28.6591,21.1108,3.258,4.203,0.199936,20.6074,0.0,8.0,,,,,,-1.1989999999999998,PASS,
155,,g000018_c0,18,,,,,,,,,,,,,,,,,,,,,,,,,,,,,500.0,FAIL,infeasible_geometry
156,,g000018_c1,18,,,,,,,,,,,,,,,0.0,0.0,0.0,0.0,0.0,0.0,0.0,8.0,0.0,,,,,,201.66666666666666,FAIL,fell over
157,,g000018_c2,18,,,,,,,,,,,,,,,14.702,44.9808,8.4615,0.326,8.3225,0.231294,24.8774,0.0,2.458,,,,,,199.42166666666665,FAIL,fell over
158,,g000018_c3,18,,,,,,,,,,,,,,,,,,,,,,,,,,,,,500.0,FAIL,infeasible_geometry
159,,g000018_c4,18,,,,,,,,,,,,,,,7.772,34.3296,0.7521,0.058,2.9384,0.130326,13.6387,8.0,1.404,,,,,,200.24099999999999,FAIL,fell over
160,,g000018_c5,18,,,,,,,,,,,,,,,0.0,0.0,0.0,0.0,0.0,0.0,0.0,8.0,0.0,,,,,,201.66666666666666,FAIL,fell over
161,,g000018_c6,18,,,,,,,,,,,,,,,,,,,,,,,,,,,,,500.0,FAIL,infeasible_geometry
162,,g000018_c7,18,,,,,,,,,,,,,,,,,,,,,,,,,,,,,500.0,FAIL,infeasible_geometry
163,,g000019_c0,19,,,,,,,,,,,,,,,7.6753,29.4855,10.2621,2.188,2.2729,0.223974,22.736,0.0,8.0,,,,,,-0.8613333333333335,PASS,
164,,g000019_c1,19,,,,,,,,,,,,,,,9.688,45.3685,4.0683,0.366,4.1092,0.13936,14.9815,0.508,2.326,,,,,,199.0956666666667,FAIL,fell over
165,,g000019_c2,19,,,,,,,,,,,,,,,9.2802,28.3064,27.7964,2.452,6.1812,0.161194,18.5982,0.0,8.0,,,,,,-0.7893333333333337,PASS,
166,,g000019_c3,19,,,,,,,,,,,,,,,23.766,68.2807,11.5478,0.74,11.4811,0.146039,11.0589,8.0,2.14,,,,,,199.682,FAIL,fell over
167,,g000019_c4,19,,,,,,,,,,,,,,,,,,,,,,,,,,,,,500.0,FAIL,infeasible_geometry
168,,g000019_c5,19,,,,,,,,,,,,,,,11.493,45.3318,7.0891,1.36,3.331,0.174776,17.0981,0.0,3.574,,,,,,199.21633333333332,FAIL,fell over
169,,g000019_c6,19,,,,,,,,,,,,,,,0.0,0.0,0.0,0.0,0.0,0.0,0.0,8.0,0.0,,,,,,201.66666666666666,FAIL,fell over
170,,g000019_c7,19,,,,,,,,,,,,,,,12.1833,23.8484,21.9552,1.712,4.8378,0.260915,22.084,8.0,8.0,,,,,,0.025999999999999912,PASS,
171,,evo_seed,0,,,,,,,,,,,,,,,10.5768,38.0736,17.4525,2.91,3.2078,0.229895,22.5912,8.0,8.0,,,,,,-0.6076666666666668,PASS,
172,,g000000_c0,0,,,,,,,,,,,,,,,10.5325,29.3458,22.9979,1.182,5.661,0.551839,38.4412,0.0,8.0,,,,,,-0.43466666666666676,PASS,
173,,g000000_c1,0,,,,,,,,,,,,,,,10.8783,41.8364,13.0112,3.038,2.4066,0.141219,15.3686,0.794,8.0,,,,,,-0.46033333333333326,PASS,
174,,g000000_c2,0,,,,,,,,,,,,,,,12.385,47.04,5.4979,0.668,4.6361,0.173988,16.6101,0.0,2.416,,,,,,199.23133333333334,FAIL,fell over
175,,g000000_c3,0,,,,,,,,,,,,,,,14.0823,45.0473,6.0713,0.774,5.0358,0.180319,16.4345,0.0,2.444,,,,,,199.23333333333332,FAIL,fell over
176,,g000000_c4,0,,,,,,,,,,,,,,,0.0,0.0,0.0,0.0,0.0,0.0,0.0,8.0,0.0,,,,,,201.0,FAIL,fell over
177,,g000000_c5,0,,,,,,,,,,,,,,,3.7096,3.7096,0.0,0.0,0.0,0.0,0.0,8.0,0.0,,,,,,201.0,FAIL,fell over
178,,g000000_c6,0,,,,,,,,,,,,,,,16.0594,54.0588,16.5913,1.884,7.7158,0.18865,18.7816,8.0,4.26,,,,,,199.443,FAIL,fell over
179,,g000000_c7,0,,,,,,,,,,,,,,,8.2118,22.0842,19.212,2.488,3.7493,0.505851,43.8674,8.0,8.0,,,,,,-0.4830000000000001,PASS,
180,,g000001_c0,1,,,,,,,,,,,,,,,10.4879,43.601,5.4549,0.258,11.1223,0.318972,26.8221,0.0,1.79,,,,,,199.48166666666665,FAIL,fell over
181,,g000001_c1,1,,,,,,,,,,,,,,,1.8305,4.0117,0.3396,0.0,0.3422,0.092904,1.2939,0.416,1.302,,,,,,199.86,FAIL,fell over
182,,g000001_c2,1,,,,,,,,,,,,,,,,,,,,,,,,,,,,,500.0,FAIL,infeasible_geometry
183,,g000001_c3,1,,,,,,,,,,,,,,,7.8733,19.5016,15.8205,1.434,3.6117,0.360873,33.5647,8.0,8.0,,,,,,-0.45199999999999996,PASS,
184,,g000001_c4,1,,,,,,,,,,,,,,,8.2253,50.8689,6.239,0.408,13.4242,0.314023,28.7014,0.0,1.568,,,,,,199.411,FAIL,fell over
185,,g000001_c5,1,,,,,,,,,,,,,,,,,,,,,,,,,,,,,500.0,FAIL,infeasible_geometry
186,,g000001_c6,1,,,,,,,,,,,,,,,19.7046,19.7046,0.0,0.0,0.0,0.0,0.0,8.0,0.0,,,,,,201.0,FAIL,fell over
187,,g000001_c7,1,,,,,,,,,,,,,,,9.0525,56.8787,7.1209,0.432,15.1846,0.325657,28.6659,0.0,1.572,,,,,,199.42766666666665,FAIL,fell over
188,,g000002_c0,2,,,,,,,,,,,,,,,,,,,,,,,,,,,,,500.0,FAIL,infeasible_geometry
189,,g000002_c1,2,,,,,,,,,,,,,,,13.2196,45.9189,6.2645,0.714,5.1622,0.182615,16.2989,0.0,2.452,,,,,,199.261,FAIL,fell over
190,,g000002_c2,2,,,,,,,,,,,,,,,13.7269,43.5427,10.6642,0.958,5.1598,0.181825,17.5372,0.0,3.424,,,,,,199.284,FAIL,fell over
191,,g000002_c3,2,,,,,,,,,,,,,,,,,,,,,,,,,,,,,500.0,FAIL,infeasible_geometry
192,,g000002_c4,2,,,,,,,,,,,,,,,9.1061,57.4299,7.1137,0.434,15.1733,0.325854,28.6711,0.0,1.572,,,,,,199.42966666666666,FAIL,fell over
193,,g000002_c5,2,,,,,,,,,,,,,,,,,,,,,,,,,,,,,500.0,FAIL,infeasible_geometry
194,,g000002_c6,2,,,,,,,,,,,,,,,9.3743,22.6059,13.5854,2.056,2.799,0.536513,38.7468,8.0,8.0,,,,,,-0.16200000000000014,PASS,
195,,g000002_c7,2,,,,,,,,,,,,,,,19.7046,19.7046,0.0,0.0,0.0,0.0,0.0,8.0,0.0,,,,,,201.0,FAIL,fell over
196,,g000003_c0,3,,,,,,,,,,,,,,,,,,,,,,,,,,,,,500.0,FAIL,infeasible_geometry
197,,g000003_c1,3,,,,,,,,,,,,,,,3.7096,3.7096,0.0,0.0,0.0,0.0,0.0,8.0,0.0,,,,,,201.0,FAIL,fell over
198,,g000003_c2,3,,,,,,,,,,,,,,,,,,,,,,,,,,,,,500.0,FAIL,infeasible_geometry
199,,g000003_c3,3,,,,,,,,,,,,,,,,,,,,,,,,,,,,,500.0,FAIL,infeasible_geometry
200,,g000003_c4,3,,,,,,,,,,,,,,,0.0,0.0,0.0,0.0,0.0,0.0,0.0,8.0,0.0,,,,,,201.0,FAIL,fell over
201,,g000003_c5,3,,,,,,,,,,,,,,,13.2938,45.9507,5.7187,0.666,4.7364,0.169483,16.6429,0.0,2.414,,,,,,199.24866666666668,FAIL,fell over
202,,g000003_c6,3,,,,,,,,,,,,,,,10.2592,28.2402,20.9737,2.004,4.4031,0.183848,15.0791,8.0,8.0,,,,,,-0.9983333333333335,PASS,
203,,g000003_c7,3,,,,,,,,,,,,,,,3.7096,3.7096,0.0,0.0,0.0,0.0,0.0,8.0,0.0,,,,,,201.0,FAIL,fell over
204,,g000004_c0,4,,,,,,,,,,,,,,,,,,,,,,,,,,,,,500.0,FAIL,infeasible_geometry
205,,g000004_c1,4,,,,,,,,,,,,,,,7.9048,19.0379,15.842,1.476,3.5904,0.360697,33.6556,8.0,8.0,,,,,,-0.44999999999999996,PASS,
206,,g000004_c2,4,,,,,,,,,,,,,,,8.6031,22.1076,18.474,2.524,3.6193,0.49578,43.3189,8.0,8.0,,,,,,-0.4850000000000001,PASS,
207,,g000004_c3,4,,,,,,,,,,,,,,,10.9178,38.8617,8.4302,1.656,4.2945,0.172714,18.2246,8.0,3.26,,,,,,199.33933333333334,FAIL,fell over
208,,g000004_c4,4,,,,,,,,,,,,,,,14.3048,35.45,21.3911,4.74,3.778,0.127791,16.5513,8.0,8.0,,,,,,-0.8053333333333332,PASS,
209,,g000004_c5,4,,,,,,,,,,,,,,,15.7321,75.8216,8.4279,0.288,20.5977,0.174743,16.1907,8.0,1.496,,,,,,199.27866666666668,FAIL,fell over
210,,g000004_c6,4,,,,,,,,,,,,,,,10.9778,44.0764,3.4068,0.484,3.0863,0.172182,21.5084,0.0,2.326,,,,,,199.438,FAIL,fell over
211,,g000004_c7,4,,,,,,,,,,,,,,,13.9517,45.1624,6.0078,0.648,4.9938,0.180222,16.5187,0.0,2.44,,,,,,199.22533333333334,FAIL,fell over
212,,g000005_c0,5,,,,,,,,,,,,,,,6.7286,36.1345,0.6904,0.048,2.1506,0.131226,11.2503,8.0,1.574,,,,,,199.61666666666667,FAIL,fell over
213,,g000005_c1,5,,,,,,,,,,,,,,,7.2496,35.4501,0.7414,0.05,2.5907,0.128916,13.1378,8.0,1.44,,,,,,199.60333333333332,FAIL,fell over
214,,g000005_c2,5,,,,,,,,,,,,,,,15.4449,59.3156,3.5103,0.286,9.41,0.140385,14.6158,8.0,1.56,,,,,,199.513,FAIL,fell over
215,,g000005_c3,5,,,,,,,,,,,,,,,8.7641,22.1115,18.7953,2.68,3.6538,0.482389,42.8859,8.0,8.0,,,,,,-0.4850000000000001,PASS,
216,,g000005_c4,5,,,,,,,,,,,,,,,13.9081,43.362,7.254,0.546,6.4652,0.166737,11.6154,0.0,2.712,,,,,,199.31133333333332,FAIL,fell over
217,,g000005_c5,5,,,,,,,,,,,,,,,,,,,,,,,,,,,,,500.0,FAIL,infeasible_geometry
218,,g000005_c6,5,,,,,,,,,,,,,,,11.0491,51.0512,8.9702,0.412,7.8161,0.464891,33.8119,0.0,2.91,,,,,,199.49966666666666,FAIL,fell over
219,,g000005_c7,5,,,,,,,,,,,,,,,,,,,,,,,,,,,,,500.0,FAIL,infeasible_geometry
220,,g000006_c0,6,,,,,,,,,,,,,,,0.0,0.0,0.0,0.0,0.0,0.0,0.0,8.0,0.0,,,,,,201.0,FAIL,fell over
221,,g000006_c1,6,,,,,,,,,,,,,,,0.0,0.0,0.0,0.0,0.0,0.0,0.0,8.0,0.0,,,,,,201.0,FAIL,fell over
222,,g000006_c2,6,,,,,,,,,,,,,,,0.0,0.0,0.0,0.0,0.0,0.0,0.0,8.0,0.0,,,,,,201.0,FAIL,fell over
223,,g000006_c3,6,,,,,,,,,,,,,,,,,,,,,,,,,,,,,500.0,FAIL,infeasible_geometry
224,,g000006_c4,6,,,,,,,,,,,,,,,10.0968,47.188,6.714,0.602,4.7882,0.169577,15.0948,0.0,2.854,,,,,,199.264,FAIL,fell over
225,,g000006_c5,6,,,,,,,,,,,,,,,0.0,0.0,0.0,0.0,0.0,0.0,0.0,8.0,0.0,,,,,,201.0,FAIL,fell over
226,,g000006_c6,6,,,,,,,,,,,,,,,0.0,0.0,0.0,0.0,0.0,0.0,0.0,8.0,0.0,,,,,,201.0,FAIL,fell over
227,,g000006_c7,6,,,,,,,,,,,,,,,14.5708,44.6817,7.2623,0.538,6.5066,0.165712,15.2374,0.0,2.784,,,,,,199.23666666666668,FAIL,fell over
228,,g000007_c0,7,,,,,,,,,,,,,,,19.7046,19.7046,0.0,0.0,0.0,0.0,0.0,8.0,0.0,,,,,,201.0,FAIL,fell over
229,,g000007_c1,7,,,,,,,,,,,,,,,19.7046,19.7046,0.0,0.0,0.0,0.0,0.0,8.0,0.0,,,,,,201.0,FAIL,fell over
230,,g000007_c2,7,,,,,,,,,,,,,,,7.629,17.4527,16.625,1.596,3.6616,0.347412,33.5893,8.0,8.0,,,,,,-0.43766666666666687,PASS,
231,,g000007_c3,7,,,,,,,,,,,,,,,9.7375,9.7375,0.0,0.0,0.0,0.0,0.0,8.0,0.0,,,,,,201.0,FAIL,fell over
232,,g000007_c4,7,,,,,,,,,,,,,,,6.2482,44.8153,1.1304,0.008,3.4407,0.191731,20.8995,0.0,1.398,,,,,,199.753,FAIL,fell over
233,,g000007_c5,7,,,,,,,,,,,,,,,0.0,0.0,0.0,0.0,0.0,0.0,0.0,8.0,0.0,,,,,,201.0,FAIL,fell over
234,,g000007_c6,7,,,,,,,,,,,,,,,0.0,0.0,0.0,0.0,0.0,0.0,0.0,8.0,0.0,,,,,,201.0,FAIL,fell over
235,,g000007_c7,7,,,,,,,,,,,,,,,0.0,0.0,0.0,0.0,0.0,0.0,0.0,8.0,0.0,,,,,,201.0,FAIL,fell over
236,,g000008_c0,8,,,,,,,,,,,,,,,19.7046,19.7046,0.0,0.0,0.0,0.0,0.0,8.0,0.0,,,,,,201.0,FAIL,fell over
237,,g000008_c1,8,,,,,,,,,,,,,,,10.4825,43.5701,5.4536,0.258,11.1197,0.318736,26.823,0.0,1.79,,,,,,199.482,FAIL,fell over
238,,g000008_c2,8,,,,,,,,,,,,,,,5.6321,42.1961,0.9759,0.014,2.6847,0.138466,13.7956,0.0,1.512,,,,,,199.626,FAIL,fell over
239,,g000008_c3,8,,,,,,,,,,,,,,,0.0,0.0,0.0,0.0,0.0,0.0,0.0,8.0,0.0,,,,,,201.0,FAIL,fell over
240,,g000008_c4,8,,,,,,,,,,,,,,,10.2126,38.0624,17.7053,2.008,3.9724,0.177349,16.7775,0.0,8.0,,,,,,-1.0153333333333334,PASS,
241,,g000008_c5,8,,,,,,,,,,,,,,,12.2282,31.4506,21.0602,4.434,3.7871,0.135849,16.1744,8.0,8.0,,,,,,-0.6336666666666666,PASS,
242,,g000008_c6,8,,,,,,,,,,,,,,,9.9723,26.4054,18.6755,3.398,3.6047,0.136777,14.8241,8.0,8.0,,,,,,-0.6219999999999999,PASS,
243,,g000008_c7,8,,,,,,,,,,,,,,,10.538,43.9387,5.4419,0.258,11.1002,0.318139,26.8256,0.0,1.79,,,,,,199.484,FAIL,fell over
244,,g000009_c0,9,,,,,,,,,,,,,,,5.3338,44.3384,0.6225,0.03,2.1305,0.115688,16.0408,0.47,1.226,,,,,,199.56833333333333,FAIL,fell over
245,,g000009_c1,9,,,,,,,,,,,,,,,0.0,0.0,0.0,0.0,0.0,0.0,0.0,8.0,0.0,,,,,,201.0,FAIL,fell over
246,,g000009_c2,9,,,,,,,,,,,,,,,7.8183,35.6891,8.3985,2.066,1.9875,0.168029,15.2557,0.0,8.0,,,,,,-0.8796666666666666,PASS,
247,,g000009_c3,9,,,,,,,,,,,,,,,9.4346,45.3251,5.3355,0.416,3.9986,0.175367,16.3792,0.0,2.872,,,,,,199.29966666666667,FAIL,fell over
248,,g000009_c4,9,,,,,,,,,,,,,,,6.4918,6.4918,0.0,0.0,0.0,0.0,0.0,8.0,0.0,,,,,,201.0,FAIL,fell over
249,,g000009_c5,9,,,,,,,,,,,,,,,7.7937,19.0126,15.7137,1.432,3.607,0.360748,33.5642,8.0,8.0,,,,,,-0.41733333333333356,PASS,
250,,g000009_c6,9,,,,,,,,,,,,,,,0.0,0.0,0.0,0.0,0.0,0.0,0.0,8.0,0.0,,,,,,201.0,FAIL,fell over
251,,g000009_c7,9,,,,,,,,,,,,,,,10.6069,29.1378,20.6345,2.022,4.3186,0.18387,15.1915,8.0,8.0,,,,,,-1.0053333333333336,PASS,
252,,g000010_c0,10,,,,,,,,,,,,,,,0.0,0.0,0.0,0.0,0.0,0.0,0.0,8.0,0.0,,,,,,201.0,FAIL,fell over
253,,g000010_c1,10,,,,,,,,,,,,,,,0.0,0.0,0.0,0.0,0.0,0.0,0.0,8.0,0.0,,,,,,201.0,FAIL,fell over
254,,g000010_c2,10,,,,,,,,,,,,,,,,,,,,,,,,,,,,,500.0,FAIL,infeasible_geometry
255,,g000010_c3,10,,,,,,,,,,,,,,,7.9531,17.6695,16.8119,1.604,3.6014,0.338605,33.5394,8.0,8.0,,,,,,-0.5050000000000001,PASS,
256,,g000010_c4,10,,,,,,,,,,,,,,,,,,,,,,,,,,,,,500.0,FAIL,infeasible_geometry
257,,g000010_c5,10,,,,,,,,,,,,,,,10.4453,44.5411,5.6754,0.268,11.9524,0.311382,27.3991,0.0,1.71,,,,,,199.43833333333333,FAIL,fell over
258,,g000010_c6,10,,,,,,,,,,,,,,,15.0922,51.5418,3.6947,0.296,9.6792,0.141585,12.6068,8.0,1.57,,,,,,199.548,FAIL,fell over
259,,g000010_c7,10,,,,,,,,,,,,,,,0.0,0.0,0.0,0.0,0.0,0.0,0.0,8.0,0.0,,,,,,201.0,FAIL,fell over
260,,g000011_c0,11,,,,,,,,,,,,,,,19.7046,19.7046,0.0,0.0,0.0,0.0,0.0,8.0,0.0,,,,,,201.0,FAIL,fell over
261,,g000011_c1,11,,,,,,,,,,,,,,,,,,,,,,,,,,,,,500.0,FAIL,infeasible_geometry
262,,g000011_c2,11,,,,,,,,,,,,,,,13.47,42.1306,10.4756,1.348,5.8787,0.19155,16.7204,0.0,3.076,,,,,,199.238,FAIL,fell over
263,,g000011_c3,11,,,,,,,,,,,,,,,,,,,,,,,,,,,,,500.0,FAIL,infeasible_geometry
264,,g000011_c4,11,,,,,,,,,,,,,,,9.9184,24.7939,14.579,2.982,3.0716,0.485465,38.982,8.0,8.0,,,,,,-0.11500000000000021,PASS,
265,,g000011_c5,11,,,,,,,,,,,,,,,19.7046,19.7046,0.0,0.0,0.0,0.0,0.0,8.0,0.0,,,,,,201.0,FAIL,fell over
266,,g000011_c6,11,,,,,,,,,,,,,,,10.5103,43.2505,6.0016,0.278,12.4881,0.311456,27.3332,0.0,1.732,,,,,,199.42433333333332,FAIL,fell over
267,,g000011_c7,11,,,,,,,,,,,,,,,9.6456,25.1429,22.6346,6.528,3.9055,0.412775,44.0339,8.0,8.0,,,,,,-0.3480000000000001,PASS,
268,,g000012_c0,12,,,,,,,,,,,,,,,5.3415,41.9569,0.9761,0.01,2.735,0.138243,13.7971,0.0,1.512,,,,,,199.647,FAIL,fell over
269,,g000012_c1,12,,,,,,,,,,,,,,,7.7345,18.2242,15.4872,1.43,3.5068,0.359626,33.5614,8.0,8.0,,,,,,-0.4610000000000001,PASS,
270,,g000012_c2,12,,,,,,,,,,,,,,,,,,,,,,,,,,,,,500.0,FAIL,infeasible_geometry
271,,g000012_c3,12,,,,,,,,,,,,,,,,,,,,,,,,,,,,,500.0,FAIL,infeasible_geometry
272,,g000012_c4,12,,,,,,,,,,,,,,,0.0,0.0,0.0,0.0,0.0,0.0,0.0,8.0,0.0,,,,,,201.0,FAIL,fell over
273,,g000012_c5,12,,,,,,,,,,,,,,,12.4878,46.4565,6.4329,0.588,5.8923,0.161413,15.85,0.0,2.572,,,,,,199.26966666666667,FAIL,fell over
274,,g000012_c6,12,,,,,,,,,,,,,,,,,,,,,,,,,,,,,500.0,FAIL,infeasible_geometry
275,,g000012_c7,12,,,,,,,,,,,,,,,,,,,,,,,,,,,,,500.0,FAIL,infeasible_geometry
276,,g000013_c0,13,,,,,,,,,,,,,,,10.1768,39.8721,22.4599,2.076,5.2535,0.147213,14.73,0.168,8.0,,,,,,-0.819,PASS,
277,,g000013_c1,13,,,,,,,,,,,,,,,0.0,0.0,0.0,0.0,0.0,0.0,0.0,8.0,0.0,,,,,,201.0,FAIL,fell over
278,,g000013_c2,13,,,,,,,,,,,,,,,9.1295,42.9504,5.8185,0.428,11.8474,0.270772,28.3936,0.0,1.606,,,,,,199.302,FAIL,fell over
279,,g000013_c3,13,,,,,,,,,,,,,,,,,,,,,,,,,,,,,500.0,FAIL,infeasible_geometry
280,,g000013_c4,13,,,,,,,,,,,,,,,,,,,,,,,,,,,,,500.0,FAIL,infeasible_geometry
281,,g000013_c5,13,,,,,,,,,,,,,,,9.8701,29.4549,20.3016,1.91,4.4491,0.182634,14.9919,8.0,8.0,,,,,,-0.9380000000000002,PASS,
282,,g000013_c6,13,,,,,,,,,,,,,,,18.5119,62.2891,10.8035,1.042,6.3932,0.363555,22.8661,8.0,3.46,,,,,,199.548,FAIL,fell over
283,,g000013_c7,13,,,,,,,,,,,,,,,13.7711,52.2122,7.0424,0.4,7.1661,0.421718,31.1672,0.0,2.812,,,,,,199.62566666666666,FAIL,fell over
284,,g000014_c0,14,,,,,,,,,,,,,,,12.2607,36.9906,5.2711,0.648,3.9322,0.168201,15.1528,0.0,2.834,,,,,,199.307,FAIL,fell over
285,,g000014_c1,14,,,,,,,,,,,,,,,7.8582,7.8582,0.0,0.0,0.0,0.0,0.0,8.0,0.0,,,,,,201.0,FAIL,fell over
286,,g000014_c2,14,,,,,,,,,,,,,,,12.6003,45.1473,7.2218,0.342,6.3218,0.26845,24.9746,0.0,2.85,,,,,,199.25333333333333,FAIL,fell over
287,,g000014_c3,14,,,,,,,,,,,,,,,0.0,0.0,0.0,0.0,0.0,0.0,0.0,8.0,0.0,,,,,,201.0,FAIL,fell over
288,,g000014_c4,14,,,,,,,,,,,,,,,14.444,46.0046,7.2819,0.544,6.2013,0.171035,15.082,0.0,2.854,,,,,,199.30266666666665,FAIL,fell over
289,,g000014_c5,14,,,,,,,,,,,,,,,19.7046,19.7046,0.0,0.0,0.0,0.0,0.0,8.0,0.0,,,,,,201.0,FAIL,fell over
290,,g000014_c6,14,,,,,,,,,,,,,,,11.4669,30.8108,21.9542,2.832,4.2881,0.180331,17.1569,0.0,8.0,,,,,,-1.0566666666666666,PASS,
291,,g000014_c7,14,,,,,,,,,,,,,,,8.9419,26.0003,20.4583,1.92,4.5022,0.183233,15.0052,8.0,8.0,,,,,,-0.9320000000000002,PASS,
292,,g000015_c0,15,,,,,,,,,,,,,,,19.7046,19.7046,0.0,0.0,0.0,0.0,0.0,8.0,0.0,,,,,,201.0,FAIL,fell over
293,,g000015_c1,15,,,,,,,,,,,,,,,,,,,,,,,,,,,,,500.0,FAIL,infeasible_geometry
294,,g000015_c2,15,,,,,,,,,,,,,,,,,,,,,,,,,,,,,500.0,FAIL,infeasible_geometry
295,,g000015_c3,15,,,,,,,,,,,,,,,10.8717,26.8244,14.5263,1.996,2.7644,0.167027,15.7943,8.0,8.0,,,,,,-0.45399999999999996,PASS,
296,,g000015_c4,15,,,,,,,,,,,,,,,,,,,,,,,,,,,,,500.0,FAIL,infeasible_geometry
297,,g000015_c5,15,,,,,,,,,,,,,,,9.5682,22.7273,28.7263,2.638,6.26,0.163637,19.1898,0.0,8.0,,,,,,-0.7576666666666667,PASS,
298,,g000015_c6,15,,,,,,,,,,,,,,,,,,,,,,,,,,,,,500.0,FAIL,infeasible_geometry
299,,g000015_c7,15,,,,,,,,,,,,,,,10.7905,46.2386,6.3332,0.68,4.5079,0.171452,15.0563,0.0,2.852,,,,,,199.298,FAIL,fell over
300,,g000016_c0,16,,,,,,,,,,,,,,,11.2995,29.846,21.5837,2.68,4.1946,0.176281,16.5015,8.0,8.0,,,,,,-0.9730000000000001,PASS,
301,,g000016_c1,16,,,,,,,,,,,,,,,0.0,0.0,0.0,0.0,0.0,0.0,0.0,8.0,0.0,,,,,,201.0,FAIL,fell over
302,,g000016_c2,16,,,,,,,,,,,,,,,4.0541,45.824,0.56,0.0,1.6945,0.081431,11.2485,8.0,1.208,,,,,,199.50633333333334,FAIL,fell over
303,,g000016_c3,16,,,,,,,,,,,,,,,,,,,,,,,,,,,,,500.0,FAIL,infeasible_geometry
304,,g000016_c4,16,,,,,,,,,,,,,,,15.0049,53.1843,18.0378,2.314,6.0569,0.413307,20.8811,8.0,4.696,,,,,,199.681,FAIL,fell over
305,,g000016_c5,16,,,,,,,,,,,,,,,0.0,0.0,0.0,0.0,0.0,0.0,0.0,8.0,0.0,,,,,,201.0,FAIL,fell over
306,,g000016_c6,16,,,,,,,,,,,,,,,11.806,29.3009,23.897,3.008,4.6765,0.183095,16.4914,8.0,8.0,,,,,,-1.048666666666667,PASS,
307,,g000016_c7,16,,,,,,,,,,,,,,,10.6086,40.6385,18.7154,3.608,3.4893,0.224839,23.2999,0.0,8.0,,,,,,-0.5516666666666667,PASS,
308,,g000017_c0,17,,,,,,,,,,,,,,,0.0,0.0,0.0,0.0,0.0,0.0,0.0,8.0,0.0,,,,,,201.0,FAIL,fell over
309,,g000017_c1,17,,,,,,,,,,,,,,,,,,,,,,,,,,,,,500.0,FAIL,infeasible_geometry
310,,g000017_c2,17,,,,,,,,,,,,,,,9.5217,30.4408,21.3829,3.134,4.3959,0.170477,19.8147,0.0,8.0,,,,,,-1.0376666666666665,PASS,
311,,g000017_c3,17,,,,,,,,,,,,,,,15.7355,45.6729,44.6483,4.344,9.4377,0.310002,34.8106,0.0,6.89,,,,,,199.13666666666666,FAIL,fell over
312,,g000017_c4,17,,,,,,,,,,,,,,,59.4234,89.7329,1.0182,0.06,0.0,0.345982,0.0,8.0,0.096,,,,,,200.27866666666668,FAIL,fell over
313,,g000017_c5,17,,,,,,,,,,,,,,,10.4043,45.6021,5.2773,0.626,4.3719,0.169008,16.2112,0.0,2.444,,,,,,199.281,FAIL,fell over
314,,g000017_c6,17,,,,,,,,,,,,,,,9.6838,23.4705,3.2488,0.898,3.4851,0.247367,20.7615,8.0,2.084,,,,,,199.91666666666666,FAIL,fell over
315,,g000017_c7,17,,,,,,,,,,,,,,,11.3479,28.2808,19.9569,2.116,3.9957,0.187496,17.3221,8.0,8.0,,,,,,-0.9910000000000003,PASS,
316,,g000018_c0,18,,,,,,,,,,,,,,,0.0,0.0,0.0,0.0,0.0,0.0,0.0,8.0,0.0,,,,,,201.0,FAIL,fell over
317,,g000018_c1,18,,,,,,,,,,,,,,,0.0,0.0,0.0,0.0,0.0,0.0,0.0,8.0,0.0,,,,,,201.0,FAIL,fell over
318,,g000018_c2,18,,,,,,,,,,,,,,,0.0,0.0,0.0,0.0,0.0,0.0,0.0,8.0,0.0,,,,,,201.0,FAIL,fell over
319,,g000018_c3,18,,,,,,,,,,,,,,,17.435,17.435,0.0,0.0,0.0,0.0,0.0,8.0,0.0,,,,,,201.0,FAIL,fell over
320,,g000018_c4,18,,,,,,,,,,,,,,,5.3536,5.3536,0.0,0.0,0.0,0.0,0.0,8.0,0.0,,,,,,201.0,FAIL,fell over
321,,g000018_c5,18,,,,,,,,,,,,,,,0.0,0.0,0.0,0.0,0.0,0.0,0.0,8.0,0.0,,,,,,201.0,FAIL,fell over
322,,g000018_c6,18,,,,,,,,,,,,,,,9.0812,27.8917,11.2371,4.206,2.2813,0.270608,27.6685,8.0,8.0,,,,,,-0.5696666666666668,PASS,
323,,g000018_c7,18,,,,,,,,,,,,,,,10.4638,37.8433,19.838,2.812,3.479,0.158152,14.5501,8.0,8.0,,,,,,-0.7830000000000001,PASS,
324,,g000019_c0,19,,,,,,,,,,,,,,,,,,,,,,,,,,,,,500.0,FAIL,infeasible_geometry
325,,g000019_c1,19,,,,,,,,,,,,,,,8.6387,22.5199,17.4789,2.73,3.3488,0.460366,41.8971,8.0,8.0,,,,,,-0.4906666666666666,PASS,
326,,g000019_c2,19,,,,,,,,,,,,,,,3.5697,6.3537,0.6163,0.0,1.5673,0.067038,9.616,8.0,1.214,,,,,,199.48833333333334,FAIL,fell over
327,,g000019_c3,19,,,,,,,,,,,,,,,,,,,,,,,,,,,,,500.0,FAIL,infeasible_geometry
328,,g000019_c4,19,,,,,,,,,,,,,,,3.1497,3.1497,0.0,0.0,0.0,0.0,0.0,8.0,0.0,,,,,,201.0,FAIL,fell over
329,,g000019_c5,19,,,,,,,,,,,,,,,11.0403,29.76,18.2312,1.928,3.6701,0.174861,15.9296,0.0,8.0,,,,,,-0.9550000000000001,PASS,
330,,g000019_c6,19,,,,,,,,,,,,,,,11.0629,34.3325,24.4959,3.204,4.3327,0.199729,18.0677,0.0,8.0,,,,,,-0.7936666666666667,PASS,
331,,g000019_c7,19,,,,,,,,,,,,,,,,,,,,,,,,,,,,,500.0,FAIL,infeasible_geometry
332,,evo_seed,0,,,,,,,,,,,,,,,11.9223,42.9619,18.5201,2.84,3.3736,0.227969,22.5411,8.0,8.0,,,,,,-0.6206666666666667,PASS,
333,,g000000_c0,0,,,,,,,,,,,,,,,14.9374,61.5107,25.3435,2.18,8.4205,0.501788,41.2626,0.0,5.026,,,,,,199.498,FAIL,fell over
334,,g000000_c1,0,,,,,,,,,,,,,,,3.7096,3.7096,0.0,0.0,0.0,0.0,0.0,8.0,0.0,,,,,,201.0,FAIL,fell over
335,,g000000_c2,0,,,,,,,,,,,,,,,19.7046,19.7046,0.0,0.0,0.0,0.0,0.0,8.0,0.0,,,,,,201.0,FAIL,fell over
336,,g000000_c3,0,,,,,,,,,,,,,,,15.0094,59.1385,16.362,1.178,11.7448,0.232075,24.2982,0.0,2.732,,,,,,199.098,FAIL,fell over
337,,g000000_c4,0,,,,,,,,,,,,,,,6.924,45.156,0.9563,0.01,3.4012,0.086038,11.6302,8.0,1.198,,,,,,199.36033333333333,FAIL,fell over
338,,g000000_c5,0,,,,,,,,,,,,,,,9.1239,42.9264,5.8176,0.428,11.8439,0.270749,28.3918,0.0,1.606,,,,,,199.302,FAIL,fell over
339,,g000000_c6,0,,,,,,,,,,,,,,,13.0536,51.032,3.6795,0.254,8.4743,0.138748,11.8153,8.0,1.782,,,,,,199.56,FAIL,fell over
340,,g000000_c7,0,,,,,,,,,,,,,,,0.0,0.0,0.0,0.0,0.0,0.0,0.0,8.0,0.0,,,,,,201.0,FAIL,fell over
341,,g000001_c0,1,,,,,,,,,,,,,,,,,,,,,,,,,,,,,500.0,FAIL,infeasible_geometry
342,,g000001_c1,1,,,,,,,,,,,,,,,16.0493,40.8385,23.0562,5.536,3.933,0.451284,44.3637,8.0,8.0,,,,,,-0.4896666666666667,PASS,
343,,g000001_c2,1,,,,,,,,,,,,,,,,,,,,,,,,,,,,,500.0,FAIL,infeasible_geometry
344,,g000001_c3,1,,,,,,,,,,,,,,,13.349,54.9073,3.3768,0.236,8.0077,0.136549,11.8817,8.0,1.762,,,,,,199.61966666666666,FAIL,fell over
345,,g000001_c4,1,,,,,,,,,,,,,,,20.4031,68.3355,5.6171,0.792,7.1611,0.297841,17.2221,8.0,2.158,,,,,,199.63233333333332,FAIL,fell over
346,,g000001_c5,1,,,,,,,,,,,,,,,14.5435,58.9703,15.2345,1.11,8.2417,0.485533,37.7401,0.0,3.414,,,,,,199.53133333333332,FAIL,fell over
347,,g000001_c6,1,,,,,,,,,,,,,,,0.0,0.0,0.0,0.0,0.0,0.0,0.0,8.0,0.0,,,,,,201.0,FAIL,fell over
348,,g000001_c7,1,,,,,,,,,,,,,,,19.7046,19.7046,0.0,0.0,0.0,0.0,0.0,8.0,0.0,,,,,,201.0,FAIL,fell over
349,,g000002_c0,2,,,,,,,,,,,,,,,,,,,,,,,,,,,,,500.0,FAIL,infeasible_geometry
350,,g000002_c1,2,,,,,,,,,,,,,,,,,,,,,,,,,,,,,500.0,FAIL,infeasible_geometry
351,,g000002_c2,2,,,,,,,,,,,,,,,10.3207,46.292,4.5598,0.49,3.4848,0.156623,15.4564,0.0,2.82,,,,,,199.32166666666666,FAIL,fell over
352,,g000002_c3,2,,,,,,,,,,,,,,,,,,,,,,,,,,,,,500.0,FAIL,infeasible_geometry
353,,g000002_c4,2,,,,,,,,,,,,,,,13.7653,41.1931,25.0444,4.986,4.4032,0.466821,44.4134,8.0,8.0,,,,,,-0.4713333333333334,PASS,
354,,g000002_c5,2,,,,,,,,,,,,,,,9.1335,42.9991,5.8192,0.43,11.8492,0.27082,28.3927,0.0,1.606,,,,,,199.302,FAIL,fell over
355,,g000002_c6,2,,,,,,,,,,,,,,,11.7248,30.062,21.247,5.004,3.7781,0.135181,16.1145,8.0,8.0,,,,,,-0.6046666666666667,PASS,
356,,g000002_c7,2,,,,,,,,,,,,,,,6.6225,35.2339,0.7993,0.054,2.4279,0.130949,12.549,8.0,1.578,,,,,,199.596,FAIL,fell over
357,,g000003_c0,3,,,,,,,,,,,,,,,3.7096,3.7096,0.0,0.0,0.0,0.0,0.0,8.0,0.0,,,,,,201.0,FAIL,fell over
358,,g000003_c1,3,,,,,,,,,,,,,,,9.5013,33.1928,24.0275,5.888,4.0843,0.40969,43.7645,8.0,8.0,,,,,,-0.39566666666666683,PASS,
359,,g000003_c2,3,,,,,,,,,,,,,,,19.9135,56.6942,11.9166,1.16,8.942,0.188837,17.3718,8.0,3.022,,,,,,199.43133333333333,FAIL,fell over
360,,g000003_c3,3,,,,,,,,,,,,,,,10.6354,30.6366,12.9687,3.862,2.3087,0.151865,16.3927,8.0,8.0,,,,,,-0.6190000000000002,PASS,
361,,g000003_c4,3,,,,,,,,,,,,,,,,,,,,,,,,,,,,,500.0,FAIL,infeasible_geometry
362,,g000003_c5,3,,,,,,,,,,,,,,,7.9852,17.6168,15.7629,1.634,3.3235,0.339293,33.6181,8.0,8.0,,,,,,-0.502,PASS,
363,,g000003_c6,3,,,,,,,,,,,,,,,12.5997,33.1297,19.6956,4.34,3.6898,0.132762,16.4727,8.0,8.0,,,,,,-0.6443333333333334,PASS,
364,,g000003_c7,3,,,,,,,,,,,,,,,11.1336,43.4006,18.9511,6.036,3.171,0.240177,27.7427,8.0,8.0,,,,,,-0.6736666666666666,PASS,
365,,g000004_c0,4,,,,,,,,,,,,,,,9.3464,67.0689,6.8414,0.458,8.5389,0.4673,40.1202,0.0,2.09,,,,,,199.65633333333332,FAIL,fell over
366,,g000004_c1,4,,,,,,,,,,,,,,,0.0,0.0,0.0,0.0,0.0,0.0,0.0,8.0,0.0,,,,,,201.0,FAIL,fell over
367,,g000004_c2,4,,,,,,,,,,,,,,,,,,,,,,,,,,,,,500.0,FAIL,infeasible_geometry
368,,g000004_c3,4,,,,,,,,,,,,,,,11.4037,28.0444,22.5865,3.014,4.4001,0.182358,16.5112,8.0,8.0,,,,,,-1.0276666666666667,PASS,
369,,g000004_c4,4,,,,,,,,,,,,,,,,,,,,,,,,,,,,,500.0,FAIL,infeasible_geometry
370,,g000004_c5,4,,,,,,,,,,,,,,,10.685,35.2831,2.5687,0.842,2.3097,0.29106,18.0813,8.0,2.206,,,,,,199.93633333333332,FAIL,fell over
371,,g000004_c6,4,,,,,,,,,,,,,,,6.7615,33.5105,0.858,0.06,2.656,0.131963,12.5182,8.0,1.586,,,,,,199.59566666666666,FAIL,fell over
372,,g000004_c7,4,,,,,,,,,,,,,,,12.4827,25.9142,24.2596,5.324,4.096,0.435092,44.4478,8.0,8.0,,,,,,-0.44233333333333325,PASS,
373,,evo_seed,0,,,,,,,,,,,,,,,11.016,45.5047,17.359,2.738,3.1965,0.227123,22.4418,8.0,8.0,,,,,,-0.5793333333333335,PASS,
374,,g000000_c0,0,,,,,,,,,,,,,,,12.1491,35.6479,21.7325,1.18,5.3549,0.576774,40.8851,0.0,8.0,,,,,,-0.32866666666666666,PASS,
375,,g000000_c1,0,,,,,,,,,,,,,,,0.0,0.0,0.0,0.0,0.0,0.0,0.0,8.0,0.0,,,,,,201.0,FAIL,fell over
376,,g000000_c2,0,,,,,,,,,,,,,,,0.0,0.0,0.0,0.0,0.0,0.0,0.0,8.0,0.0,,,,,,201.0,FAIL,fell over
377,,g000000_c3,0,,,,,,,,,,,,,,,0.0,0.0,0.0,0.0,0.0,0.0,0.0,8.0,0.0,,,,,,201.0,FAIL,fell over
378,,g000000_c4,0,,,,,,,,,,,,,,,,,,,,,,,,,,,,,500.0,FAIL,infeasible_geometry
379,,g000000_c5,0,,,,,,,,,,,,,,,0.0,0.0,0.0,0.0,0.0,0.0,0.0,8.0,0.0,,,,,,201.0,FAIL,fell over
380,,g000000_c6,0,,,,,,,,,,,,,,,11.4331,30.4559,18.2036,4.226,3.5097,0.449254,42.4922,8.0,8.0,,,,,,-0.2696666666666667,PASS,
381,,g000000_c7,0,,,,,,,,,,,,,,,9.2274,30.5066,18.8682,4.174,3.5412,0.484857,42.0873,8.0,8.0,,,,,,-0.19466666666666677,PASS,
382,,g000001_c0,1,,,,,,,,,,,,,,,,,,,,,,,,,,,,,500.0,FAIL,infeasible_geometry
383,,g000001_c1,1,,,,,,,,,,,,,,,7.8303,19.3901,15.5768,1.43,3.5399,0.360451,33.5605,8.0,8.0,,,,,,-0.45066666666666655,PASS,
384,,g000001_c2,1,,,,,,,,,,,,,,,9.2586,31.4414,10.1711,3.894,1.957,0.210685,21.7669,8.0,8.0,,,,,,-0.5296666666666667,PASS,
385,,g000001_c3,1,,,,,,,,,,,,,,,0.0,0.0,0.0,0.0,0.0,0.0,0.0,8.0,0.0,,,,,,201.0,FAIL,fell over
386,,g000001_c4,1,,,,,,,,,,,,,,,12.8693,42.6399,16.5259,2.866,3.0016,0.57015,42.864,8.0,8.0,,,,,,-0.22999999999999998,PASS,
387,,g000001_c5,1,,,,,,,,,,,,,,,10.6624,50.8146,12.1339,0.676,9.4942,0.45469,33.6503,0.0,2.956,,,,,,199.443,FAIL,fell over
388,,g000001_c6,1,,,,,,,,,,,,,,,8.1042,20.6989,17.0829,1.656,3.5511,0.350159,35.7106,8.0,8.0,,,,,,-0.4970000000000001,PASS,
389,,g000001_c7,1,,,,,,,,,,,,,,,7.8445,18.2776,15.6631,1.432,3.5764,0.360336,33.5659,8.0,8.0,,,,,,-0.44366666666666665,PASS,
390,,g000002_c0,2,,,,,,,,,,,,,,,15.1103,51.0629,3.7222,0.298,9.7457,0.143059,12.5813,8.0,1.576,,,,,,199.523,FAIL,fell over
391,,g000002_c1,2,,,,,,,,,,,,,,,9.0967,57.4297,7.1152,0.432,15.1766,0.325811,28.6713,0.0,1.572,,,,,,199.42933333333335,FAIL,fell over
392,,g000002_c2,2,,,,,,,,,,,,,,,17.5054,53.3882,12.0623,0.676,9.8423,0.471249,36.3264,0.0,2.712,,,,,,199.51533333333333,FAIL,fell over
393,,g000002_c3,2,,,,,,,,,,,,,,,6.6828,35.851,0.7442,0.048,2.2291,0.131234,11.2443,8.0,1.574,,,,,,199.60733333333334,FAIL,fell over
394,,g000002_c4,2,,,,,,,,,,,,,,,13.9671,43.3042,47.6306,4.162,8.6635,0.531487,40.4641,0.0,8.0,,,,,,-0.542,PASS,
395,,g000002_c5,2,,,,,,,,,,,,,,,,,,,,,,,,,,,,,500.0,FAIL,infeasible_geometry
396,,g000002_c6,2,,,,,,,,,,,,,,,10.1313,27.7051,17.4765,3.234,3.1971,0.139396,15.8967,8.0,8.0,,,,,,-0.5463333333333333,PASS,
397,,g000002_c7,2,,,,,,,,,,,,,,,13.2016,41.4849,10.6273,1.38,4.9021,0.178082,17.0551,0.0,3.552,,,,,,199.198,FAIL,fell over
398,,g000003_c0,3,,,,,,,,,,,,,,,,,,,,,,,,,,,,,500.0,FAIL,infeasible_geometry
399,,g000003_c1,3,,,,,,,,,,,,,,,0.0,0.0,0.0,0.0,0.0,0.0,0.0,8.0,0.0,,,,,,201.0,FAIL,fell over
400,,g000003_c2,3,,,,,,,,,,,,,,,10.7283,33.657,20.6187,5.112,3.6338,0.440197,43.5808,8.0,8.0,,,,,,-0.2616666666666667,PASS,
401,,g000003_c3,3,,,,,,,,,,,,,,,4.5567,4.5567,0.0,0.0,0.0,0.0,0.0,8.0,0.0,,,,,,201.0,FAIL,fell over
402,,g000003_c4,3,,,,,,,,,,,,,,,3.7096,3.7096,0.0,0.0,0.0,0.0,0.0,8.0,0.0,,,,,,201.0,FAIL,fell over
403,,g000003_c5,3,,,,,,,,,,,,,,,,,,,,,,,,,,,,,500.0,FAIL,infeasible_geometry
404,,g000003_c6,3,,,,,,,,,,,,,,,10.7311,44.9965,5.7978,0.266,11.7051,0.321517,26.778,0.0,1.796,,,,,,199.47266666666667,FAIL,fell over
405,,g000003_c7,3,,,,,,,,,,,,,,,,,,,,,,,,,,,,,500.0,FAIL,infeasible_geometry
406,,g000004_c0,4,,,,,,,,,,,,,,,12.353,33.9934,19.327,3.678,3.5738,0.133028,14.0076,8.0,8.0,,,,,,-0.6580000000000001,PASS,
407,,g000004_c1,4,,,,,,,,,,,,,,,8.1603,37.1959,0.1408,0.046,0.4961,0.088427,12.8563,8.0,1.156,,,,,,200.03866666666667,FAIL,fell over
408,,g000004_c2,4,,,,,,,,,,,,,,,5.5345,45.4635,0.7952,0.004,4.157,0.110825,15.5144,8.0,1.2,,,,,,199.71066666666667,FAIL,fell over
409,,g000004_c3,4,,,,,,,,,,,,,,,,,,,,,,,,,,,,,500.0,FAIL,infeasible_geometry
410,,g000004_c4,4,,,,,,,,,,,,,,,0.0,0.0,0.0,0.0,0.0,0.0,0.0,8.0,0.0,,,,,,201.0,FAIL,fell over
411,,g000004_c5,4,,,,,,,,,,,,,,,,,,,,,,,,,,,,,500.0,FAIL,infeasible_geometry
412,,g000004_c6,4,,,,,,,,,,,,,,,14.0792,31.4484,2.9606,0.95,2.2179,0.115245,15.4402,8.0,2.206,,,,,,199.60133333333334,FAIL,fell over
413,,g000004_c7,4,,,,,,,,,,,,,,,16.7561,74.6289,11.8158,0.334,22.0048,0.212654,15.5122,8.0,1.8,,,,,,199.18833333333333,FAIL,fell over
414,,g000005_c0,5,,,,,,,,,,,,,,,10.2013,24.9588,21.2449,1.972,4.4783,0.182249,15.0201,8.0,8.0,,,,,,-0.9830000000000001,PASS,
415,,g000005_c1,5,,,,,,,,,,,,,,,0.0,0.0,0.0,0.0,0.0,0.0,0.0,8.0,0.0,,,,,,201.0,FAIL,fell over
416,,g000005_c2,5,,,,,,,,,,,,,,,4.1032,45.761,0.509,0.0,1.7249,0.106344,14.3982,0.418,1.232,,,,,,199.65066666666667,FAIL,fell over
417,,g000005_c3,5,,,,,,,,,,,,,,,0.0,0.0,0.0,0.0,0.0,0.0,0.0,8.0,0.0,,,,,,201.0,FAIL,fell over
418,,g000005_c4,5,,,,,,,,,,,,,,,11.4285,28.975,22.0971,3.072,4.285,0.184013,16.8389,8.0,8.0,,,,,,-1.0146666666666668,PASS,
419,,g000005_c5,5,,,,,,,,,,,,,,,19.7046,19.7046,0.0,0.0,0.0,0.0,0.0,8.0,0.0,,,,,,201.0,FAIL,fell over
420,,g000005_c6,5,,,,,,,,,,,,,,,8.9136,26.7491,16.1451,2.924,3.2885,0.449256,40.6241,8.0,8.0,,,,,,-0.5476666666666667,PASS,
421,,g000005_c7,5,,,,,,,,,,,,,,,13.2649,30.7381,21.3374,4.166,3.8067,0.13163,16.3068,8.0,8.0,,,,,,-0.663,PASS,
422,,g000006_c0,6,,,,,,,,,,,,,,,15.392,48.412,7.8588,0.564,6.978,0.19111,17.6128,0.0,2.726,,,,,,199.32933333333332,FAIL,fell over
423,,g000006_c1,6,,,,,,,,,,,,,,,,,,,,,,,,,,,,,500.0,FAIL,infeasible_geometry
424,,g000006_c2,6,,,,,,,,,,,,,,,9.7271,26.1239,13.4351,3.0,2.6228,0.16993,16.8058,0.0,8.0,,,,,,-0.9953333333333334,PASS,
425,,g000006_c3,6,,,,,,,,,,,,,,,3.7096,3.7096,0.0,0.0,0.0,0.0,0.0,8.0,0.0,,,,,,201.0,FAIL,fell over
426,,g000006_c4,6,,,,,,,,,,,,,,,0.0,0.0,0.0,0.0,0.0,0.0,0.0,8.0,0.0,,,,,,201.0,FAIL,fell over
427,,g000006_c5,6,,,,,,,,,,,,,,,15.8778,40.3725,20.0897,2.59,7.2068,0.361063,44.2796,0.0,4.388,,,,,,199.352,FAIL,fell over
428,,g000006_c6,6,,,,,,,,,,,,,,,19.7046,19.7046,0.0,0.0,0.0,0.0,0.0,8.0,0.0,,,,,,201.0,FAIL,fell over
429,,g000006_c7,6,,,,,,,,,,,,,,,13.1948,52.0585,3.5498,0.248,8.258,0.137896,11.8321,8.0,1.776,,,,,,199.56766666666667,FAIL,fell over
430,,g000007_c0,7,,,,,,,,,,,,,,,15.3768,59.4792,14.8093,2.404,5.8889,0.17111,18.5118,0.0,4.068,,,,,,199.20033333333333,FAIL,fell over
431,,g000007_c1,7,,,,,,,,,,,,,,,19.7046,19.7046,0.0,0.0,0.0,0.0,0.0,8.0,0.0,,,,,,201.0,FAIL,fell over
432,,g000007_c2,7,,,,,,,,,,,,,,,17.0068,45.1834,9.304,0.746,7.8912,0.163578,14.6392,8.0,2.76,,,,,,199.32633333333334,FAIL,fell over
433,,g000007_c3,7,,,,,,,,,,,,,,,15.1174,50.4813,3.868,0.302,9.8776,0.143676,12.57,8.0,1.58,,,,,,199.51733333333334,FAIL,fell over
434,,g000007_c4,7,,,,,,,,,,,,,,,14.9965,63.1918,6.9101,0.436,10.2018,0.15247,12.102,8.0,2.036,,,,,,199.49066666666667,FAIL,fell over
435,,g000007_c5,7,,,,,,,,,,,,,,,9.1283,42.9403,5.8189,0.428,11.8474,0.270761,28.3943,0.0,1.606,,,,,,199.302,FAIL,fell over
436,,g000007_c6,7,,,,,,,,,,,,,,,9.0962,57.4179,7.1155,0.432,15.1773,0.325812,28.6679,0.0,1.572,,,,,,199.42933333333335,FAIL,fell over
437,,g000007_c7,7,,,,,,,,,,,,,,,11.2155,28.5669,23.6973,3.038,4.6399,0.184691,16.5764,8.0,8.0,,,,,,-1.0270000000000001,PASS,
438,,g000008_c0,8,,,,,,,,,,,,,,,10.9761,28.06,21.623,2.96,4.2927,0.182101,16.4603,8.0,8.0,,,,,,-1.004666666666667,PASS,
439,,g000008_c1,8,,,,,,,,,,,,,,,9.6892,44.2005,6.2295,0.322,12.7296,0.296722,28.1935,0.0,1.668,,,,,,199.343,FAIL,fell over
440,,g000008_c2,8,,,,,,,,,,,,,,,0.0,0.0,0.0,0.0,0.0,0.0,0.0,8.0,0.0,,,,,,201.0,FAIL,fell over
441,,g000008_c3,8,,,,,,,,,,,,,,,9.125,42.9307,5.818,0.428,11.8449,0.270768,28.3942,0.0,1.606,,,,,,199.302,FAIL,fell over
442,,g000008_c4,8,,,,,,,,,,,,,,,9.2456,43.7403,5.8383,0.43,11.8351,0.270589,28.3747,0.0,1.608,,,,,,199.302,FAIL,fell over
443,,g000008_c5,8,,,,,,,,,,,,,,,19.7046,19.7046,0.0,0.0,0.0,0.0,0.0,8.0,0.0,,,,,,201.0,FAIL,fell over
444,,g000008_c6,8,,,,,,,,,,,,,,,,,,,,,,,,,,,,,500.0,FAIL,infeasible_geometry
445,,g000008_c7,8,,,,,,,,,,,,,,,12.1124,30.4861,24.128,2.952,4.6177,0.182698,16.4503,8.0,8.0,,,,,,-1.0993333333333335,PASS,
446,,g000009_c0,9,,,,,,,,,,,,,,,9.1837,58.1231,7.0999,0.432,15.1467,0.326176,28.665,0.0,1.572,,,,,,199.43233333333333,FAIL,fell over
447,,g000009_c1,9,,,,,,,,,,,,,,,10.6495,31.8272,17.622,4.614,3.3963,0.134183,15.9628,8.0,8.0,,,,,,-0.573,PASS,
448,,g000009_c2,9,,,,,,,,,,,,,,,,,,,,,,,,,,,,,500.0,FAIL,infeasible_geometry
449,,g000009_c3,9,,,,,,,,,,,,,,,9.8716,29.5115,16.6536,3.024,3.2648,0.13639,15.0102,8.0,8.0,,,,,,-0.4943333333333333,PASS,
450,,g000009_c4,9,,,,,,,,,,,,,,,9.7235,36.8116,15.9272,3.284,3.468,0.389174,35.3351,8.0,8.0,,,,,,-0.29300000000000015,PASS,
451,,g000009_c5,9,,,,,,,,,,,,,,,,,,,,,,,,,,,,,500.0,FAIL,infeasible_geometry
452,,g000009_c6,9,,,,,,,,,,,,,,,6.6642,34.7203,0.7332,0.052,2.2951,0.1312,12.5472,8.0,1.578,,,,,,199.61733333333333,FAIL,fell over
453,,g000009_c7,9,,,,,,,,,,,,,,,11.0524,28.0442,22.3345,3.09,4.4195,0.182078,16.7832,8.0,8.0,,,,,,-1.0173333333333332,PASS,
454,,g000010_c0,10,,,,,,,,,,,,,,,,,,,,,,,,,,,,,500.0,FAIL,infeasible_geometry
455,,g000010_c1,10,,,,,,,,,,,,,,,9.2456,43.7074,5.839,0.43,11.837,0.270606,28.3759,0.0,1.608,,,,,,199.302,FAIL,fell over
456,,g000010_c2,10,,,,,,,,,,,,,,,10.0679,38.3537,21.4846,1.812,5.1785,0.156088,14.7925,0.0,8.0,,,,,,-0.8656666666666666,PASS,
457,,g000010_c3,10,,,,,,,,,,,,,,,12.4561,37.32,5.6685,0.818,4.7803,0.173739,16.3015,0.0,2.432,,,,,,199.239,FAIL,fell over
458,,g000010_c4,10,,,,,,,,,,,,,,,15.0221,50.1071,3.8971,0.304,9.9223,0.144004,12.558,8.0,1.582,,,,,,199.482,FAIL,fell over
459,,g000010_c5,10,,,,,,,,,,,,,,,8.6427,22.1421,18.4959,2.592,3.6211,0.496456,43.3354,8.0,8.0,,,,,,-0.4850000000000001,PASS,
460,,g000010_c6,10,,,,,,,,,,,,,,,12.6447,42.7968,16.7275,3.328,2.9939,0.236583,21.3379,0.0,8.0,,,,,,-1.1513333333333335,PASS,
461,,g000010_c7,10,,,,,,,,,,,,,,,16.6192,44.2494,17.3983,1.404,9.2237,0.500841,38.2402,0.0,3.71,,,,,,199.44233333333332,FAIL,fell over
462,,g000011_c0,11,,,,,,,,,,,,,,,19.7046,19.7046,0.0,0.0,0.0,0.0,0.0,8.0,0.0,,,,,,201.0,FAIL,fell over
463,,g000011_c1,11,,,,,,,,,,,,,,,,,,,,,,,,,,,,,500.0,FAIL,infeasible_geometry
464,,g000011_c2,11,,,,,,,,,,,,,,,0.0,0.0,0.0,0.0,0.0,0.0,0.0,8.0,0.0,,,,,,201.0,FAIL,fell over
465,,g000011_c3,11,,,,,,,,,,,,,,,15.015,53.7904,3.6704,0.3,9.8071,0.143745,13.945,8.0,1.578,,,,,,199.52233333333334,FAIL,fell over
466,,g000011_c4,11,,,,,,,,,,,,,,,0.0,0.0,0.0,0.0,0.0,0.0,0.0,8.0,0.0,,,,,,201.0,FAIL,fell over
467,,g000011_c5,11,,,,,,,,,,,,,,,,,,,,,,,,,,,,,500.0,FAIL,infeasible_geometry
468,,g000011_c6,11,,,,,,,,,,,,,,,11.0955,30.1007,21.6446,2.842,4.2049,0.176606,16.5343,8.0,8.0,,,,,,-1.017,PASS,
469,,g000011_c7,11,,,,,,,,,,,,,,,15.1627,53.3492,3.4836,0.288,9.184,0.141615,12.7381,8.0,1.566,,,,,,199.47533333333334,FAIL,fell over
470,,g000012_c0,12,,,,,,,,,,,,,,,9.1276,43.0396,5.8224,0.428,11.8559,0.270796,28.3932,0.0,1.606,,,,,,199.302,FAIL,fell over
471,,g000012_c1,12,,,,,,,,,,,,,,,7.0529,33.7812,0.7193,0.058,2.6825,0.129154,13.0106,8.0,1.466,,,,,,199.58433333333332,FAIL,fell over
472,,g000012_c2,12,,,,,,,,,,,,,,,,,,,,,,,,,,,,,500.0,FAIL,infeasible_geometry
473,,g000012_c3,12,,,,,,,,,,,,,,,10.098,23.112,15.5331,2.57,3.0076,0.558417,39.9282,8.0,8.0,,,,,,-0.16366666666666685,PASS,
474,,g000012_c4,12,,,,,,,,,,,,,,,,,,,,,,,,,,,,,500.0,FAIL,infeasible_geometry
475,,g000012_c5,12,,,,,,,,,,,,,,,0.0,0.0,0.0,0.0,0.0,0.0,0.0,8.0,0.0,,,,,,201.0,FAIL,fell over
476,,g000012_c6,12,,,,,,,,,,,,,,,0.0,0.0,0.0,0.0,0.0,0.0,0.0,8.0,0.0,,,,,,201.0,FAIL,fell over
477,,g000012_c7,12,,,,,,,,,,,,,,,0.0,0.0,0.0,0.0,0.0,0.0,0.0,8.0,0.0,,,,,,201.0,FAIL,fell over
478,,g000013_c0,13,,,,,,,,,,,,,,,9.5189,25.5403,29.0039,2.556,6.2659,0.15476,18.498,0.0,8.0,,,,,,-0.8116666666666668,PASS,
479,,g000013_c1,13,,,,,,,,,,,,,,,,,,,,,,,,,,,,,500.0,FAIL,infeasible_geometry
480,,g000013_c2,13,,,,,,,,,,,,,,,,,,,,,,,,,,,,,500.0,FAIL,infeasible_geometry
481,,g000013_c3,13,,,,,,,,,,,,,,,0.0,0.0,0.0,0.0,0.0,0.0,0.0,8.0,0.0,,,,,,201.0,FAIL,fell over
482,,g000013_c4,13,,,,,,,,,,,,,,,,,,,,,,,,,,,,,500.0,FAIL,infeasible_geometry
483,,g000013_c5,13,,,,,,,,,,,,,,,0.0,0.0,0.0,0.0,0.0,0.0,0.0,8.0,0.0,,,,,,201.0,FAIL,fell over
484,,g000013_c6,13,,,,,,,,,,,,,,,9.5959,28.9283,29.6829,2.55,6.4326,0.151443,17.9103,0.0,8.0,,,,,,-0.7830000000000001,PASS,
485,,g000013_c7,13,,,,,,,,,,,,,,,11.2615,29.8614,19.1844,4.442,3.5109,0.448611,40.6811,8.0,8.0,,,,,,-0.16433333333333344,PASS,
486,,g000014_c0,14,,,,,,,,,,,,,,,,,,,,,,,,,,,,,500.0,FAIL,infeasible_geometry
487,,g000014_c1,14,,,,,,,,,,,,,,,10.7179,30.8769,18.9694,4.362,3.4522,0.494747,42.6665,8.0,8.0,,,,,,-0.19500000000000006,PASS,
488,,g000014_c2,14,,,,,,,,,,,,,,,10.6201,45.365,5.9176,0.276,11.9158,0.321569,26.8937,0.0,1.798,,,,,,199.45733333333334,FAIL,fell over
489,,g000014_c3,14,,,,,,,,,,,,,,,14.8806,44.3883,15.3144,1.032,15.0779,0.27175,32.9422,0.0,2.198,,,,,,199.32733333333334,FAIL,fell over
490,,g000014_c4,14,,,,,,,,,,,,,,,0.0,0.0,0.0,0.0,0.0,0.0,0.0,8.0,0.0,,,,,,201.0,FAIL,fell over
491,,g000014_c5,14,,,,,,,,,,,,,,,19.7046,19.7046,0.0,0.0,0.0,0.0,0.0,8.0,0.0,,,,,,201.0,FAIL,fell over
492,,g000014_c6,14,,,,,,,,,,,,,,,9.813,27.3825,17.7004,4.296,3.3901,0.135138,16.3054,8.0,8.0,,,,,,-0.5030000000000001,PASS,
493,,g000014_c7,14,,,,,,,,,,,,,,,,,,,,,,,,,,,,,500.0,FAIL,infeasible_geometry
494,,g000015_c0,15,,,,,,,,,,,,,,,15.25,51.8994,3.6266,0.296,9.4501,0.141953,12.6151,8.0,1.572,,,,,,199.449,FAIL,fell over
495,,g000015_c1,15,,,,,,,,,,,,,,,,,,,,,,,,,,,,,500.0,FAIL,infeasible_geometry
496,,g000015_c2,15,,,,,,,,,,,,,,,0.0,0.0,0.0,0.0,0.0,0.0,0.0,8.0,0.0,,,,,,201.0,FAIL,fell over
497,,g000015_c3,15,,,,,,,,,,,,,,,,,,,,,,,,,,,,,500.0,FAIL,infeasible_geometry
498,,g000015_c4,15,,,,,,,,,,,,,,,15.1677,52.2927,3.6283,0.294,9.4896,0.143083,12.5969,8.0,1.572,,,,,,199.48633333333333,FAIL,fell over
499,,g000015_c5,15,,,,,,,,,,,,,,,10.1893,60.076,6.7524,0.446,14.0272,0.318549,26.7884,0.0,1.586,,,,,,199.382,FAIL,fell over
500,,g000015_c6,15,,,,,,,,,,,,,,,3.4367,6.433,0.5512,0.0,0.5336,0.066244,1.2708,0.732,1.28,,,,,,199.59666666666666,FAIL,fell over
501,,g000015_c7,15,,,,,,,,,,,,,,,0.0,0.0,0.0,0.0,0.0,0.0,0.0,8.0,0.0,,,,,,201.0,FAIL,fell over
502,,g000016_c0,16,,,,,,,,,,,,,,,6.575,33.9864,0.7883,0.058,2.4649,0.131598,12.5261,8.0,1.584,,,,,,199.58066666666667,FAIL,fell over
503,,g000016_c1,16,,,,,,,,,,,,,,,13.5921,52.0525,3.5813,0.25,8.9068,0.136727,12.168,8.0,1.678,,,,,,199.49966666666666,FAIL,fell over
504,,g000016_c2,16,,,,,,,,,,,,,,,11.8848,29.6599,20.0705,4.184,3.7086,0.138473,16.7103,8.0,8.0,,,,,,-0.6720000000000002,PASS,
505,,g000016_c3,16,,,,,,,,,,,,,,,,,,,,,,,,,,,,,500.0,FAIL,infeasible_geometry
506,,g000016_c4,16,,,,,,,,,,,,,,,,,,,,,,,,,,,,,500.0,FAIL,infeasible_geometry
507,,g000016_c5,16,,,,,,,,,,,,,,,0.0,0.0,0.0,0.0,0.0,0.0,0.0,8.0,0.0,,,,,,201.0,FAIL,fell over
508,,g000016_c6,16,,,,,,,,,,,,,,,6.5877,14.1974,0.0693,0.0,0.0439,0.106015,1.2838,8.0,1.34,,,,,,199.909,FAIL,fell over
509,,g000016_c7,16,,,,,,,,,,,,,,,,,,,,,,,,,,,,,500.0,FAIL,infeasible_geometry
510,,g000017_c0,17,,,,,,,,,,,,,,,7.7501,18.5286,15.4564,1.43,3.53,0.360603,33.5649,8.0,8.0,,,,,,-0.43133333333333335,PASS,
511,,g000017_c1,17,,,,,,,,,,,,,,,14.9002,44.7475,7.4735,0.534,6.4017,0.165906,15.0118,0.0,2.866,,,,,,199.23933333333332,FAIL,fell over
512,,g000017_c2,17,,,,,,,,,,,,,,,19.7046,19.7046,0.0,0.0,0.0,0.0,0.0,8.0,0.0,,,,,,201.0,FAIL,fell over
513,,g000017_c3,17,,,,,,,,,,,,,,,0.0,0.0,0.0,0.0,0.0,0.0,0.0,8.0,0.0,,,,,,201.0,FAIL,fell over
514,,g000017_c4,17,,,,,,,,,,,,,,,,,,,,,,,,,,,,,500.0,FAIL,infeasible_geometry
515,,g000017_c5,17,,,,,,,,,,,,,,,19.7046,19.7046,0.0,0.0,0.0,0.0,0.0,8.0,0.0,,,,,,201.0,FAIL,fell over
516,,g000017_c6,17,,,,,,,,,,,,,,,3.7096,3.7096,0.0,0.0,0.0,0.0,0.0,8.0,0.0,,,,,,201.0,FAIL,fell over
517,,g000017_c7,17,,,,,,,,,,,,,,,12.9377,33.0929,20.2798,4.334,3.5717,0.136165,16.3589,8.0,8.0,,,,,,-0.6476666666666668,PASS,
518,,g000018_c0,18,,,,,,,,,,,,,,,3.7096,3.7096,0.0,0.0,0.0,0.0,0.0,8.0,0.0,,,,,,201.0,FAIL,fell over
519,,g000018_c1,18,,,,,,,,,,,,,,,9.8946,37.2207,23.4252,5.55,4.3293,0.432558,43.8523,8.0,8.0,,,,,,-0.44666666666666677,PASS,
520,,g000018_c2,18,,,,,,,,,,,,,,,13.9988,45.782,13.3136,1.104,6.7945,0.205112,17.5821,0.0,3.894,,,,,,199.398,FAIL,fell over
521,,g000018_c3,18,,,,,,,,,,,,,,,0.0,0.0,0.0,0.0,0.0,0.0,0.0,8.0,0.0,,,,,,201.0,FAIL,fell over
522,,g000018_c4,18,,,,,,,,,,,,,,,,,,,,,,,,,,,,,500.0,FAIL,infeasible_geometry
523,,g000018_c5,18,,,,,,,,,,,,,,,19.7046,19.7046,0.0,0.0,0.0,0.0,0.0,8.0,0.0,,,,,,201.0,FAIL,fell over
524,,g000018_c6,18,,,,,,,,,,,,,,,11.1186,28.3977,23.5758,2.978,4.6189,0.182613,16.5091,8.0,8.0,,,,,,-0.9893333333333334,PASS,
525,,g000018_c7,18,,,,,,,,,,,,,,,3.7096,3.7096,0.0,0.0,0.0,0.0,0.0,8.0,0.0,,,,,,201.0,FAIL,fell over
526,,g000019_c0,19,,,,,,,,,,,,,,,0.0,0.0,0.0,0.0,0.0,0.0,0.0,8.0,0.0,,,,,,201.0,FAIL,fell over
527,,g000019_c1,19,,,,,,,,,,,,,,,9.8248,58.6762,7.1946,0.446,14.8667,0.320868,27.7463,0.0,1.588,,,,,,199.37433333333334,FAIL,fell over
528,,g000019_c2,19,,,,,,,,,,,,,,,,,,,,,,,,,,,,,500.0,FAIL,infeasible_geometry
529,,g000019_c3,19,,,,,,,,,,,,,,,13.4842,53.019,3.6038,0.256,8.8959,0.136278,12.5643,8.0,1.7,,,,,,199.543,FAIL,fell over
530,,g000019_c4,19,,,,,,,,,,,,,,,4.5456,45.6554,0.9305,0.0,3.0338,0.185209,19.2056,0.428,1.462,,,,,,199.733,FAIL,fell over
531,,g000019_c5,19,,,,,,,,,,,,,,,8.8384,57.2986,7.0093,0.366,14.8072,0.269815,24.5949,0.0,1.566,,,,,,199.30566666666667,FAIL,fell over
532,,g000019_c6,19,,,,,,,,,,,,,,,,,,,,,,,,,,,,,500.0,FAIL,infeasible_geometry
533,,g000019_c7,19,,,,,,,,,,,,,,,15.0277,49.7855,3.8157,0.306,9.8589,0.142956,12.5552,8.0,1.582,,,,,,199.49766666666667,FAIL,fell over
534,,g000020_c0,20,,,,,,,,,,,,,,,14.5525,58.5923,28.9852,2.49,6.7779,0.480219,36.402,0.0,7.02,,,,,,199.41433333333333,FAIL,fell over
535,,g000020_c1,20,,,,,,,,,,,,,,,5.1363,45.1141,0.6683,0.002,2.0551,0.08334,11.3453,8.0,1.194,,,,,,199.403,FAIL,fell over
536,,g000020_c2,20,,,,,,,,,,,,,,,10.1631,26.9815,20.7785,1.982,4.4225,0.183873,15.0481,8.0,8.0,,,,,,-0.9603333333333333,PASS,
537,,g000020_c3,20,,,,,,,,,,,,,,,,,,,,,,,,,,,,,500.0,FAIL,infeasible_geometry
538,,g000020_c4,20,,,,,,,,,,,,,,,,,,,,,,,,,,,,,500.0,FAIL,infeasible_geometry
