run_id,scenario,label,gen,timestamp,Q_PITCH,Q_PITCH_RATE,Q_VEL,R,KP_V,KI_V,KFF_V,KP_YAW,KI_YAW,LEG_K_S,LEG_B_S,LEG_K_ROLL,LEG_D_ROLL,rms_pitch_deg,max_pitch_deg,wheel_travel_m,wheel_liftoff_s,vel_track_rms_ms,hip_track_rms_rad,hip_cmd_rate_rms,settle_time_s,survived_s,fitness_balance,fitness_disturbance,fitness_drive_slow,fitness_drive_med,fitness_obstacle,fitness,status,fail_reason
1,s01_lqr_pitch_step,evo_seed,0,,5.40254,0.033408,0.00165213,39.647,,,,,,,,,,3.6701,5.3476,2.0045,0.09,0.4473,0.309395,0.0,0.326,5.0,,,,,,8.688875,PASS,
2,s01_lqr_pitch_step,g000000_c0,0,,1.8121176577556894,0.1845708753769099,0.0003273433539180759,100.0,,,,,,,,,,3.568,5.1787,2.3667,0.074,0.4795,0.309196,0.0,0.318,5.0,,,,,,7.412125,PASS,
3,s01_lqr_pitch_step,g000000_c1,0,,49.99999999999999,0.011235224507674288,0.0016315173865605196,100.0,,,,,,,,,,3.62,5.2647,2.3812,0.084,0.5359,0.309181,0.0,0.316,5.0,,,,,,8.082475,PASS,
4,s01_lqr_pitch_step,g000000_c2,0,,1.5740235799806934,0.025325741602827932,0.0007039955657258614,100.0,,,,,,,,,,3.5851,5.2101,2.3568,0.076,0.4635,0.309129,0.0,0.316,5.0,,,,,,7.5711,PASS,
5,s01_lqr_pitch_step,g000000_c3,0,,1.4982820295649508,0.005567927816154234,1.0886352701563236e-05,100.0,,,,,,,,,,3.5424,5.138,2.0333,0.078,0.4638,0.309413,0.0,0.336,5.0,,,,,,7.050975,PASS,
6,s01_lqr_pitch_step,g000000_c4,0,,10.529773812268926,0.35772677743846737,0.003810663245053215,100.0,,,,,,,,,,3.6617,5.3441,2.2193,0.088,0.4721,0.309402,0.0,0.318,5.0,,,,,,8.469875,PASS,
7,s01_lqr_pitch_step,g000000_c5,0,,3.1886965111716514,0.11327191417312754,0.0010901032282595847,19.161077048290608,,,,,,,,,,3.6948,5.3837,1.8501,0.096,0.4169,0.309565,0.0,0.338,5.0,,,,,,9.2147,PASS,
8,s01_lqr_pitch_step,g000000_c6,0,,49.99999999999999,0.02136910951220947,0.00036754821329121513,77.27096819343942,,,,,,,,,,3.5757,5.1946,2.3642,0.076,0.4655,0.309071,0.0,0.316,5.0,,,,,,7.5868,PASS,
9,s01_lqr_pitch_step,g000000_c7,0,,1.1285612466336397,0.14041603577913414,0.001199926194461294,100.0,,,,,,,,,,3.6004,5.2417,2.3657,0.074,0.4749,0.309167,0.0,0.314,5.0,,,,,,7.636225,PASS,
10,s01_lqr_pitch_step,g000001_c0,1,,0.7806731815338238,0.001,0.00015909464794728912,100.0,,,,,,,,,,3.5627,5.1604,2.1058,0.078,0.487,0.309314,0.0,0.33,5.0,,,,,,7.23695,PASS,
11,s01_lqr_pitch_step,g000001_c1,1,,4.835386000812113,0.005323657548768555,1.1593036759456106e-05,12.048820571063002,,,,,,,,,,3.5578,5.154,2.0709,0.08,0.475,0.309291,0.0,0.332,5.0,,,,,,7.255925,PASS,
12,s01_lqr_pitch_step,g000001_c2,1,,0.8798851825889594,0.0034927145173412034,2.6383605815395728e-06,100.0,,,,,,,,,,3.5377,5.1376,2.052,0.08,0.4689,0.309527,0.0,0.336,5.0,,,,,,7.159125,PASS,
13,s01_lqr_pitch_step,g000001_c3,1,,0.17131913266319593,0.0032429887010853287,4.53386105704629e-05,69.07536764446544,,,,,,,,,,3.5482,5.1512,2.1896,0.072,0.4684,0.309198,0.0,0.326,5.0,,,,,,7.236825,PASS,
14,s01_lqr_pitch_step,g000001_c4,1,,0.4650245322572868,0.004733273120300822,5.082710230358388e-06,13.726054764251275,,,,,,,,,,3.5473,5.1428,2.1036,0.076,0.4913,0.309264,0.0,0.332,5.0,,,,,,7.108675,PASS,
15,s01_lqr_pitch_step,g000001_c5,1,,1.214852481492791,0.01154369231255711,1.47178367949811e-07,21.784204531088687,,,,,,,,,,3.5391,5.1372,2.0588,0.08,0.4677,0.309353,0.0,0.338,5.0,,,,,,6.991025,PASS,
16,s01_lqr_pitch_step,g000001_c6,1,,14.632770879014451,0.001,7.732268163618323e-07,63.14829126683496,,,,,,,,,,3.5348,5.1342,2.0741,0.076,0.4759,0.309408,0.0,0.332,5.0,,,,,,7.13275,PASS,
17,s01_lqr_pitch_step,g000001_c7,1,,1.9285880999194394,0.027477009428059418,3.1239464546544837e-06,17.138842936110436,,,,,,,,,,3.5426,5.1429,2.0805,0.078,0.4732,0.309296,0.0,0.332,5.0,,,,,,7.1072,PASS,
18,s01_lqr_pitch_step,g000002_c0,2,,0.18786413776064723,0.0820925951855731,1.9972184338162008e-05,1.7964735119485664,,,,,,,,,,3.6022,5.2391,2.3021,0.086,0.4568,0.309239,0.0,0.318,5.0,,,,,,8.134275,PASS,
19,s01_lqr_pitch_step,g000002_c1,2,,0.022955595645315404,0.11333094213030834,1.5813815931531517e-06,6.499242094497018,,,,,,,,,,3.5441,5.1453,2.0486,0.076,0.4645,0.309344,0.0,0.332,5.0,,,,,,7.1926,PASS,
20,s01_lqr_pitch_step,g000002_c2,2,,3.204235482965667,0.07344286767622572,1e-07,12.461679402247773,,,,,,,,,,3.5341,5.1364,2.0591,0.078,0.4679,0.309372,0.0,0.332,5.0,,,,,,7.17055,PASS,
21,s01_lqr_pitch_step,g000002_c3,2,,1.54950634244079,0.19993634403977403,1e-07,0.8972062978487882,,,,,,,,,,3.5486,5.1548,2.153,0.096,0.5027,0.3095,0.0,0.342,5.0,,,,,,9.3106,PASS,
22,s01_lqr_pitch_step,g000002_c4,2,,30.364649386807898,0.029413682883182024,3.033542586137052e-07,100.0,,,,,,,,,,3.535,5.1368,2.0883,0.074,0.4881,0.30948,0.0,0.336,5.0,,,,,,7.06665,PASS,
23,s01_lqr_pitch_step,g000002_c5,2,,0.29558274349612634,0.001,2.159429743293681e-07,24.8651931861184,,,,,,,,,,3.5334,5.1356,2.1317,0.076,0.4864,0.309425,0.0,0.332,5.0,,,,,,7.142125,PASS,
24,s01_lqr_pitch_step,g000002_c6,2,,1.5631996130427588,0.001,1e-07,8.591216503646464,,,,,,,,,,3.5332,5.1357,2.0779,0.072,0.4732,0.309439,0.0,0.332,5.0,,,,,,7.13475,PASS,
25,s01_lqr_pitch_step,g000002_c7,2,,1.4183444734709876,0.5698511243114095,3.050530305343819e-06,44.93677305031002,,,,,,,,,,3.5402,5.1375,2.0539,0.078,0.4658,0.309278,0.0,0.332,5.0,,,,,,7.124075,PASS,
26,s01_lqr_pitch_step,g000003_c0,3,,0.030754955881943463,0.0062018890987701365,1e-07,8.756161732933515,,,,,,,,,,3.5355,5.1381,2.0984,0.078,0.4736,0.3093,0.0,0.332,5.0,,,,,,7.098675,PASS,
27,s01_lqr_pitch_step,g000003_c1,3,,0.875483637406134,0.021262591029520966,3.381218218388259e-07,0.5339207452445951,,,,,,,,,,3.546,5.1491,2.3299,0.074,0.4855,0.309159,0.0,0.322,5.0,,,,,,7.726725,PASS,
28,s01_lqr_pitch_step,g000003_c2,3,,4.687922405298737,0.04941081943395417,5.7453811988697324e-06,36.23280450784782,,,,,,,,,,3.542,5.1427,2.0877,0.078,0.4743,0.30938,0.0,0.332,5.0,,,,,,7.213925,PASS,
29,s01_lqr_pitch_step,g000003_c3,3,,49.99999999999999,0.002242647527765039,7.278788626843699e-07,62.593468457227345,,,,,,,,,,3.5325,5.1354,2.2063,0.074,0.4771,0.309374,0.0,0.328,5.0,,,,,,7.38735,PASS,
30,s01_lqr_pitch_step,g000003_c4,3,,6.48265231431618,0.1936644800235588,1e-07,96.49476113184542,,,,,,,,,,3.532,5.1352,2.0901,0.078,0.4692,0.309314,0.0,0.33,5.0,,,,,,7.14605,PASS,
31,s01_lqr_pitch_step,g000003_c5,3,,12.041011290679034,0.16346346399861514,1e-07,100.0,,,,,,,,,,3.5324,5.1353,2.0853,0.076,0.4728,0.309332,0.0,0.332,5.0,,,,,,7.060675,PASS,
32,s01_lqr_pitch_step,g000003_c6,3,,1.7665847114910191,0.0018603443502371736,1e-07,100.0,,,,,,,,,,3.5328,5.1378,2.0697,0.07,0.4684,0.30928,0.0,0.332,5.0,,,,,,6.918225,PASS,
33,s01_lqr_pitch_step,g000003_c7,3,,0.2164704450855457,0.044821291354973425,0.00010803396082358043,1.0069873115628334,,,,,,,,,,3.7912,5.8209,2.0286,0.094,0.4074,0.310274,0.0,0.38,5.0,,,,,,10.10435,PASS,
34,s01_lqr_pitch_step,g000004_c0,4,,1.0852238903834872,0.15172926665433445,1e-07,100.0,,,,,,,,,,3.5345,5.1374,2.0587,0.074,0.4702,0.30954,0.0,0.338,5.0,,,,,,7.053925,PASS,
35,s01_lqr_pitch_step,g000004_c1,4,,0.08949050577624086,0.001,1.2793554046157027e-06,42.00184274836283,,,,,,,,,,3.5354,5.1368,2.1023,0.072,0.4832,0.309232,0.0,0.332,5.0,,,,,,6.991375,PASS,
36,s01_lqr_pitch_step,g000004_c2,4,,1.7482465311945543,0.001,2.6721743716125967e-07,100.0,,,,,,,,,,3.5325,5.135,2.0739,0.078,0.4726,0.30944,0.0,0.332,5.0,,,,,,7.117425,PASS,
37,s01_lqr_pitch_step,g000004_c3,4,,3.0732158396353393,0.0017546969857611522,8.978296834732981e-07,11.8485022136455,,,,,,,,,,3.5388,5.1389,2.0866,0.076,0.4732,0.309366,0.0,0.332,5.0,,,,,,7.140425,PASS,
38,s01_lqr_pitch_step,g000004_c4,4,,0.04031529464599828,0.002001281242700161,1.4334919062308866e-07,100.0,,,,,,,,,,3.5319,5.1386,2.1381,0.072,0.506,0.309261,0.0,0.332,5.0,,,,,,6.979225,PASS,
39,s01_lqr_pitch_step,g000004_c5,4,,8.502988833208027,0.001,5.408324365731718e-06,5.591740585638607,,,,,,,,,,3.5511,5.1505,2.4066,0.074,0.4968,0.309159,0.0,0.32,5.0,,,,,,7.553675,PASS,
40,s01_lqr_pitch_step,g000004_c6,4,,3.6697326946772293,0.00779301342971647,1.1436542269714696e-07,100.0,,,,,,,,,,3.5332,5.1354,2.0863,0.078,0.474,0.309362,0.0,0.332,5.0,,,,,,7.1158,PASS,
41,s01_lqr_pitch_step,g000004_c7,4,,15.505697522140387,0.0029802194871307516,1.0823789006511797e-05,100.0,,,,,,,,,,3.537,5.1395,2.223,0.076,0.4699,0.309251,0.0,0.326,5.0,,,,,,7.32605,PASS,
42,s01_lqr_pitch_step,g000005_c0,5,,10.622067295113148,0.021467442911200226,1e-07,97.26085162271718,,,,,,,,,,3.5341,5.1313,2.056,0.074,0.4698,0.309502,0.0,0.336,5.0,,,,,,7.002525,PASS,
43,s01_lqr_pitch_step,g000005_c1,5,,0.38589327242247456,0.013860293213283876,1e-07,9.706583418462168,,,,,,,,,,3.5351,5.1375,2.0944,0.08,0.475,0.309347,0.0,0.332,5.0,,,,,,7.17245,PASS,
44,s01_lqr_pitch_step,g000005_c2,5,,0.14580664426610704,0.0036062136761626663,7.352909229859393e-07,100.0,,,,,,,,,,3.5336,5.1354,2.0956,0.078,0.4686,0.309281,0.0,0.33,5.0,,,,,,7.15905,PASS,
45,s01_lqr_pitch_step,g000005_c3,5,,0.6312292303861776,0.0021735805214308543,1e-07,100.0,,,,,,,,,,3.5321,5.1334,2.1332,0.076,0.4993,0.309246,0.0,0.332,5.0,,,,,,7.037675,PASS,
46,s01_lqr_pitch_step,g000005_c4,5,,0.05377340091692154,0.09357897802535467,3.7201922262006814e-07,100.0,,,,,,,,,,3.5355,5.1373,2.0653,0.08,0.4733,0.309544,0.0,0.336,5.0,,,,,,7.264275,PASS,
47,s01_lqr_pitch_step,g000005_c5,5,,0.8329874187679905,0.0013418410555237972,1e-07,100.0,,,,,,,,,,3.5317,5.1398,2.0857,0.074,0.4749,0.309414,0.0,0.332,5.0,,,,,,7.126725,PASS,
48,s01_lqr_pitch_step,g000005_c6,5,,15.685278697796663,0.001,1e-07,12.294282661631252,,,,,,,,,,3.5298,5.1341,2.3307,0.07,0.4726,0.309223,0.0,0.322,5.0,,,,,,7.267175,PASS,
49,s01_lqr_pitch_step,g000005_c7,5,,0.4610522103911108,0.07593397955786892,4.0010880338106985e-07,14.574633822564977,,,,,,,,,,3.5355,5.1381,2.0589,0.07,0.4673,0.309254,0.0,0.332,5.0,,,,,,6.947725,PASS,
50,s01_lqr_pitch_step,g000006_c0,6,,5.9308664392464205,0.0014340265168654148,1e-07,100.0,,,,,,,,,,3.5351,5.1313,2.0382,0.074,0.4649,0.309331,0.0,0.336,5.0,,,,,,6.8502,PASS,
51,s01_lqr_pitch_step,g000006_c1,6,,0.02543140965220658,0.001,1.0083414759964697e-05,100.0,,,,,,,,,,3.5383,5.1391,2.0741,0.072,0.4678,0.309389,0.0,0.332,5.0,,,,,,7.136675,PASS,
52,s01_lqr_pitch_step,g000006_c2,6,,28.43852658635053,0.4132178149850165,1e-07,100.0,,,,,,,,,,3.5293,5.1326,2.1975,0.074,0.4714,0.309268,0.0,0.328,5.0,,,,,,7.2128,PASS,
53,s01_lqr_pitch_step,g000006_c3,6,,49.99999999999999,0.005114111304308011,1e-07,9.837029170787137,,,,,,,,,,3.5394,5.1421,2.1894,0.09,0.4711,0.309348,0.0,0.328,5.0,,,,,,8.37405,PASS,
54,s01_lqr_pitch_step,g000006_c4,6,,0.7059681209502924,0.01230198108839945,1e-07,100.0,,,,,,,,,,3.5327,5.1326,2.0989,0.072,0.4856,0.30928,0.0,0.334,5.0,,,,,,6.9834,PASS,
55,s01_lqr_pitch_step,g000006_c5,6,,1.538151746515704,0.027277722742584762,3.5781075370367784e-07,100.0,,,,,,,,,,3.5327,5.1343,2.1355,0.076,0.4948,0.309338,0.0,0.332,5.0,,,,,,7.0607,PASS,
56,s01_lqr_pitch_step,g000006_c6,6,,0.7102884581259459,0.001,3.845079268634388e-07,43.444254569869194,,,,,,,,,,3.5337,5.1386,2.1006,0.074,0.4746,0.309259,0.0,0.33,5.0,,,,,,7.100875,PASS,
57,s01_lqr_pitch_step,g000006_c7,6,,1.5531208365570492,0.009657359011466499,1e-07,100.0,,,,,,,,,,3.5318,5.1336,2.0602,0.07,0.468,0.3093,0.0,0.332,5.0,,,,,,6.960575,PASS,
58,s01_lqr_pitch_step,g000007_c0,7,,0.048408201540110433,0.025025609863681693,1.5619697106875308e-06,100.0,,,,,,,,,,3.5353,5.1352,2.0845,0.074,0.4693,0.309173,0.0,0.33,5.0,,,,,,7.0097,PASS,
59,s01_lqr_pitch_step,g000007_c1,7,,3.734794517000787,0.001,1e-07,100.0,,,,,,,,,,3.5347,5.1362,2.0633,0.078,0.4686,0.309277,0.0,0.332,5.0,,,,,,7.018425,PASS,
60,s01_lqr_pitch_step,g000007_c2,7,,0.6156335119654739,0.001,1e-07,30.9127940282036,,,,,,,,,,3.533,5.1338,2.0835,0.072,0.4746,0.3092,0.0,0.332,5.0,,,,,,6.93305,PASS,
61,s01_lqr_pitch_step,g000007_c3,7,,43.25208057317076,0.001535286691452701,6.767843559095803e-06,35.00229649787476,,,,,,,,,,3.5402,5.143,2.1797,0.072,0.4697,0.309215,0.0,0.328,5.0,,,,,,7.2561,PASS,
62,s01_lqr_pitch_step,g000007_c4,7,,16.49278269163952,0.002013107067622727,1e-07,100.0,,,,,,,,,,3.533,5.1347,2.09,0.072,0.4818,0.309228,0.0,0.334,5.0,,,,,,6.935825,PASS,
63,s01_lqr_pitch_step,g000007_c5,7,,49.99999999999999,0.0037615582776305643,1e-07,0.22145481393414082,,,,,,,,,,2.8716,5.0,1.1926,0.1,0.0,0.229897,0.0,5.0,0.268,,,,,,212.03255,FAIL,wheels off ground
64,s01_lqr_pitch_step,g000007_c6,7,,1.6030713595184827,0.06460100250404037,1.0487535464529493e-07,9.183754870762495,,,,,,,,,,3.5296,5.1387,2.2109,0.072,0.4783,0.309333,0.0,0.328,5.0,,,,,,7.2702,PASS,
65,s01_lqr_pitch_step,g000007_c7,7,,1.2328780873778746,0.001,1e-07,100.0,,,,,,,,,,3.5351,5.1327,2.1267,0.074,0.5057,0.309389,0.0,0.338,5.0,,,,,,6.843875,PASS,
66,s01_lqr_pitch_step,g000008_c0,8,,4.0605221811330185,0.001,4.81521423940805e-07,78.34108669703512,,,,,,,,,,3.5343,5.1361,2.0815,0.078,0.4687,0.309305,0.0,0.332,5.0,,,,,,7.103175,PASS,
67,s01_lqr_pitch_step,g000008_c1,8,,25.545931053771756,0.010883605112344751,4.5561146947920785e-07,0.36859292449120723,,,,,,,,,,2.77,5.0,0.637,0.1,0.0,0.132328,0.0,5.0,0.198,,,,,,208.355675,FAIL,wheels off ground
68,s01_lqr_pitch_step,g000008_c2,8,,14.066874569679591,0.001,1e-07,45.69197674533788,,,,,,,,,,3.5364,5.1352,2.0899,0.08,0.4857,0.309524,0.0,0.338,5.0,,,,,,7.11285,PASS,
69,s01_lqr_pitch_step,g000008_c3,8,,0.14472350409230264,0.001,6.870021570473668e-06,1.0308330462840258,,,,,,,,,,3.5851,5.2039,2.3937,0.082,0.4705,0.309195,0.0,0.316,5.0,,,,,,7.68065,PASS,
70,s01_lqr_pitch_step,g000008_c4,8,,1.0803840474582562,0.006438016652615268,1e-07,17.602839221916856,,,,,,,,,,3.5339,5.1369,2.0869,0.078,0.473,0.309424,0.0,0.332,5.0,,,,,,7.225825,PASS,
71,s01_lqr_pitch_step,g000008_c5,8,,0.5245961712442102,0.001,1.3957306667175896e-07,100.0,,,,,,,,,,3.5325,5.1354,2.1089,0.078,0.4759,0.309407,0.0,0.33,5.0,,,,,,7.224575,PASS,
72,s01_lqr_pitch_step,g000008_c6,8,,0.10330806687809549,0.001,1e-07,100.0,,,,,,,,,,3.5343,5.1335,2.0858,0.074,0.4835,0.309435,0.0,0.338,5.0,,,,,,6.884025,PASS,
73,s01_lqr_pitch_step,g000008_c7,8,,0.4021165561966272,0.009142059009590614,1e-07,5.373105326854203,,,,,,,,,,3.535,5.1326,2.0679,0.07,0.4717,0.309285,0.0,0.332,5.0,,,,,,6.9816,PASS,
74,s01_lqr_pitch_step,g000009_c0,9,,6.186043085913306,0.001,2.0992864296751766e-07,46.326112909431764,,,,,,,,,,3.5342,5.1387,2.0804,0.078,0.472,0.309404,0.0,0.332,5.0,,,,,,7.129325,PASS,
75,s01_lqr_pitch_step,g000009_c1,9,,49.99999999999999,0.0011198641882172059,6.997670479608086e-06,4.891264641695247,,,,,,,,,,3.5764,5.1661,2.3736,0.084,0.442,0.309466,0.0,0.356,5.0,,,,,,8.729675,PASS,
76,s01_lqr_pitch_step,g000009_c2,9,,18.134406545690073,0.02797716571807071,1.976001971397027e-07,100.0,,,,,,,,,,3.5366,5.1366,2.0809,0.078,0.4706,0.309542,0.0,0.338,5.0,,,,,,7.113875,PASS,
77,s01_lqr_pitch_step,g000009_c3,9,,0.08900675839666468,0.0020475760403117754,2.915502566893607e-07,100.0,,,,,,,,,,3.5366,5.1391,2.0578,0.074,0.4725,0.309322,0.0,0.336,5.0,,,,,,6.932675,PASS,
78,s01_lqr_pitch_step,g000009_c4,9,,4.732015128289608,0.001,1e-07,100.0,,,,,,,,,,3.5364,5.1364,2.0715,0.08,0.4708,0.309445,0.0,0.338,5.0,,,,,,7.021175,PASS,
79,s01_lqr_pitch_step,g000009_c5,9,,3.4707033046470905,0.001,1e-07,40.971396878757744,,,,,,,,,,3.5331,5.1333,2.063,0.07,0.4691,0.309263,0.0,0.332,5.0,,,,,,6.9196,PASS,
80,s01_lqr_pitch_step,g000009_c6,9,,49.99999999999999,0.06404849143437237,1e-07,100.0,,,,,,,,,,3.53,5.1337,2.249,0.074,0.4887,0.309197,0.0,0.326,5.0,,,,,,7.2348,PASS,
81,s01_lqr_pitch_step,g000009_c7,9,,35.23216701344552,0.001,1.6063509447146532e-07,61.96753526641688,,,,,,,,,,3.5293,5.1322,2.1995,0.074,0.4712,0.309218,0.0,0.326,5.0,,,,,,7.22625,PASS,
82,s01_lqr_pitch_step,g000010_c0,10,,1.0669981376737117,0.001,1.358234348075923e-07,100.0,,,,,,,,,,3.5325,5.1361,2.0752,0.072,0.4729,0.309411,0.0,0.332,5.0,,,,,,7.0897,PASS,
83,s01_lqr_pitch_step,g000010_c1,10,,0.08216141954988185,0.023126013017733076,1e-07,20.044926504196482,,,,,,,,,,3.537,5.1367,2.0572,0.078,0.4667,0.309352,0.0,0.338,5.0,,,,,,6.9358,PASS,
84,s01_lqr_pitch_step,g000010_c2,10,,49.99999999999999,0.001,1e-07,100.0,,,,,,,,,,3.5325,5.1346,2.0993,0.076,0.4853,0.309246,0.0,0.332,5.0,,,,,,7.10735,PASS,
85,s01_lqr_pitch_step,g000010_c3,10,,0.2385116066502343,0.001,1e-07,100.0,,,,,,,,,,3.53,5.1343,2.2051,0.076,0.4713,0.309266,0.0,0.326,5.0,,,,,,7.24225,PASS,
86,s01_lqr_pitch_step,g000010_c4,10,,49.99999999999999,0.0021977101497567385,9.402538237519198e-07,82.21416534772708,,,,,,,,,,3.5351,5.1341,2.0741,0.076,0.4697,0.309231,0.0,0.332,5.0,,,,,,7.15585,PASS,
87,s01_lqr_pitch_step,g000010_c5,10,,1.7749013576861064,0.001,1.2036201030919563e-07,100.0,,,,,,,,,,3.5317,5.1329,2.1036,0.072,0.4834,0.309223,0.0,0.332,5.0,,,,,,6.9332,PASS,
88,s01_lqr_pitch_step,g000010_c6,10,,2.3706938740958985,0.0032692162950416896,1e-07,42.42106866094926,,,,,,,,,,3.5363,5.137,2.126,0.074,0.5139,0.309436,0.0,0.338,5.0,,,,,,6.883175,PASS,
89,s01_lqr_pitch_step,g000010_c7,10,,7.880115244138796,0.001,1e-07,100.0,,,,,,,,,,3.5403,5.1386,2.1141,0.078,0.4618,0.30942,0.0,0.342,5.0,,,,,,6.802375,PASS,
90,s01_lqr_pitch_step,g000011_c0,11,,0.40498414111049985,0.012780001752383219,3.501618710721893e-07,11.939543309556822,,,,,,,,,,3.5337,5.1373,2.2156,0.076,0.4719,0.309194,0.0,0.326,5.0,,,,,,7.220875,PASS,
91,s01_lqr_pitch_step,g000011_c1,11,,49.99999999999999,0.002881042005683049,1e-07,31.435731358263666,,,,,,,,,,3.5302,5.1349,2.3476,0.074,0.4731,0.3092,0.0,0.322,5.0,,,,,,7.458125,PASS,
92,s01_lqr_pitch_step,g000011_c2,11,,1.8355246641392513,0.005434961617857766,1e-07,51.708129161485985,,,,,,,,,,3.5352,5.1349,2.058,0.074,0.4703,0.309459,0.0,0.338,5.0,,,,,,7.021325,PASS,
93,s01_lqr_pitch_step,g000011_c3,11,,49.99999999999999,0.001,2.538718685342676e-07,56.739393213937056,,,,,,,,,,3.5298,5.1341,2.3539,0.072,0.4787,0.309101,0.0,0.322,5.0,,,,,,7.3336,PASS,
94,s01_lqr_pitch_step,g000011_c4,11,,49.99999999999999,0.041148913522011665,3.5756368850010092e-06,100.0,,,,,,,,,,3.5326,5.1375,2.2913,0.074,0.532,0.30928,0.0,0.326,5.0,,,,,,7.3472,PASS,
95,s01_lqr_pitch_step,g000011_c5,11,,0.1399719389534025,0.001,1e-07,49.06145548087442,,,,,,,,,,3.5367,5.1384,2.0423,0.076,0.4639,0.309353,0.0,0.338,5.0,,,,,,6.91285,PASS,
96,s01_lqr_pitch_step,g000011_c6,11,,10.24354090690559,0.02972259631121952,6.486596893696848e-07,12.20696357127927,,,,,,,,,,3.5345,5.1373,2.2805,0.076,0.5251,0.309266,0.0,0.328,5.0,,,,,,7.3848,PASS,
97,s01_lqr_pitch_step,g000011_c7,11,,3.864515454564675,0.0025646098551188588,1e-07,100.0,,,,,,,,,,3.5339,5.1368,2.0554,0.072,0.4715,0.309431,0.0,0.336,5.0,,,,,,6.93295,PASS,
98,s01_lqr_pitch_step,g000012_c0,12,,2.2523466547075723,0.001234565113442822,5.387975289907353e-07,100.0,,,,,,,,,,3.5345,5.1366,2.0809,0.078,0.4726,0.309428,0.0,0.332,5.0,,,,,,7.2047,PASS,
99,s01_lqr_pitch_step,g000012_c1,12,,20.754008634752175,0.011827249169638449,1e-07,100.0,,,,,,,,,,3.5327,5.1338,2.0763,0.072,0.473,0.309232,0.0,0.332,5.0,,,,,,6.98785,PASS,
100,s01_lqr_pitch_step,g000012_c2,12,,0.34946484353531765,0.0015619563082083236,7.288114195450719e-07,100.0,,,,,,,,,,3.5337,5.1376,2.0731,0.072,0.4699,0.309368,0.0,0.332,5.0,,,,,,6.971025,PASS,
101,s01_lqr_pitch_step,g000012_c3,12,,0.09217320832013556,0.001,1e-07,100.0,,,,,,,,,,3.5354,5.1373,2.0661,0.072,0.4733,0.309478,0.0,0.338,5.0,,,,,,6.8569,PASS,
102,s01_lqr_pitch_step,g000012_c4,12,,49.99999999999999,0.006041575101472822,1e-07,59.29368052594447,,,,,,,,,,3.5312,5.1378,2.2061,0.078,0.4754,0.309387,0.0,0.328,5.0,,,,,,7.356675,PASS,
103,s01_lqr_pitch_step,g000012_c5,12,,19.72150330908841,0.001,1e-07,7.526213749006472,,,,,,,,,,3.5298,5.1341,2.3814,0.072,0.4846,0.309191,0.0,0.322,5.0,,,,,,7.590675,PASS,
104,s01_lqr_pitch_step,g000012_c6,12,,2.0349188006594607,0.001,1e-07,100.0,,,,,,,,,,3.5315,5.1351,2.1175,0.072,0.4927,0.309356,0.0,0.332,5.0,,,,,,7.0755,PASS,
105,s01_lqr_pitch_step,g000012_c7,12,,49.99999999999999,0.03583038305029153,1e-07,100.0,,,,,,,,,,3.5336,5.1343,2.1037,0.078,0.4879,0.309318,0.0,0.332,5.0,,,,,,7.10955,PASS,
106,s01_lqr_pitch_step,g000013_c0,13,,48.87613175577914,0.001,1e-07,6.066709816088298,,,,,,,,,,3.5439,5.1386,2.1671,0.094,0.5179,0.309408,0.0,0.33,5.0,,,,,,9.153275,PASS,
107,s01_lqr_pitch_step,g000013_c1,13,,16.621216252437552,0.0014009171444614172,8.730802279878685e-06,3.8730773340001936,,,,,,,,,,3.5674,5.1708,2.191,0.084,0.4618,0.309199,0.0,0.324,5.0,,,,,,8.185725,PASS,
108,s01_lqr_pitch_step,g000013_c2,13,,2.9125049183730405,0.01927987058470241,5.064573726255193e-07,100.0,,,,,,,,,,3.531,5.1376,2.215,0.074,0.4753,0.30931,0.0,0.328,5.0,,,,,,7.246975,PASS,
109,s01_lqr_pitch_step,g000013_c3,13,,3.0521554683191425,0.001,2.4277002511987852e-05,4.188547992700115,,,,,,,,,,3.5792,5.2004,2.354,0.074,0.468,0.309212,0.0,0.318,5.0,,,,,,7.515525,PASS,
110,s01_lqr_pitch_step,g000013_c4,13,,5.111368662158104,0.0013746467701645955,1e-07,4.873658474020411,,,,,,,,,,3.5313,5.1335,2.3582,0.07,0.4826,0.309193,0.0,0.324,5.0,,,,,,7.297675,PASS,
111,s01_lqr_pitch_step,g000013_c5,13,,0.9153736851908498,0.0021695639659372505,1e-07,100.0,,,,,,,,,,3.5322,5.1351,2.0754,0.072,0.4723,0.309426,0.0,0.332,5.0,,,,,,7.110025,PASS,
112,s01_lqr_pitch_step,g000013_c6,13,,49.99999999999999,0.0035038838549726723,4.282371060787685e-07,6.870520642916759,,,,,,,,,,3.5424,5.1533,2.127,0.088,0.4959,0.309239,0.0,0.328,5.0,,,,,,8.43,PASS,
113,s01_lqr_pitch_step,g000013_c7,13,,13.182441881439912,0.0028174193759658906,0.00010191087550141256,6.728279416673831,,,,,,,,,,3.6144,5.2559,2.2325,0.084,0.4659,0.309173,0.0,0.32,5.0,,,,,,8.215625,PASS,
114,s01_lqr_pitch_step,g000014_c0,14,,26.920255389858767,0.0010683739210570642,1e-07,100.0,,,,,,,,,,3.5333,5.1344,2.071,0.08,0.4689,0.309456,0.0,0.332,5.0,,,,,,7.159025,PASS,
115,s01_lqr_pitch_step,g000014_c1,14,,49.99999999999999,0.0025713995480928977,1e-07,59.172989258987656,,,,,,,,,,3.53,5.1324,2.226,0.076,0.4777,0.309375,0.0,0.326,5.0,,,,,,7.57835,PASS,
116,s01_lqr_pitch_step,g000014_c2,14,,3.257226578250012,0.077415830399657,1e-07,100.0,,,,,,,,,,3.535,5.1355,2.0514,0.078,0.4687,0.30941,0.0,0.336,5.0,,,,,,6.99865,PASS,
117,s01_lqr_pitch_step,g000014_c3,14,,49.99999999999999,0.14645335646074475,1.0039044633491094e-07,22.129842390966836,,,,,,,,,,3.5299,5.1367,2.354,0.074,0.4729,0.309186,0.0,0.322,5.0,,,,,,7.546925,PASS,
118,s01_lqr_pitch_step,g000014_c4,14,,33.86454834870198,0.001,4.2931563696383147e-07,92.4581015192246,,,,,,,,,,3.5342,5.1357,2.0741,0.078,0.4701,0.309484,0.0,0.332,5.0,,,,,,7.228375,PASS,
119,s01_lqr_pitch_step,g000014_c5,14,,0.07837153341892084,0.001,4.882949722828489e-07,100.0,,,,,,,,,,3.5326,5.134,2.089,0.076,0.4757,0.309425,0.0,0.332,5.0,,,,,,7.190225,PASS,
120,s01_lqr_pitch_step,g000014_c6,14,,39.8031572715839,0.001,5.401413855258458e-07,22.57086007044837,,,,,,,,,,3.5304,5.1386,2.3555,0.072,0.4799,0.309275,0.0,0.322,5.0,,,,,,7.7411,PASS,
121,s01_lqr_pitch_step,g000014_c7,14,,4.892531349349427,0.001369763549760861,2.785784519009247e-07,19.349282311880547,,,,,,,,,,3.5312,5.1347,2.2115,0.074,0.4798,0.309174,0.0,0.326,5.0,,,,,,7.18475,PASS,
122,s01_lqr_pitch_step,g000015_c0,15,,49.99999999999999,0.001,1e-07,10.070604329861577,,,,,,,,,,3.5357,5.1367,2.2663,0.082,0.4776,0.309158,0.0,0.324,5.0,,,,,,8.133075,PASS,
123,s01_lqr_pitch_step,g000015_c1,15,,47.20433781292373,0.0033748056916024106,1e-07,8.842630341817287,,,,,,,,,,3.5399,5.1363,2.1399,0.088,0.4633,0.309275,0.0,0.328,5.0,,,,,,8.36785,PASS,
124,s01_lqr_pitch_step,g000015_c2,15,,20.607614409728605,0.0021813912796504894,2.899566129753151e-07,34.285658035891956,,,,,,,,,,3.5309,5.1369,2.2193,0.076,0.4772,0.309248,0.0,0.326,5.0,,,,,,7.3165,PASS,
125,s01_lqr_pitch_step,g000015_c3,15,,49.99999999999999,0.001334242822216077,1e-07,25.868071701574976,,,,,,,,,,3.5301,5.1339,2.4114,0.074,0.4996,0.309246,0.0,0.322,5.0,,,,,,7.4247,PASS,
126,s01_lqr_pitch_step,g000015_c4,15,,3.3800642325520194,0.03924881673565464,1e-07,12.650008061649944,,,,,,,,,,3.5337,5.1349,2.0701,0.078,0.4716,0.309454,0.0,0.332,5.0,,,,,,7.253925,PASS,
127,s01_lqr_pitch_step,g000015_c5,15,,49.99999999999999,0.001,1.8004286436753125e-06,10.611795314990125,,,,,,,,,,3.5456,5.144,2.2156,0.088,0.483,0.309418,0.0,0.328,5.0,,,,,,8.531775,PASS,
128,s01_lqr_pitch_step,g000015_c6,15,,13.055955722925269,0.013471633529091793,4.0320306002246887e-07,100.0,,,,,,,,,,3.5342,5.1388,2.0967,0.076,0.4796,0.309228,0.0,0.332,5.0,,,,,,7.058125,PASS,
129,s01_lqr_pitch_step,g000015_c7,15,,4.957489815822319,0.0052707891986823975,4.7753968137451e-07,39.265914509421485,,,,,,,,,,3.5353,5.136,2.0715,0.078,0.4677,0.30924,0.0,0.332,5.0,,,,,,7.117275,PASS,
130,s01_lqr_pitch_step,g000016_c0,16,,5.028749022208597,0.001,1.254775989529336e-06,100.0,,,,,,,,,,3.5351,5.1383,2.1051,0.078,0.4802,0.309394,0.0,0.332,5.0,,,,,,7.12835,PASS,
131,s01_lqr_pitch_step,g000016_c1,16,,0.021040019214239983,0.001,1e-07,100.0,,,,,,,,,,3.5329,5.1337,2.1029,0.072,0.486,0.309302,0.0,0.332,5.0,,,,,,6.9486,PASS,
132,s01_lqr_pitch_step,g000016_c2,16,,49.99999999999999,0.001,1e-07,44.86805447063219,,,,,,,,,,3.5292,5.1346,2.217,0.072,0.4871,0.309303,0.0,0.328,5.0,,,,,,7.3373,PASS,
133,s01_lqr_pitch_step,g000016_c3,16,,49.99999999999999,0.001,7.0446326101512324e-06,100.0,,,,,,,,,,3.5384,5.1398,2.1549,0.078,0.5244,0.30931,0.0,0.332,5.0,,,,,,7.2159,PASS,
134,s01_lqr_pitch_step,g000016_c4,16,,4.387954497277804,0.03537853636803575,1e-07,79.82402210449011,,,,,,,,,,3.5329,5.1367,2.0914,0.078,0.4733,0.309452,0.0,0.332,5.0,,,,,,7.2031,PASS,
135,s01_lqr_pitch_step,g000016_c5,16,,1.6686465645757318,0.005689960948042983,1.833722577719815e-06,58.888436380392804,,,,,,,,,,3.5364,5.1346,2.0886,0.076,0.4803,0.309361,0.0,0.332,5.0,,,,,,7.012475,PASS,
136,s01_lqr_pitch_step,g000016_c6,16,,22.423076577870443,0.001,5.6524581588098416e-05,4.629323418348262,,,,,,,,,,3.6235,5.2361,2.0777,0.092,0.5384,0.309443,0.0,0.336,5.0,,,,,,9.122225,PASS,
137,s01_lqr_pitch_step,g000016_c7,16,,49.99999999999999,0.0018610663702956008,1e-07,100.0,,,,,,,,,,3.5327,5.1344,2.0982,0.076,0.488,0.309396,0.0,0.334,5.0,,,,,,7.190125,PASS,
138,s01_lqr_pitch_step,g000017_c0,17,,17.41202782319083,0.0016115476830702215,7.579960443995815e-07,82.96782907602496,,,,,,,,,,3.5349,5.1378,2.1093,0.076,0.4913,0.309352,0.0,0.332,5.0,,,,,,7.09255,PASS,
139,s01_lqr_pitch_step,g000017_c1,17,,4.455933201888204,0.001,1e-07,100.0,,,,,,,,,,3.5385,5.1321,2.1353,0.076,0.4668,0.309634,0.0,0.344,5.0,,,,,,6.799975,PASS,
140,s01_lqr_pitch_step,g000017_c2,17,,2.2303175202378265,0.001,7.409385256185718e-07,100.0,,,,,,,,,,3.5341,5.1361,2.0628,0.074,0.4687,0.309306,0.0,0.332,5.0,,,,,,7.030275,PASS,
141,s01_lqr_pitch_step,g000017_c3,17,,8.256294844044604,0.0032519448396826282,2.2721683452812011e-07,89.54977787988734,,,,,,,,,,3.5317,5.1348,2.1038,0.072,0.4783,0.309411,0.0,0.332,5.0,,,,,,7.145875,PASS,
142,s01_lqr_pitch_step,g000017_c4,17,,49.99999999999999,0.001,1.3091633504943584e-07,100.0,,,,,,,,,,3.5307,5.1396,2.1924,0.074,0.472,0.309201,0.0,0.328,5.0,,,,,,7.259875,PASS,
143,s01_lqr_pitch_step,g000017_c5,17,,0.7293419817946359,0.0030621113028431787,1e-07,13.908475249743796,,,,,,,,,,3.5335,5.1349,2.0893,0.076,0.4769,0.309262,0.0,0.332,5.0,,,,,,6.93805,PASS,
144,s01_lqr_pitch_step,g000017_c6,17,,19.912779549442305,0.0011537062305577003,3.7430736285343802e-06,58.63441946723335,,,,,,,,,,3.5373,5.1384,2.1212,0.076,0.488,0.309359,0.0,0.332,5.0,,,,,,7.182475,PASS,
145,s01_lqr_pitch_step,g000017_c7,17,,6.200689289721018,0.004339650673035621,5.376542634990818e-07,100.0,,,,,,,,,,3.5332,5.132,2.1344,0.072,0.5136,0.30928,0.0,0.334,5.0,,,,,,7.044425,PASS,
146,s01_lqr_pitch_step,g000018_c0,18,,0.12960711897560584,0.004347878359294217,1e-07,100.0,,,,,,,,,,3.5322,5.1349,2.098,0.072,0.4847,0.309392,0.0,0.332,5.0,,,,,,6.951975,PASS,
147,s01_lqr_pitch_step,g000018_c1,18,,7.415946937784966,0.020729042641656363,1e-07,100.0,,,,,,,,,,3.533,5.1348,2.063,0.076,0.4677,0.309263,0.0,0.332,5.0,,,,,,7.00935,PASS,
148,s01_lqr_pitch_step,g000018_c2,18,,4.138689090042597,0.001,1e-07,15.459606043330027,,,,,,,,,,3.53,5.1344,2.2552,0.072,0.4995,0.309223,0.0,0.328,5.0,,,,,,7.135375,PASS,
149,s01_lqr_pitch_step,g000018_c3,18,,9.428365100628666,0.001,1.9080421852533803e-07,16.010893514912887,,,,,,,,,,3.5356,5.1365,2.0555,0.078,0.4662,0.309346,0.0,0.332,5.0,,,,,,7.207875,PASS,
150,s01_lqr_pitch_step,g000018_c4,18,,19.010288693652196,0.001,1.0295143161581325e-06,100.0,,,,,,,,,,3.5337,5.1356,2.0728,0.072,0.4736,0.309391,0.0,0.334,5.0,,,,,,7.064075,PASS,
151,s01_lqr_pitch_step,g000018_c5,18,,2.058110943562846,0.001,1e-07,28.4604214636696,,,,,,,,,,3.5341,5.1372,2.0845,0.078,0.4694,0.309247,0.0,0.332,5.0,,,,,,7.10955,PASS,
152,s01_lqr_pitch_step,g000018_c6,18,,49.99999999999999,0.001,1.4441557164254143e-07,100.0,,,,,,,,,,3.5295,5.1352,2.2426,0.074,0.4924,0.309338,0.0,0.326,5.0,,,,,,7.3217,PASS,
153,s01_lqr_pitch_step,g000018_c7,18,,15.018469713917668,0.0011666511322700494,1e-07,100.0,,,,,,,,,,3.5358,5.1359,2.0507,0.078,0.467,0.30947,0.0,0.338,5.0,,,,,,7.037625,PASS,
154,s01_lqr_pitch_step,g000019_c0,19,,0.8924554830650258,0.00919948122829204,1.0132866100591304e-07,26.739008420539378,,,,,,,,,,3.5318,5.1377,2.0964,0.07,0.4773,0.309329,0.0,0.332,5.0,,,,,,6.926375,PASS,
155,s01_lqr_pitch_step,g000019_c1,19,,13.927087056581456,0.001,1e-07,62.117731596628666,,,,,,,,,,3.5322,5.1329,2.0687,0.072,0.4682,0.309338,0.0,0.332,5.0,,,,,,7.108875,PASS,
156,s01_lqr_pitch_step,g000019_c2,19,,0.1595074891703425,0.001,2.5693330497098254e-07,34.13564964378653,,,,,,,,,,3.5338,5.1339,2.0795,0.072,0.4707,0.309256,0.0,0.332,5.0,,,,,,6.97655,PASS,
157,s01_lqr_pitch_step,g000019_c3,19,,18.619918104970235,0.005519416440453787,1e-07,100.0,,,,,,,,,,3.532,5.136,2.0979,0.072,0.487,0.309358,0.0,0.334,5.0,,,,,,6.959875,PASS,
158,s01_lqr_pitch_step,g000019_c4,19,,1.7115218611094765,0.0036524557573186706,1.0795715489588414e-07,53.78718336647943,,,,,,,,,,3.537,5.1368,2.0491,0.08,0.4644,0.30945,0.0,0.338,5.0,,,,,,6.905875,PASS,
159,s01_lqr_pitch_step,g000019_c5,19,,1.6512843710938776,0.005585880955541295,1e-07,100.0,,,,,,,,,,3.5288,5.133,2.2153,0.074,0.477,0.309358,0.0,0.328,5.0,,,,,,7.2771,PASS,
160,s01_lqr_pitch_step,g000019_c6,19,,2.4189541221154305,0.0017495459518840509,2.2171368436834158e-07,100.0,,,,,,,,,,3.5298,5.1365,2.2302,0.072,0.4841,0.309181,0.0,0.328,5.0,,,,,,7.11695,PASS,
161,s01_lqr_pitch_step,g000019_c7,19,,20.8018631204149,0.001,2.826914765159036e-06,100.0,,,,,,,,,,3.5368,5.1362,2.0729,0.078,0.4743,0.309351,0.0,0.332,5.0,,,,,,7.1343,PASS,
162,s01_lqr_pitch_step,g000020_c0,20,,7.279887199043572,0.001,1e-07,39.82673636055155,,,,,,,,,,3.5332,5.1347,2.1088,0.07,0.4834,0.309264,0.0,0.332,5.0,,,,,,6.959325,PASS,
163,s01_lqr_pitch_step,g000020_c1,20,,2.7901418460601692,0.001,2.590248841466593e-07,21.468820097914183,,,,,,,,,,3.5376,5.1382,2.0708,0.078,0.4758,0.309499,0.0,0.338,5.0,,,,,,6.975925,PASS,
164,s01_lqr_pitch_step,g000020_c2,20,,23.353581115999773,0.0017555842004542163,1e-07,76.19228494444026,,,,,,,,,,3.5368,5.1381,2.0807,0.08,0.4795,0.309369,0.0,0.338,5.0,,,,,,7.041675,PASS,
165,s01_lqr_pitch_step,g000020_c3,20,,2.06171512569679,0.001,1e-07,81.47414701871136,,,,,,,,,,3.5321,5.1356,2.095,0.072,0.4741,0.309259,0.0,0.332,5.0,,,,,,6.948825,PASS,
166,s01_lqr_pitch_step,g000020_c4,20,,2.643427936706463,0.0013036566277179703,1e-07,27.06421281167384,,,,,,,,,,3.5339,5.133,2.1236,0.076,0.4934,0.309297,0.0,0.332,5.0,,,,,,7.083825,PASS,
167,s01_lqr_pitch_step,g000020_c5,20,,1.5156933006550646,0.0012187406208899031,1.86348915361359e-07,84.69158321395552,,,,,,,,,,3.5317,5.1355,2.2256,0.078,0.473,0.309262,0.0,0.326,5.0,,,,,,7.22325,PASS,
168,s01_lqr_pitch_step,g000020_c6,20,,13.710790628655882,0.001,1e-07,100.0,,,,,,,,,,3.5337,5.1346,2.059,0.076,0.4677,0.309276,0.0,0.332,5.0,,,,,,7.003525,PASS,
169,s01_lqr_pitch_step,g000020_c7,20,,36.57220100858854,0.001,1e-07,81.94193978751687,,,,,,,,,,3.5315,5.1337,2.0915,0.072,0.4805,0.309407,0.0,0.332,5.0,,,,,,7.05185,PASS,
170,s01_lqr_pitch_step,g000021_c0,21,,2.280853580733761,0.001,1.2298799499709642e-07,42.636888513518386,,,,,,,,,,3.5334,5.1336,2.0568,0.074,0.4676,0.309305,0.0,0.334,5.0,,,,,,6.98725,PASS,
171,s01_lqr_pitch_step,g000021_c1,21,,11.197395098234107,0.001,1.0512740043167764e-07,34.47191196665923,,,,,,,,,,3.5342,5.1354,2.0714,0.08,0.468,0.309339,0.0,0.332,5.0,,,,,,7.187175,PASS,
172,s01_lqr_pitch_step,g000021_c2,21,,3.270379465809363,0.0016621176731823365,2.3491051950732796e-07,100.0,,,,,,,,,,3.5352,5.1373,2.0532,0.074,0.4694,0.309395,0.0,0.336,5.0,,,,,,6.955225,PASS,
173,s01_lqr_pitch_step,g000021_c3,21,,13.81396921612591,0.001,5.764923489488391e-07,100.0,,,,,,,,,,3.5341,5.1386,2.08,0.076,0.4725,0.309461,0.0,0.332,5.0,,,,,,7.17815,PASS,
174,s01_lqr_pitch_step,g000021_c4,21,,2.390039522602086,0.001,1e-07,55.23704685226929,,,,,,,,,,3.5359,5.1366,2.0376,0.078,0.4641,0.30939,0.0,0.336,5.0,,,,,,6.925675,PASS,
175,s01_lqr_pitch_step,g000021_c5,21,,8.483352168079085,0.0011126308289050517,1e-07,94.30596819984207,,,,,,,,,,3.5308,5.1333,2.1111,0.074,0.4747,0.309364,0.0,0.33,5.0,,,,,,7.2013,PASS,
176,s01_lqr_pitch_step,g000021_c6,21,,2.6476362466459014,0.001,1e-07,94.30810718623287,,,,,,,,,,3.5385,5.1376,2.1223,0.076,0.4748,0.309454,0.0,0.342,5.0,,,,,,6.78205,PASS,
177,s01_lqr_pitch_step,g000021_c7,21,,11.241112671523979,0.0028095431998394317,1.412678663638383e-07,70.26378729559715,,,,,,,,,,3.5311,5.1323,2.1528,0.072,0.5051,0.309314,0.0,0.332,5.0,,,,,,7.082275,PASS,
178,s01_lqr_pitch_step,g000022_c0,22,,2.037995829660738,0.0011544325776947867,1.2912592713663858e-07,100.0,,,,,,,,,,3.5324,5.1377,2.0946,0.072,0.4744,0.309401,0.0,0.332,5.0,,,,,,7.173325,PASS,
179,s01_lqr_pitch_step,g000022_c1,22,,5.39498093651936,0.001,1e-07,38.93347717871184,,,,,,,,,,3.5323,5.1357,2.1113,0.074,0.4899,0.309384,0.0,0.332,5.0,,,,,,7.077225,PASS,
180,s01_lqr_pitch_step,g000022_c2,22,,3.0808853111212295,0.0029154245236878884,1.1042828726328252e-07,100.0,,,,,,,,,,3.5358,5.1377,2.0653,0.074,0.4758,0.309313,0.0,0.336,5.0,,,,,,6.8647,PASS,
181,s01_lqr_pitch_step,g000022_c3,22,,2.1998231384825875,0.001,1.0096083648049242e-07,100.0,,,,,,,,,,3.5329,5.1362,2.0818,0.076,0.4735,0.309432,0.0,0.332,5.0,,,,,,7.131025,PASS,
182,s01_lqr_pitch_step,g000022_c4,22,,0.94097333597232,0.0012261619527666392,1e-07,98.61782151563675,,,,,,,,,,3.5364,5.1358,2.0508,0.074,0.4637,0.309419,0.0,0.338,5.0,,,,,,6.7806,PASS,
183,s01_lqr_pitch_step,g000022_c5,22,,2.8703744598594483,0.001,3.06000665048991e-07,100.0,,,,,,,,,,3.5363,5.1352,2.0658,0.076,0.4739,0.309328,0.0,0.336,5.0,,,,,,6.904175,PASS,
184,s01_lqr_pitch_step,g000022_c6,22,,5.627914014303466,0.001,1.7541941628610162e-07,71.84946294429251,,,,,,,,,,3.5381,5.1362,2.0874,0.078,0.4648,0.30961,0.0,0.34,5.0,,,,,,6.94445,PASS,
185,s01_lqr_pitch_step,g000022_c7,22,,2.0554382013595838,0.001,1e-07,100.0,,,,,,,,,,3.5283,5.1369,2.2124,0.072,0.4804,0.309344,0.0,0.328,5.0,,,,,,7.209975,PASS,
186,s01_lqr_pitch_step,g000023_c0,23,,0.7049769764927611,0.001,1e-07,69.07137168480031,,,,,,,,,,3.5354,5.136,2.0827,0.078,0.4834,0.309338,0.0,0.336,5.0,,,,,,7.0247,PASS,
187,s01_lqr_pitch_step,g000023_c1,23,,1.9152654055467837,0.001,1e-07,100.0,,,,,,,,,,3.5368,5.1369,2.0831,0.078,0.4834,0.309312,0.0,0.336,5.0,,,,,,7.03205,PASS,
188,s01_lqr_pitch_step,g000023_c2,23,,0.4529166531960524,0.002722593541852351,1e-07,100.0,,,,,,,,,,3.5366,5.1367,2.04,0.08,0.4638,0.30937,0.0,0.336,5.0,,,,,,6.9825,PASS,
189,s01_lqr_pitch_step,g000023_c3,23,,2.367429898677123,0.013641685258965724,2.1135859393728318e-07,62.59579970166419,,,,,,,,,,3.5364,5.1394,2.0637,0.08,0.4695,0.309529,0.0,0.338,5.0,,,,,,7.137175,PASS,
190,s01_lqr_pitch_step,g000023_c4,23,,0.32676453644323133,0.00808521843822158,1e-07,100.0,,,,,,,,,,3.5337,5.1377,2.0669,0.078,0.4675,0.309293,0.0,0.332,5.0,,,,,,7.05845,PASS,
191,s01_lqr_pitch_step,g000023_c5,23,,0.4896317262695797,0.001,1e-07,85.35547919609766,,,,,,,,,,3.5325,5.1343,2.1167,0.072,0.4912,0.309366,0.0,0.332,5.0,,,,,,7.03225,PASS,
192,s01_lqr_pitch_step,g000023_c6,23,,0.5047231457668473,0.001,1e-07,98.88458077585717,,,,,,,,,,3.5328,5.135,2.1351,0.076,0.5013,0.309303,0.0,0.332,5.0,,,,,,7.14155,PASS,
193,s01_lqr_pitch_step,g000023_c7,23,,2.000190142742989,0.0013621429615471646,1e-07,14.028507619351938,,,,,,,,,,3.5343,5.1373,2.0952,0.078,0.4757,0.309202,0.0,0.332,5.0,,,,,,7.03085,PASS,
194,s01_lqr_pitch_step,g000024_c0,24,,1.4645744046118834,0.008530080564312847,1e-07,30.74382956385347,,,,,,,,,,3.5325,5.1337,2.098,0.078,0.4687,0.309352,0.0,0.33,5.0,,,,,,7.104575,PASS,
195,s01_lqr_pitch_step,g000024_c1,24,,1.0114857333479137,0.0016257810870233089,1e-07,100.0,,,,,,,,,,3.532,5.1347,2.0958,0.076,0.4779,0.309403,0.0,0.332,5.0,,,,,,7.1926,PASS,
196,s01_lqr_pitch_step,g000024_c2,24,,1.0946718954496586,0.001,1e-07,100.0,,,,,,,,,,3.5364,5.1347,2.0436,0.078,0.4656,0.30942,0.0,0.338,5.0,,,,,,6.96855,PASS,
197,s01_lqr_pitch_step,g000024_c3,24,,0.5871113368549268,0.001,1.67715693050027e-07,83.2518132979344,,,,,,,,,,3.5322,5.1336,2.0776,0.07,0.4736,0.309376,0.0,0.332,5.0,,,,,,7.030775,PASS,
198,s01_lqr_pitch_step,g000024_c4,24,,0.47264679705067586,0.001,1e-07,56.27954897046691,,,,,,,,,,3.5356,5.1384,2.0414,0.074,0.4646,0.309384,0.0,0.338,5.0,,,,,,6.821225,PASS,
199,s01_lqr_pitch_step,g000024_c5,24,,1.0449866836398154,0.0015038336187073245,1e-07,100.0,,,,,,,,,,3.5335,5.1371,2.1482,0.078,0.5084,0.309325,0.0,0.332,5.0,,,,,,7.0729,PASS,
200,s01_lqr_pitch_step,g000024_c6,24,,0.356432274332999,0.001,1e-07,59.14914460545574,,,,,,,,,,3.5322,5.1357,2.0857,0.076,0.4707,0.30928,0.0,0.332,5.0,,,,,,7.08525,PASS,
201,s01_lqr_pitch_step,g000024_c7,24,,0.4063670896234678,0.00121955117091553,1e-07,100.0,,,,,,,,,,3.5338,5.1351,2.0796,0.078,0.472,0.309242,0.0,0.332,5.0,,,,,,7.074025,PASS,
202,s01_lqr_pitch_step,g000025_c0,25,,0.28593863758686927,0.001,1e-07,100.0,,,,,,,,,,3.5311,5.1344,2.1306,0.072,0.4912,0.309363,0.0,0.332,5.0,,,,,,7.02455,PASS,
203,s01_lqr_pitch_step,g000025_c1,25,,1.4770636248431481,0.001,1e-07,100.0,,,,,,,,,,3.5365,5.135,2.051,0.08,0.4636,0.309452,0.0,0.338,5.0,,,,,,6.954,PASS,
204,s01_lqr_pitch_step,g000025_c2,25,,0.1207612571088203,0.001,1e-07,100.0,,,,,,,,,,3.5312,5.1354,2.1175,0.078,0.4873,0.309383,0.0,0.332,5.0,,,,,,7.147225,PASS,
205,s01_lqr_pitch_step,g000025_c3,25,,2.459609846394197,0.0032658661400927495,6.44782200458706e-07,100.0,,,,,,,,,,3.5367,5.1361,2.0502,0.076,0.4689,0.309298,0.0,0.336,5.0,,,,,,7.053275,PASS,
206,s01_lqr_pitch_step,g000025_c4,25,,3.3958075968802843,0.0026275122958170916,1.0100816259483691e-07,28.70098591089957,,,,,,,,,,3.537,5.1322,2.0523,0.08,0.4685,0.309323,0.0,0.336,5.0,,,,,,7.02635,PASS,
207,s01_lqr_pitch_step,g000025_c5,25,,0.3791788843439179,0.001,3.902049253829723e-07,62.35729339525538,,,,,,,,,,3.537,5.1376,2.0547,0.078,0.4694,0.309518,0.0,0.338,5.0,,,,,,7.08475,PASS,
208,s01_lqr_pitch_step,g000025_c6,25,,3.581395913825786,0.001,1e-07,51.35344193260472,,,,,,,,,,3.5322,5.1315,2.0708,0.076,0.4699,0.309396,0.0,0.332,5.0,,,,,,7.13015,PASS,
209,s01_lqr_pitch_step,g000025_c7,25,,1.0353863098080738,0.005329086322649989,1e-07,100.0,,,,,,,,,,3.5329,5.134,2.0867,0.076,0.4778,0.309421,0.0,0.334,5.0,,,,,,7.164475,PASS,
210,s01_lqr_pitch_step,g000026_c0,26,,2.3337323189853887,0.001,1.2811800158186511e-07,14.970718829696793,,,,,,,,,,3.5367,5.133,2.066,0.076,0.4736,0.309478,0.0,0.336,5.0,,,,,,7.0027,PASS,
211,s01_lqr_pitch_step,g000026_c1,26,,26.74799193044985,0.001,5.581564734810337e-07,100.0,,,,,,,,,,3.5376,5.1358,2.0413,0.08,0.4634,0.309439,0.0,0.338,5.0,,,,,,6.964575,PASS,
212,s01_lqr_pitch_step,g000026_c2,26,,0.5405363686003143,0.0020111353469355895,1e-07,100.0,,,,,,,,,,3.5349,5.1348,2.0375,0.072,0.4655,0.309321,0.0,0.336,5.0,,,,,,6.84055,PASS,
213,s01_lqr_pitch_step,g000026_c3,26,,0.2144671180016556,0.001,1e-07,100.0,,,,,,,,,,3.5363,5.1363,2.0812,0.074,0.4798,0.309346,0.0,0.338,5.0,,,,,,6.79245,PASS,
214,s01_lqr_pitch_step,g000026_c4,26,,0.46218965386916744,0.008740097536866134,1e-07,29.026395933560433,,,,,,,,,,3.5341,5.1392,2.0726,0.078,0.4719,0.309282,0.0,0.332,5.0,,,,,,7.1045,PASS,
215,s01_lqr_pitch_step,g000026_c5,26,,0.5729853814822069,0.001,1e-07,36.713013024449964,,,,,,,,,,3.5365,5.1355,2.0961,0.08,0.4875,0.309523,0.0,0.338,5.0,,,,,,7.00485,PASS,
216,s01_lqr_pitch_step,g000026_c6,26,,10.327373094594353,0.005776992563368008,1e-07,37.851460837374894,,,,,,,,,,3.5335,5.1376,2.0823,0.078,0.4779,0.309396,0.0,0.332,5.0,,,,,,7.1653,PASS,
217,s01_lqr_pitch_step,g000026_c7,26,,1.619749232753956,0.001,1.407828227095547e-06,34.67043985008192,,,,,,,,,,3.5409,5.1337,2.0539,0.08,0.468,0.30935,0.0,0.338,5.0,,,,,,6.93825,PASS,
218,s01_lqr_pitch_step,g000027_c0,27,,0.22406250687080184,0.003382140234111883,1.8058057734852605e-07,79.37890768817977,,,,,,,,,,3.5362,5.1362,2.0522,0.078,0.4675,0.309483,0.0,0.338,5.0,,,,,,6.97685,PASS,
219,s01_lqr_pitch_step,g000027_c1,27,,14.56960910123723,0.0014563330341657008,2.272255289934135e-07,100.0,,,,,,,,,,3.5335,5.1335,2.0979,0.072,0.482,0.309203,0.0,0.332,5.0,,,,,,6.95435,PASS,
220,s01_lqr_pitch_step,g000027_c2,27,,0.10389336902183051,0.0011049610697574633,1.1801817958551652e-07,10.971665231129277,,,,,,,,,,3.5316,5.1367,2.1908,0.072,0.473,0.309289,0.0,0.328,5.0,,,,,,7.16085,PASS,
221,s01_lqr_pitch_step,g000027_c3,27,,23.394886746373924,0.001,1e-07,100.0,,,,,,,,,,3.5325,5.1329,2.1472,0.076,0.5184,0.309352,0.0,0.332,5.0,,,,,,7.129225,PASS,
222,s01_lqr_pitch_step,g000027_c4,27,,0.9538215029466375,0.001,1e-07,27.241390988240866,,,,,,,,,,3.5365,5.1398,2.0553,0.08,0.4692,0.309539,0.0,0.336,5.0,,,,,,7.150075,PASS,
223,s01_lqr_pitch_step,g000027_c5,27,,0.5192332120840931,0.001,1e-07,88.95961503599734,,,,,,,,,,3.5339,5.1337,2.0563,0.072,0.4713,0.309469,0.0,0.336,5.0,,,,,,7.044275,PASS,
224,s01_lqr_pitch_step,g000027_c6,27,,0.01,0.0024339367595790536,8.145037691949112e-07,100.0,,,,,,,,,,3.5358,5.1357,2.0407,0.074,0.4659,0.309404,0.0,0.336,5.0,,,,,,6.951975,PASS,
225,s01_lqr_pitch_step,g000027_c7,27,,0.019767244800247493,0.001,2.7918975204937964e-07,100.0,,,,,,,,,,3.5334,5.1368,2.0728,0.078,0.4723,0.309443,0.0,0.332,5.0,,,,,,7.158525,PASS,
226,s01_lqr_pitch_step,g000028_c0,28,,0.6533001741907585,0.006234529606178176,1.1630568714008592e-07,100.0,,,,,,,,,,3.5325,5.1387,2.0891,0.078,0.4735,0.309417,0.0,0.332,5.0,,,,,,7.298625,PASS,
227,s01_lqr_pitch_step,g000028_c1,28,,0.8045370948525639,0.001697093618556952,2.169763365111439e-07,100.0,,,,,,,,,,3.5317,5.134,2.1175,0.07,0.4926,0.309404,0.0,0.332,5.0,,,,,,7.034375,PASS,
228,s01_lqr_pitch_step,g000028_c2,28,,0.19411873166878443,0.001,1e-07,25.86865798770211,,,,,,,,,,3.5374,5.1336,2.0779,0.08,0.4735,0.309528,0.0,0.338,5.0,,,,,,7.155875,PASS,
229,s01_lqr_pitch_step,g000028_c3,28,,1.732114776144447,0.001,1e-07,100.0,,,,,,,,,,3.5343,5.1332,2.0626,0.074,0.4742,0.309345,0.0,0.336,5.0,,,,,,6.95075,PASS,
230,s01_lqr_pitch_step,g000028_c4,28,,0.30769412083617104,0.001,1e-07,100.0,,,,,,,,,,3.5336,5.1339,2.1,0.076,0.4807,0.309234,0.0,0.332,5.0,,,,,,7.02455,PASS,
231,s01_lqr_pitch_step,g000028_c5,28,,0.05215748933453179,0.001,3.8971047781704184e-07,100.0,,,,,,,,,,3.534,5.1377,2.1082,0.076,0.4821,0.309246,0.0,0.332,5.0,,,,,,7.067275,PASS,
232,s01_lqr_pitch_step,g000028_c6,28,,2.9210604071025266,0.002662219887804455,1e-07,24.385522137170806,,,,,,,,,,3.5324,5.1387,2.0661,0.072,0.4686,0.309267,0.0,0.332,5.0,,,,,,6.964425,PASS,
233,s01_lqr_pitch_step,g000028_c7,28,,1.819704317258023,0.0048484657937356325,1.840139403191619e-07,8.245347206007024,,,,,,,,,,3.5328,5.1369,2.1998,0.072,0.4696,0.30921,0.0,0.326,5.0,,,,,,7.206725,PASS,
234,s01_lqr_pitch_step,g000029_c0,29,,4.668565862391422,0.001,1.0048231659915976e-07,99.4792259902651,,,,,,,,,,3.5324,5.1329,2.0829,0.076,0.4718,0.309261,0.0,0.332,5.0,,,,,,7.08925,PASS,
235,s01_lqr_pitch_step,g000029_c1,29,,0.35538712814106294,0.005019385133094081,1.626285453689489e-06,100.0,,,,,,,,,,3.5378,5.135,2.0454,0.076,0.4645,0.309448,0.0,0.338,5.0,,,,,,7.019725,PASS,
236,s01_lqr_pitch_step,g000029_c2,29,,1.108594638736318,0.001,1.0742983819439375e-06,100.0,,,,,,,,,,3.5373,5.1357,2.0456,0.08,0.4667,0.309353,0.0,0.336,5.0,,,,,,6.964925,PASS,
237,s01_lqr_pitch_step,g000029_c3,29,,0.5594034194566859,0.0027021272884918774,1e-07,90.4660125758172,,,,,,,,,,3.5332,5.1366,2.0552,0.076,0.4675,0.309391,0.0,0.334,5.0,,,,,,7.03795,PASS,
238,s01_lqr_pitch_step,g000029_c4,29,,0.7261480177658823,0.0036178749088542623,4.778280185120734e-07,100.0,,,,,,,,,,3.5335,5.135,2.0809,0.072,0.4691,0.309337,0.0,0.332,5.0,,,,,,6.97765,PASS,
239,s01_lqr_pitch_step,g000029_c5,29,,0.05204186226841822,0.002779517456784642,2.0144339160232002e-07,8.32494481984535,,,,,,,,,,3.5389,5.1407,2.0858,0.074,0.4872,0.309336,0.0,0.336,5.0,,,,,,6.917325,PASS,
240,s01_lqr_pitch_step,g000029_c6,29,,0.40961070063984295,0.0023458176448630133,1e-07,100.0,,,,,,,,,,3.5332,5.1377,2.0675,0.07,0.4707,0.309229,0.0,0.332,5.0,,,,,,6.931075,PASS,
241,s01_lqr_pitch_step,g000029_c7,29,,17.74442445109287,0.001,2.295031409540221e-07,100.0,,,,,,,,,,3.5337,5.1346,2.074,0.072,0.4716,0.309222,0.0,0.332,5.0,,,,,,7.031425,PASS,
242,s01_lqr_pitch_step,g000030_c0,30,,1.8138079484259355,0.0018883247501121022,1e-07,37.541551182776466,,,,,,,,,,3.5332,5.1356,2.1223,0.078,0.4917,0.309385,0.0,0.332,5.0,,,,,,7.093575,PASS,
243,s01_lqr_pitch_step,g000030_c1,30,,0.41570973447395865,0.001,1.0239977163713845e-07,61.6870656014259,,,,,,,,,,3.5324,5.1332,2.0788,0.074,0.4709,0.309417,0.0,0.332,5.0,,,,,,7.12145,PASS,
244,s01_lqr_pitch_step,g000030_c2,30,,0.226997366742474,0.0018444985133534533,1.1544153296034044e-07,100.0,,,,,,,,,,3.5344,5.1348,2.0659,0.078,0.4665,0.309237,0.0,0.332,5.0,,,,,,7.086375,PASS,
245,s01_lqr_pitch_step,g000030_c3,30,,1.8596798905954826,0.0023996082560060828,1e-07,75.30850039399417,,,,,,,,,,3.5328,5.1375,2.14,0.078,0.5029,0.309319,0.0,0.332,5.0,,,,,,7.128075,PASS,
246,s01_lqr_pitch_step,g000030_c4,30,,5.704965540910684,0.004648932937298092,1e-07,79.41272238070522,,,,,,,,,,3.5326,5.1386,2.0783,0.076,0.4689,0.309351,0.0,0.332,5.0,,,,,,7.094125,PASS,
247,s01_lqr_pitch_step,g000030_c5,30,,0.21944370492997037,0.001,8.240278584696466e-07,92.64988705520238,,,,,,,,,,3.533,5.137,2.0825,0.07,0.4709,0.309369,0.0,0.332,5.0,,,,,,7.00175,PASS,
248,s01_lqr_pitch_step,g000030_c6,30,,0.692563248015464,0.001,4.475983863944313e-07,12.88795085571405,,,,,,,,,,3.5392,5.1374,2.0503,0.074,0.4663,0.309455,0.0,0.338,5.0,,,,,,6.892475,PASS,
249,s01_lqr_pitch_step,g000030_c7,30,,5.634459420527684,0.005592733840612183,2.617486741008626e-07,100.0,,,,,,,,,,3.5323,5.1354,2.086,0.072,0.4756,0.309256,0.0,0.332,5.0,,,,,,6.9028,PASS,
250,s01_lqr_pitch_step,g000031_c0,31,,0.8302111615112818,0.001,1.0676451953091119e-07,100.0,,,,,,,,,,3.5325,5.1357,2.0897,0.07,0.4758,0.309283,0.0,0.332,5.0,,,,,,6.985775,PASS,
251,s01_lqr_pitch_step,g000031_c1,31,,1.0031022693991005,0.002397765766602236,1e-07,40.420053074679736,,,,,,,,,,3.5333,5.1324,2.0757,0.076,0.4711,0.309266,0.0,0.332,5.0,,,,,,7.0643,PASS,
252,s01_lqr_pitch_step,g000031_c2,31,,1.1354394798199752,0.001,3.47009813940167e-07,48.660045730827534,,,,,,,,,,3.5333,5.1361,2.1192,0.072,0.4832,0.309286,0.0,0.332,5.0,,,,,,7.04165,PASS,
253,s01_lqr_pitch_step,g000031_c3,31,,0.23912251331140605,0.0031006776701710294,1e-07,35.253710201227186,,,,,,,,,,3.5331,5.1359,2.0795,0.076,0.471,0.309433,0.0,0.332,5.0,,,,,,7.152475,PASS,
254,s01_lqr_pitch_step,g000031_c4,31,,2.4357689856296005,0.0011641922442250483,2.0225801696921045e-07,17.818842485084332,,,,,,,,,,3.5341,5.135,2.0787,0.076,0.4727,0.309366,0.0,0.332,5.0,,,,,,7.079075,PASS,
255,s01_lqr_pitch_step,g000031_c5,31,,1.2255951111478232,0.001,1.4619312350025656e-07,64.06486880827494,,,,,,,,,,3.532,5.1363,2.0944,0.074,0.4737,0.309416,0.0,0.332,5.0,,,,,,7.111025,PASS,
256,s01_lqr_pitch_step,g000031_c6,31,,0.5692770667480596,0.001514812030979717,1e-07,100.0,,,,,,,,,,3.535,5.1347,2.042,0.074,0.4662,0.309356,0.0,0.336,5.0,,,,,,6.85895,PASS,
257,s01_lqr_pitch_step,g000031_c7,31,,1.0818462652367118,0.0013025960233941064,1e-07,16.17600791438584,,,,,,,,,,3.5304,5.1349,2.191,0.072,0.4706,0.30921,0.0,0.328,5.0,,,,,,7.15205,PASS,
258,s01_lqr_pitch_step,g000032_c0,32,,0.5180891712530056,0.001,3.486763307161331e-07,100.0,,,,,,,,,,3.5322,5.1366,2.091,0.074,0.4689,0.309287,0.0,0.33,5.0,,,,,,7.0403,PASS,
259,s01_lqr_pitch_step,g000032_c1,32,,1.943722939665583,0.002329413170304576,1e-07,100.0,,,,,,,,,,3.5315,5.1365,2.12,0.07,0.4872,0.309281,0.0,0.332,5.0,,,,,,6.924575,PASS,
260,s01_lqr_pitch_step,g000032_c2,32,,1.0328969822368697,0.001877567572007131,1e-07,58.110722558325904,,,,,,,,,,3.5329,5.136,2.0969,0.078,0.4721,0.309245,0.0,0.33,5.0,,,,,,7.1182,PASS,
261,s01_lqr_pitch_step,g000032_c3,32,,0.8408864891303259,0.0023479605038794486,1.0897192616116728e-07,100.0,,,,,,,,,,3.5366,5.1362,2.0637,0.08,0.473,0.309322,0.0,0.336,5.0,,,,,,7.026975,PASS,
262,s01_lqr_pitch_step,g000032_c4,32,,0.48893380652022633,0.001,1e-07,100.0,,,,,,,,,,3.5356,5.1341,2.0412,0.078,0.4634,0.309436,0.0,0.338,5.0,,,,,,6.9387,PASS,
263,s01_lqr_pitch_step,g000032_c5,32,,1.3057220743280553,0.001,1e-07,100.0,,,,,,,,,,3.5359,5.1373,2.0412,0.078,0.4652,0.309379,0.0,0.336,5.0,,,,,,6.963825,PASS,
264,s01_lqr_pitch_step,g000032_c6,32,,1.1933401876554302,0.0013507656852769336,1.5724087589465967e-07,31.16693754020478,,,,,,,,,,3.537,5.1351,2.0988,0.076,0.491,0.309376,0.0,0.338,5.0,,,,,,6.92345,PASS,
265,s01_lqr_pitch_step,g000032_c7,32,,2.035046651790502,0.002416271887307531,1.2480206802217354e-07,100.0,,,,,,,,,,3.5322,5.1367,2.0878,0.07,0.4807,0.309401,0.0,0.334,5.0,,,,,,6.987125,PASS,
266,s01_lqr_pitch_step,g000033_c0,33,,1.1069474556158776,0.003098270240759114,1.5031962873346233e-07,100.0,,,,,,,,,,3.5354,5.1361,2.0567,0.076,0.47,0.309487,0.0,0.336,5.0,,,,,,7.030825,PASS,
267,s01_lqr_pitch_step,g000033_c1,33,,0.4591594342089228,0.0023439257655003425,1.0566514502577502e-07,100.0,,,,,,,,,,3.5328,5.1353,2.0578,0.074,0.4671,0.309299,0.0,0.332,5.0,,,,,,6.9347,PASS,
268,s01_lqr_pitch_step,g000033_c2,33,,0.6311577114417665,0.001,1.2029966531003395e-07,100.0,,,,,,,,,,3.5313,5.137,2.1039,0.072,0.4859,0.309359,0.0,0.332,5.0,,,,,,6.948725,PASS,
269,s01_lqr_pitch_step,g000033_c3,33,,0.6385193526409386,0.0013265606593638609,1e-07,90.63147822698795,,,,,,,,,,3.5313,5.1341,2.0985,0.07,0.4826,0.309338,0.0,0.332,5.0,,,,,,6.9402,PASS,
270,s01_lqr_pitch_step,g000033_c4,33,,0.6461986478294363,0.001,1.1218426646546106e-07,87.41138651928314,,,,,,,,,,3.5324,5.1357,2.0482,0.072,0.4664,0.309423,0.0,0.334,5.0,,,,,,7.060375,PASS,
271,s01_lqr_pitch_step,g000033_c5,33,,1.2891361923282325,0.0018405290025471667,1e-07,63.23165055411495,,,,,,,,,,3.532,5.136,2.0938,0.076,0.4712,0.309329,0.0,0.332,5.0,,,,,,7.1161,PASS,
272,s01_lqr_pitch_step,g000033_c6,33,,1.4534970594781746,0.001,1e-07,63.1247673999439,,,,,,,,,,3.5366,5.1364,2.0516,0.078,0.4639,0.309458,0.0,0.338,5.0,,,,,,6.90675,PASS,
273,s01_lqr_pitch_step,g000033_c7,33,,0.6747887143498303,0.001664639882828471,1e-07,79.01807627264972,,,,,,,,,,3.5328,5.1321,2.1116,0.078,0.4922,0.309261,0.0,0.332,5.0,,,,,,7.0549,PASS,
274,s01_lqr_pitch_step,g000034_c0,34,,0.7168885816046705,0.001,1.222005065699074e-07,72.60262888330088,,,,,,,,,,3.5354,5.1336,2.0548,0.076,0.4687,0.309337,0.0,0.336,5.0,,,,,,6.887225,PASS,
275,s01_lqr_pitch_step,g000034_c1,34,,1.8213098161977375,0.001,1.349484054444088e-07,75.64724071258199,,,,,,,,,,3.5328,5.1347,2.065,0.074,0.4692,0.309356,0.0,0.332,5.0,,,,,,6.9617,PASS,
276,s01_lqr_pitch_step,g000034_c2,34,,0.6072443314619191,0.0014996467462839965,1.5168051258774962e-07,100.0,,,,,,,,,,3.5316,5.133,2.0913,0.072,0.4739,0.309471,0.0,0.332,5.0,,,,,,7.077025,PASS,
277,s01_lqr_pitch_step,g000034_c3,34,,0.3510774938639679,0.0011425183239680819,1e-07,100.0,,,,,,,,,,3.5325,5.133,2.0625,0.072,0.4684,0.309248,0.0,0.332,5.0,,,,,,6.96245,PASS,
278,s01_lqr_pitch_step,g000034_c4,34,,0.8968771596023326,0.001,1e-07,100.0,,,,,,,,,,3.5354,5.1364,2.055,0.078,0.47,0.309544,0.0,0.336,5.0,,,,,,7.106775,PASS,
279,s01_lqr_pitch_step,g000034_c5,34,,1.3603616437617327,0.001,1.3108570762422838e-07,100.0,,,,,,,,,,3.5337,5.1368,2.1005,0.078,0.4721,0.309241,0.0,0.332,5.0,,,,,,7.10275,PASS,
280,s01_lqr_pitch_step,g000034_c6,34,,1.0403744732606188,0.001,1.422363891097573e-07,93.32590035626794,,,,,,,,,,3.5333,5.1348,2.1036,0.078,0.481,0.30926,0.0,0.332,5.0,,,,,,7.123775,PASS,
281,s01_lqr_pitch_step,g000034_c7,34,,1.5522790128502113,0.001,1.0437087768028319e-07,100.0,,,,,,,,,,3.5356,5.1369,2.044,0.074,0.4657,0.309342,0.0,0.338,5.0,,,,,,6.8784,PASS,
282,s01_lqr_pitch_step,g000035_c0,35,,0.776662239021529,0.0012492201490967563,1e-07,55.950737618096845,,,,,,,,,,3.5319,5.1326,2.1392,0.076,0.4967,0.309299,0.0,0.332,5.0,,,,,,7.0584,PASS,
283,s01_lqr_pitch_step,g000035_c1,35,,0.9296764057675614,0.001927250855939502,1e-07,100.0,,,,,,,,,,3.5334,5.1363,2.0729,0.076,0.4691,0.309291,0.0,0.332,5.0,,,,,,7.03455,PASS,
284,s01_lqr_pitch_step,g000035_c2,35,,1.1820330543504112,0.001,4.28584416158694e-07,92.5385470760785,,,,,,,,,,3.5357,5.1348,2.0838,0.078,0.4856,0.309454,0.0,0.336,5.0,,,,,,7.06855,PASS,
285,s01_lqr_pitch_step,g000035_c3,35,,0.9531224772956396,0.001,1.1606383698559229e-07,100.0,,,,,,,,,,3.5325,5.1325,2.0669,0.072,0.4731,0.309418,0.0,0.334,5.0,,,,,,7.108,PASS,
286,s01_lqr_pitch_step,g000035_c4,35,,1.1581250277016195,0.0016458392003434936,1.3801964398866847e-07,87.31386029036567,,,,,,,,,,3.5347,5.1369,2.1216,0.074,0.5159,0.30944,0.0,0.336,5.0,,,,,,6.9895,PASS,
287,s01_lqr_pitch_step,g000035_c5,35,,0.6207108638023968,0.001,1e-07,100.0,,,,,,,,,,3.5306,5.1357,2.1221,0.076,0.4744,0.309426,0.0,0.33,5.0,,,,,,7.1643,PASS,
288,s01_lqr_pitch_step,g000035_c6,35,,0.5110590858619722,0.0015385819995889889,1.0100480114743546e-07,100.0,,,,,,,,,,3.5324,5.132,2.0724,0.07,0.4719,0.30921,0.0,0.332,5.0,,,,,,6.898175,PASS,
289,s01_lqr_pitch_step,g000035_c7,35,,1.1264658313894282,0.001,1e-07,100.0,,,,,,,,,,3.5362,5.1358,2.0591,0.08,0.4692,0.309456,0.0,0.338,5.0,,,,,,6.974225,PASS,
290,s01_lqr_pitch_step,g000036_c0,36,,1.4816711277018682,0.0012859645565360045,1e-07,100.0,,,,,,,,,,3.532,5.1359,2.0974,0.072,0.4806,0.309336,0.0,0.332,5.0,,,,,,7.050025,PASS,
291,s01_lqr_pitch_step,g000036_c1,36,,0.6864965034154612,0.001151813510175294,1.1035929137626057e-07,100.0,,,,,,,,,,3.5367,5.1325,2.0616,0.076,0.4627,0.309418,0.0,0.34,5.0,,,,,,6.726325,PASS,
292,s01_lqr_pitch_step,g000036_c2,36,,0.7252425115705612,0.0015237243433339103,1e-07,100.0,,,,,,,,,,3.5352,5.1398,2.0614,0.076,0.4724,0.309496,0.0,0.336,5.0,,,,,,7.0362,PASS,
293,s01_lqr_pitch_step,g000036_c3,36,,0.8748456518624057,0.0012520028197589225,1e-07,94.28015513227729,,,,,,,,,,3.5348,5.1344,2.0945,0.074,0.49,0.309356,0.0,0.336,5.0,,,,,,6.92195,PASS,
294,s01_lqr_pitch_step,g000036_c4,36,,0.5375956038610908,0.0016787338070551531,1.2358739494135968e-07,93.81934473927959,,,,,,,,,,3.5351,5.1369,2.0645,0.072,0.4754,0.309293,0.0,0.336,5.0,,,,,,6.8293,PASS,
295,s01_lqr_pitch_step,g000036_c5,36,,1.0615843543564694,0.001226967307678633,1e-07,88.50378235880434,,,,,,,,,,3.5323,5.1353,2.0818,0.076,0.4718,0.309345,0.0,0.332,5.0,,,,,,7.09715,PASS,
296,s01_lqr_pitch_step,g000036_c6,36,,0.7852913453939842,0.0013500689184915403,1e-07,100.0,,,,,,,,,,3.531,5.1335,2.1195,0.072,0.4911,0.309269,0.0,0.332,5.0,,,,,,6.861125,PASS,
297,s01_lqr_pitch_step,g000036_c7,36,,0.957550142626883,0.0013577718578413338,1.1134218357834292e-07,52.53895377397561,,,,,,,,,,3.5339,5.1369,2.1006,0.078,0.4884,0.309418,0.0,0.332,5.0,,,,,,7.055525,PASS,
298,s01_lqr_pitch_step,g000037_c0,37,,0.8859308133269601,0.001007023540563699,1.2844980023531018e-07,100.0,,,,,,,,,,3.5305,5.1348,2.2496,0.076,0.4886,0.309228,0.0,0.326,5.0,,,,,,7.293625,PASS,
299,s01_lqr_pitch_step,g000037_c1,37,,0.7921807255476901,0.0012223177350353385,1.1194045277519561e-07,100.0,,,,,,,,,,3.5323,5.1335,2.1017,0.078,0.4808,0.309364,0.0,0.332,5.0,,,,,,7.060375,PASS,
300,s01_lqr_pitch_step,g000037_c2,37,,0.5433696775151837,0.0010417991915273928,1.0306859065732359e-07,100.0,,,,,,,,,,3.5357,5.1349,2.0495,0.074,0.4659,0.309488,0.0,0.338,5.0,,,,,,6.928525,PASS,
301,s01_lqr_pitch_step,g000037_c3,37,,0.5610929989676751,0.00118475558945245,1e-07,100.0,,,,,,,,,,3.5321,5.1358,2.0756,0.076,0.4742,0.30942,0.0,0.332,5.0,,,,,,7.00585,PASS,
302,s01_lqr_pitch_step,g000037_c4,37,,0.7599171368950928,0.0015301345594873723,1.1806208511932011e-07,100.0,,,,,,,,,,3.5327,5.1325,2.0652,0.076,0.4675,0.309295,0.0,0.332,5.0,,,,,,7.02775,PASS,
303,s01_lqr_pitch_step,g000037_c5,37,,1.0787324330153085,0.0010841066960258763,1e-07,73.28873428069672,,,,,,,,,,3.5291,5.1382,2.2212,0.07,0.4868,0.309251,0.0,0.328,5.0,,,,,,7.1302,PASS,
304,s01_lqr_pitch_step,g000037_c6,37,,0.7973352508368506,0.001,1e-07,100.0,,,,,,,,,,3.5286,5.1352,2.2003,0.072,0.4765,0.309334,0.0,0.328,5.0,,,,,,7.18015,PASS,
305,s01_lqr_pitch_step,g000037_c7,37,,0.5341481306340575,0.0011014265660132,1.0232098379575439e-07,95.58663096013267,,,,,,,,,,3.534,5.1365,2.0725,0.076,0.4745,0.309316,0.0,0.334,5.0,,,,,,6.9608,PASS,
306,s01_lqr_pitch_step,g000038_c0,38,,0.724137710768701,0.0013871983460726882,1.2241671892419062e-07,98.94726643949183,,,,,,,,,,3.5317,5.1336,2.0933,0.072,0.47,0.309329,0.0,0.332,5.0,,,,,,7.023825,PASS,
307,s01_lqr_pitch_step,g000038_c1,38,,0.6973396394179268,0.0012710077400926597,1.059062067719216e-07,87.3255973770379,,,,,,,,,,3.5319,5.1345,2.0763,0.076,0.4741,0.309416,0.0,0.332,5.0,,,,,,7.128775,PASS,
308,s01_lqr_pitch_step,g000038_c2,38,,0.4919292077838241,0.001,1.1640421685190416e-07,100.0,,,,,,,,,,3.536,5.134,2.0864,0.08,0.4856,0.30937,0.0,0.336,5.0,,,,,,6.952325,PASS,
309,s01_lqr_pitch_step,g000038_c3,38,,0.49548291193482735,0.0014249393846738716,1.1819279006342375e-07,80.95667599885957,,,,,,,,,,3.5313,5.1371,2.0893,0.072,0.4741,0.309383,0.0,0.332,5.0,,,,,,7.125725,PASS,
310,s01_lqr_pitch_step,g000038_c4,38,,0.43068272518807066,0.0010739922854339408,1e-07,99.68539132199457,,,,,,,,,,3.5319,5.1336,2.1677,0.076,0.5322,0.309323,0.0,0.332,5.0,,,,,,7.02815,PASS,
311,s01_lqr_pitch_step,g000038_c5,38,,0.742931874465395,0.0011095280639351081,1.5085891410403004e-07,87.24933971401161,,,,,,,,,,3.5339,5.1347,2.0864,0.076,0.4751,0.309252,0.0,0.332,5.0,,,,,,7.0202,PASS,
312,s01_lqr_pitch_step,g000038_c6,38,,0.4848278906361776,0.0010273275079894242,1.2255139450096906e-07,64.87578901882951,,,,,,,,,,3.5361,5.1353,2.0425,0.076,0.4643,0.30932,0.0,0.338,5.0,,,,,,6.920125,PASS,
313,s01_lqr_pitch_step,g000038_c7,38,,0.8622440348777146,0.001153418352733192,1.452400894859225e-07,100.0,,,,,,,,,,3.5307,5.1341,2.08,0.07,0.4735,0.309378,0.0,0.332,5.0,,,,,,6.9423,PASS,
314,s01_lqr_pitch_step,g000039_c0,39,,0.6074999904317098,0.001,1.3609728041801856e-07,100.0,,,,,,,,,,3.5319,5.1322,2.0954,0.076,0.4793,0.309353,0.0,0.332,5.0,,,,,,7.051375,PASS,
315,s01_lqr_pitch_step,g000039_c1,39,,0.6218226563997398,0.0011745327008956764,1.0166445344682161e-07,100.0,,,,,,,,,,3.5355,5.1372,2.0725,0.078,0.4768,0.30946,0.0,0.338,5.0,,,,,,6.93655,PASS,
316,s01_lqr_pitch_step,g000039_c2,39,,0.5389985284970308,0.001,1.3028356316409964e-07,100.0,,,,,,,,,,3.5312,5.1348,2.1031,0.078,0.4736,0.309408,0.0,0.33,5.0,,,,,,7.2605,PASS,
317,s01_lqr_pitch_step,g000039_c3,39,,0.48969669722347425,0.0010127228982490884,1e-07,80.03152182230976,,,,,,,,,,3.534,5.1373,2.0683,0.078,0.4699,0.309341,0.0,0.332,5.0,,,,,,7.1328,PASS,
318,s01_lqr_pitch_step,g000039_c4,39,,0.5031372632402521,0.0011245709932832639,1.3120249747645748e-07,100.0,,,,,,,,,,3.5326,5.136,2.1164,0.076,0.4845,0.309284,0.0,0.332,5.0,,,,,,7.056,PASS,
319,s01_lqr_pitch_step,g000039_c5,39,,0.6810088431720289,0.0010753108922282094,1e-07,82.52370166362243,,,,,,,,,,3.5354,5.1338,2.0524,0.076,0.4678,0.30943,0.0,0.336,5.0,,,,,,6.9426,PASS,
320,s01_lqr_pitch_step,g000039_c6,39,,0.5786482386870934,0.0013062438432376805,1.2889107430032632e-07,93.15378374062796,,,,,,,,,,3.5344,5.1354,2.0724,0.072,0.4774,0.309468,0.0,0.338,5.0,,,,,,6.82415,PASS,
321,s01_lqr_pitch_step,g000039_c7,39,,0.6402046236396303,0.00104412091759824,1.1863359104103087e-07,70.43685271121849,,,,,,,,,,3.5313,5.1331,2.0676,0.072,0.468,0.309305,0.0,0.332,5.0,,,,,,6.96095,PASS,
322,s01_lqr_pitch_step,g000040_c0,40,,0.8025438420911054,0.0013830301122921146,1e-07,100.0,,,,,,,,,,3.5325,5.1319,2.0577,0.076,0.4679,0.309282,0.0,0.332,5.0,,,,,,6.9407,PASS,
323,s01_lqr_pitch_step,g000040_c1,40,,0.6416788249304907,0.0012947562026573104,1.1673961246782087e-07,87.79292622305456,,,,,,,,,,3.5363,5.1377,2.1124,0.078,0.4995,0.309355,0.0,0.338,5.0,,,,,,6.989575,PASS,
324,s01_lqr_pitch_step,g000040_c2,40,,0.6880204432900002,0.0015035715646172009,1.3075277147954908e-07,93.09675552058344,,,,,,,,,,3.5354,5.1348,2.0539,0.074,0.4686,0.309407,0.0,0.338,5.0,,,,,,6.944675,PASS,
