run_id,scenario,label,gen,timestamp,Q_PITCH,Q_PITCH_RATE,Q_VEL,R,KP_V,KI_V,KFF_V,KP_YAW,KI_YAW,LEG_K_S,LEG_B_S,LEG_K_ROLL,LEG_D_ROLL,rms_pitch_deg,max_pitch_deg,wheel_travel_m,wheel_liftoff_s,vel_track_rms_ms,hip_track_rms_rad,hip_cmd_rate_rms,settle_time_s,survived_s,fitness_balance,fitness_disturbance,fitness_drive_slow,fitness_drive_med,fitness_obstacle,fitness,status,fail_reason
1,s01_lqr_pitch_step,evo_seed,0,,0.71890172,0.023248395,0.020707446,1.00106,,,,,,,,,,11.2489,20.263,2.0154,0.1,0.0,0.011705,0.0,5.0,0.207,,,,,,311.984675,FAIL,wheels off ground
2,s01_lqr_pitch_step,g000000_c0,0,,2.467944441045297,0.00835693684308415,0.2686580299064195,0.40596262073507944,,,,,,,,,,19.2148,42.7708,9.2155,0.089,0.0,0.014391,0.0,5.0,0.84,,,,,,766.1934,FAIL,fell over
3,s01_lqr_pitch_step,g000000_c1,0,,0.4816621156393789,0.03003648917604368,0.07938962860511115,0.17382189943024506,,,,,,,,,,20.2074,34.7298,7.4225,0.1,0.0,0.014492,0.0,5.0,0.697,,,,,,709.269025,FAIL,wheels off ground
4,s01_lqr_pitch_step,g000000_c2,0,,7.3768779414803305,0.001,0.005523976549381006,0.5580346309059785,,,,,,,,,,8.2693,16.3917,1.953,0.1,0.0,0.007483,0.0,5.0,0.197,,,,,,227.772425,FAIL,wheels off ground
5,s01_lqr_pitch_step,g000000_c3,0,,5.29457321633504,0.24328163013012458,0.35366314127855225,4.186139816020819,,,,,,,,,,16.7234,36.3274,7.0468,0.1,0.0,0.013533,0.0,5.0,0.689,,,,,,637.6752,FAIL,wheels off ground
6,s01_lqr_pitch_step,g000000_c4,0,,0.6856856022803802,0.006897669168789833,0.029242666382700223,0.512707352280949,,,,,,,,,,9.6207,20.0341,4.1255,0.1,0.0,0.014116,0.0,5.0,0.416,,,,,,503.4475,FAIL,wheels off ground
7,s01_lqr_pitch_step,g000000_c5,0,,0.05251771194581587,0.008522138702715289,0.25794384190367525,0.15606920827616763,,,,,,,,,,15.0366,27.8583,7.4506,0.1,0.0,0.01415,0.0,5.0,0.711,,,,,,727.498525,FAIL,wheels off ground
8,s01_lqr_pitch_step,g000000_c6,0,,2.5490191378817744,0.04544526068046601,0.0035557372654505194,0.07592301231133562,,,,,,,,,,22.1892,42.5026,6.8363,0.1,0.0,0.012933,0.0,5.0,0.711,,,,,,530.556275,FAIL,wheels off ground
9,s01_lqr_pitch_step,g000000_c7,0,,0.047299073902376296,1.1473380462033005,0.009773908002114647,8.234824324560023,,,,,,,,,,5.0729,8.1718,1.0616,0.1,0.0,0.009301,0.0,5.0,0.162,,,,,,208.562375,FAIL,wheels off ground
10,s01_lqr_pitch_step,g000001_c0,1,,0.8926539710158743,0.8162294690222635,0.18014235342736512,1.012161746645945,,,,,,,,,,14.9724,26.5562,2.2724,0.1,0.0,0.014393,0.0,5.0,0.208,,,,,,343.48465,FAIL,wheels off ground
11,s01_lqr_pitch_step,g000001_c1,1,,0.4409849848814062,0.018804354368597686,0.052293812920716984,11.788732282840222,,,,,,,,,,7.953,15.5277,1.4457,0.1,0.0,0.011047,0.0,5.0,0.154,,,,,,223.2231,FAIL,wheels off ground
12,s01_lqr_pitch_step,g000001_c2,1,,3.2256108242857353,0.005532936881366489,0.0011801620030641548,0.037513904264489334,,,,,,,,,,7.1942,14.7094,1.7763,0.1,0.0,0.009413,0.0,5.0,0.208,,,,,,308.715625,FAIL,wheels off ground
13,s01_lqr_pitch_step,g000001_c3,1,,1.7595585263820483,0.008770495944815916,0.01312984575183708,20.696015975328866,,,,,,,,,,3.359,5.2114,1.1616,0.1,0.0,0.007544,0.0,5.0,0.166,,,,,,209.443425,FAIL,wheels off ground
14,s01_lqr_pitch_step,g000001_c4,1,,10.0,0.035391658354939515,0.21412709215640993,0.42382872262867766,,,,,,,,,,20.0884,32.931,8.0641,0.1,0.0,0.013829,0.0,5.0,0.761,,,,,,702.541225,FAIL,wheels off ground
15,s01_lqr_pitch_step,g000001_c5,1,,10.0,0.001,0.08771229020719448,0.01,,,,,,,,,,13.4475,28.8464,9.1541,0.1,0.0,0.014039,0.0,5.0,0.861,,,,,,826.275525,FAIL,wheels off ground
16,s01_lqr_pitch_step,g000001_c6,1,,10.0,0.2706253071834485,0.007461497312268191,0.9283614271439317,,,,,,,,,,8.9439,12.9249,1.2337,0.1,0.0,0.010555,0.0,5.0,0.188,,,,,,230.595075,FAIL,wheels off ground
17,s01_lqr_pitch_step,g000001_c7,1,,0.05473108063317145,0.004576434012247056,0.002293907130873701,1.437730973366815,,,,,,,,,,2.4997,5.0,0.158,0.1,0.0,0.008262,0.0,5.0,0.16,,,,,,204.130975,FAIL,wheels off ground
18,s01_lqr_pitch_step,g000002_c0,2,,10.0,0.3266458238342762,0.11688314550513182,5.734587701158181,,,,,,,,,,14.0084,24.0339,1.9964,0.1,0.0,0.011203,0.0,5.0,0.203,,,,,,264.73715,FAIL,wheels off ground
19,s01_lqr_pitch_step,g000002_c1,2,,0.07195904568277094,0.0012527717656107852,0.0023975710397660063,0.04733929990861383,,,,,,,,,,13.6315,31.1925,14.647,0.1,10.7607,0.013422,0.0,5.0,1.498,,,,,,1029.649825,FAIL,wheels off ground
20,s01_lqr_pitch_step,g000002_c2,2,,0.4686641148991248,0.004823457788958336,0.006476236161988303,1.7689207964258093,,,,,,,,,,8.4974,13.4384,1.2827,0.1,0.0,0.010337,0.0,5.0,0.197,,,,,,220.703275,FAIL,wheels off ground
21,s01_lqr_pitch_step,g000002_c3,2,,8.00298960800733,0.003319603075170679,0.0014886572600125258,4.040068141504832,,,,,,,,,,2.5878,5.0,0.9357,0.1,0.0,0.008716,0.0,5.0,0.221,,,,,,209.926775,FAIL,wheels off ground
22,s01_lqr_pitch_step,g000002_c4,2,,0.018839017997336747,0.03421194156160342,0.00031288889611893463,1.0753116979954482,,,,,,,,,,2.3224,5.0,0.3456,0.1,0.0,0.009455,0.0,5.0,0.231,,,,,,208.651525,FAIL,wheels off ground
23,s01_lqr_pitch_step,g000002_c5,2,,0.7006657975604442,0.001,0.0008028690862041056,15.166025370814925,,,,,,,,,,2.8292,5.0,0.6986,0.1,0.0,0.008996,0.0,5.0,0.239,,,,,,207.716275,FAIL,wheels off ground
24,s01_lqr_pitch_step,g000002_c6,2,,0.27531592528392307,0.0031492248033111155,0.34751969184296494,0.2769347912532825,,,,,,,,,,26.2647,43.2914,2.3103,0.1,0.0,0.00969,0.0,5.0,0.218,,,,,,330.636725,FAIL,wheels off ground
25,s01_lqr_pitch_step,g000002_c7,2,,1.7224320980197245,0.5859513511651174,0.013391216146395076,2.293496067365221,,,,,,,,,,6.7138,10.8131,0.9151,0.1,0.0,0.009427,0.0,5.0,0.151,,,,,,215.422975,FAIL,wheels off ground
26,s01_lqr_pitch_step,g000003_c0,3,,1.4897130640495688,0.04961480604973299,1.9724112910282985,0.7429037829039414,,,,,,,,,,15.062,28.6111,10.2549,0.1,0.0,0.014561,0.0,5.0,0.994,,,,,,1002.15815,FAIL,wheels off ground
27,s01_lqr_pitch_step,g000003_c1,3,,0.01,0.5269408355204277,0.12138916704355748,0.3257594631172836,,,,,,,,,,15.8882,32.5135,13.7083,0.1,11.1375,0.014479,0.0,5.0,1.336,,,,,,1186.3077,FAIL,wheels off ground
28,s01_lqr_pitch_step,g000003_c2,3,,0.12256754459096166,0.06478909149183096,0.03583970366120948,3.3236704398681693,,,,,,,,,,6.8529,13.0628,1.9374,0.1,0.0,0.007938,0.0,5.0,0.194,,,,,,223.243925,FAIL,wheels off ground
29,s01_lqr_pitch_step,g000003_c3,3,,0.9260831331598003,0.06352113610812544,0.10781685758643647,1.1279622017461588,,,,,,,,,,10.4725,19.4486,4.0718,0.1,0.0,0.014556,0.0,5.0,0.4,,,,,,524.35065,FAIL,wheels off ground
30,s01_lqr_pitch_step,g000003_c4,3,,3.631467326522689,0.5865493876825688,0.003201597771069663,5.618402157310949,,,,,,,,,,3.2857,5.0,1.1841,0.1,0.0,0.007549,0.0,5.0,0.166,,,,,,209.128,FAIL,wheels off ground
31,s01_lqr_pitch_step,g000003_c5,3,,1.5264114242987739,0.020283533132971418,0.0020017820360679196,0.036573917899964066,,,,,,,,,,6.8728,14.5829,4.2023,0.1,0.0,0.013479,0.0,5.0,0.409,,,,,,458.922225,FAIL,wheels off ground
32,s01_lqr_pitch_step,g000003_c6,3,,0.8305572677424581,0.0018068741782283973,0.02203336487036483,0.24341541103453762,,,,,,,,,,18.5018,31.5665,3.207,0.1,0.0,0.012693,0.0,5.0,0.3,,,,,,354.84315,FAIL,wheels off ground
33,s01_lqr_pitch_step,g000003_c7,3,,3.0747266372137805,0.0035954145051684348,0.07902868686900442,38.75356076044807,,,,,,,,,,5.1377,9.4516,1.2102,0.1,0.0,0.008087,0.0,5.0,0.158,,,,,,216.139725,FAIL,wheels off ground
34,s01_lqr_pitch_step,g000004_c0,4,,0.045964301590673974,0.057568459088336583,0.02790544928950411,0.07364814095190973,,,,,,,,,,19.0747,34.709,12.4436,0.1,10.845,0.013901,0.0,5.0,1.184,,,,,,946.77195,FAIL,wheels off ground
35,s01_lqr_pitch_step,g000004_c1,4,,0.01,0.024314987628514466,0.005615819816798181,0.09932927481860652,,,,,,,,,,15.7812,28.559,5.5003,0.1,0.0,0.013369,0.0,5.0,0.537,,,,,,499.4024,FAIL,wheels off ground
36,s01_lqr_pitch_step,g000004_c2,4,,10.0,0.03379793137398613,0.0074839388581056975,2.5138678251050144,,,,,,,,,,5.2192,9.3478,1.0623,0.1,0.0,0.0082,0.0,5.0,0.156,,,,,,217.100475,FAIL,wheels off ground
37,s01_lqr_pitch_step,g000004_c3,4,,0.7834379404007809,0.0014858001421237971,0.040566537229447655,14.108189534275331,,,,,,,,,,5.5689,11.5875,1.3686,0.1,0.0,0.007365,0.0,5.0,0.156,,,,,,220.660475,FAIL,wheels off ground
38,s01_lqr_pitch_step,g000004_c4,4,,0.020370127097980098,0.7006391510065785,0.08396707299949088,1.4031713901251504,,,,,,,,,,16.361,30.216,5.7967,0.1,0.0,0.013586,0.0,5.0,0.557,,,,,,508.6353,FAIL,wheels off ground
39,s01_lqr_pitch_step,g000004_c5,4,,0.057358868179768346,0.001,0.05717864308881851,14.759107906232115,,,,,,,,,,10.456,17.2998,1.7138,0.1,0.0,0.011033,0.0,5.0,0.199,,,,,,229.772125,FAIL,wheels off ground
40,s01_lqr_pitch_step,g000004_c6,4,,0.35122297748490283,0.1660190952609692,0.047304283451617836,0.04262669479710344,,,,,,,,,,17.4168,35.5019,5.3151,0.1,0.0,0.014842,0.0,5.0,0.489,,,,,,569.93815,FAIL,wheels off ground
41,s01_lqr_pitch_step,g000004_c7,4,,1.9729589482881722,0.005531027987360652,0.06705753201214155,0.18586080653418985,,,,,,,,,,20.0654,42.7264,7.1443,0.089,0.0,0.014347,0.0,5.0,0.662,,,,,,655.14255,FAIL,fell over
42,s01_lqr_pitch_step,g000005_c0,5,,0.015513561962123713,0.05647064409734973,0.011160610998627371,1.6812532747839704,,,,,,,,,,2.0975,5.0,0.349,0.1,0.0,0.009954,0.0,5.0,0.198,,,,,,212.459225,FAIL,wheels off ground
43,s01_lqr_pitch_step,g000005_c1,5,,0.33489391348739245,0.1421580221762623,0.018962552337121234,1.144531578365479,,,,,,,,,,3.8465,5.5671,0.8247,0.1,0.0,0.00851,0.0,5.0,0.195,,,,,,235.40425,FAIL,wheels off ground
44,s01_lqr_pitch_step,g000005_c2,5,,4.386876240281268,0.0662534664610012,0.003068196903908074,13.301644803990486,,,,,,,,,,2.8285,5.0,0.1421,0.1,0.0,0.008635,0.0,5.0,0.172,,,,,,203.066875,FAIL,wheels off ground
45,s01_lqr_pitch_step,g000005_c3,5,,0.6835266731216324,0.001,0.0006927196944234051,0.1504519771339204,,,,,,,,,,8.0769,15.4598,1.4121,0.1,0.0,0.010884,0.0,5.0,0.153,,,,,,223.362775,FAIL,wheels off ground
46,s01_lqr_pitch_step,g000005_c4,5,,0.6501584583508083,0.009652398048762468,0.004452623403029744,0.055752418362101146,,,,,,,,,,20.9675,39.6533,22.2238,0.1,10.9747,0.013511,0.0,5.0,2.194,,,,,,1428.8319,FAIL,wheels off ground
47,s01_lqr_pitch_step,g000005_c5,5,,10.0,0.052527280340026315,0.3819428152268337,2.02126604198943,,,,,,,,,,13.7041,26.0471,2.1296,0.1,0.0,0.013759,0.0,5.0,0.208,,,,,,406.3003,FAIL,wheels off ground
48,s01_lqr_pitch_step,g000005_c6,5,,0.05824853301201406,0.001,0.0008462696691079719,0.16561298605086172,,,,,,,,,,8.0119,13.2071,1.1271,0.1,0.0,0.010076,0.0,5.0,0.153,,,,,,220.533125,FAIL,wheels off ground
49,s01_lqr_pitch_step,g000005_c7,5,,0.07373413644317041,0.007164883709953657,0.0007225617593587497,1.0217930086761207,,,,,,,,,,2.5904,5.0,0.5109,0.1,0.0,0.008117,0.0,5.0,0.166,,,,,,205.2896,FAIL,wheels off ground
50,s01_lqr_pitch_step,g000006_c0,6,,0.10715260604836208,0.19321379689329285,0.06653503426554956,5.637838977860129,,,,,,,,,,8.3443,15.4497,1.9402,0.1,0.0,0.008195,0.0,5.0,0.194,,,,,,226.737375,FAIL,wheels off ground
51,s01_lqr_pitch_step,g000006_c1,6,,6.88311143382237,0.01250530191346973,0.027074320709158897,0.01,,,,,,,,,,15.7139,27.8591,8.5397,0.1,0.0,0.01388,0.0,5.0,0.816,,,,,,781.30515,FAIL,wheels off ground
52,s01_lqr_pitch_step,g000006_c2,6,,0.4258440910321644,0.6232794557232779,0.017307871441460152,0.06803191141290243,,,,,,,,,,12.0263,22.0346,2.0368,0.1,0.0,0.011578,0.0,5.0,0.196,,,,,,323.013,FAIL,wheels off ground
53,s01_lqr_pitch_step,g000006_c3,6,,1.9824500212242626,0.016727470619129197,0.2421658200553555,0.8100278839394552,,,,,,,,,,15.4737,30.0172,6.8436,0.1,0.0,0.014249,0.0,5.0,0.646,,,,,,625.741925,FAIL,wheels off ground
54,s01_lqr_pitch_step,g000006_c4,6,,0.5407365336490594,0.008697583435533993,1.2450421769599858,3.71292779234846,,,,,,,,,,18.2956,30.6704,9.0166,0.1,0.0,0.013427,0.0,5.0,0.848,,,,,,665.93215,FAIL,wheels off ground
55,s01_lqr_pitch_step,g000006_c5,6,,1.37469233078366,0.09236509879467864,0.0029072282575235285,0.6169147240124168,,,,,,,,,,7.7116,15.2898,1.4338,0.1,0.0,0.010832,0.0,5.0,0.152,,,,,,223.069375,FAIL,wheels off ground
56,s01_lqr_pitch_step,g000006_c6,6,,0.9486923065198279,0.0036028262070244028,0.0020004846609744855,0.08495665648898788,,,,,,,,,,11.8097,18.5602,2.0112,0.1,0.0,0.010923,0.0,5.0,0.202,,,,,,268.56235,FAIL,wheels off ground
57,s01_lqr_pitch_step,g000006_c7,6,,1.329402039139661,0.05205812291661736,0.0012189442455494111,0.44151504557943044,,,,,,,,,,3.0554,5.0,1.4326,0.1,0.0,0.006961,0.0,5.0,0.156,,,,,,210.3017,FAIL,wheels off ground
58,s01_lqr_pitch_step,g000007_c0,7,,2.9111873906526293,0.001325372575397784,0.005479660342807799,59.14459091317738,,,,,,,,,,3.0877,5.0,0.6076,0.1,0.0,0.009022,0.0,5.0,0.174,,,,,,203.016875,FAIL,wheels off ground
59,s01_lqr_pitch_step,g000007_c1,7,,4.01402934739053,0.005086944369416337,0.0021503774410229167,2.331851625488637,,,,,,,,,,4.8738,7.4533,1.0803,0.1,0.0,0.009903,0.0,5.0,0.213,,,,,,210.850925,FAIL,wheels off ground
60,s01_lqr_pitch_step,g000007_c2,7,,0.6002119296422237,0.004970016751361428,0.07830998887956458,0.7297768099095575,,,,,,,,,,19.7287,36.2103,5.2442,0.1,0.0,0.013493,0.0,5.0,0.502,,,,,,499.1755,FAIL,wheels off ground
61,s01_lqr_pitch_step,g000007_c3,7,,2.4036040281809767,0.015354544741781355,0.020906713820700976,0.6303001380421709,,,,,,,,,,16.833,32.1277,7.4847,0.1,0.0,0.012793,0.0,5.0,0.792,,,,,,575.94455,FAIL,wheels off ground
62,s01_lqr_pitch_step,g000007_c4,7,,0.4582833320283623,0.001,0.2483350571087615,1.8965920307435655,,,,,,,,,,15.3065,26.8346,2.2767,0.1,0.0,0.014955,0.0,5.0,0.21,,,,,,362.0932,FAIL,wheels off ground
63,s01_lqr_pitch_step,g000007_c5,7,,3.730161047250069,0.003980060833465399,0.0008636272198199366,0.13566144022406712,,,,,,,,,,2.1588,5.0,0.1969,0.1,0.0,0.008885,0.0,5.0,0.151,,,,,,205.08435,FAIL,wheels off ground
64,s01_lqr_pitch_step,g000007_c6,7,,0.37218339699874525,0.009568078734427643,0.008500891589838019,0.21540894055826734,,,,,,,,,,12.2472,25.9039,16.0795,0.1,10.6573,0.01338,0.0,5.0,1.622,,,,,,1060.38175,FAIL,wheels off ground
65,s01_lqr_pitch_step,g000007_c7,7,,0.01,0.20969966030300846,0.008285762259643545,0.9095907413328546,,,,,,,,,,11.4554,19.4921,1.8273,0.1,0.0,0.009187,0.0,5.0,0.194,,,,,,240.40815,FAIL,wheels off ground
66,s01_lqr_pitch_step,g000008_c0,8,,0.6611975722810883,0.5238016318037491,0.008943770387305273,0.6824327073799836,,,,,,,,,,9.5108,17.1877,1.9269,0.1,0.0,0.008245,0.0,5.0,0.194,,,,,,230.41485,FAIL,wheels off ground
67,s01_lqr_pitch_step,g000008_c1,8,,1.2157976000516568,0.16477401541119002,1.5188168721748188,0.7301882256351714,,,,,,,,,,16.4518,33.8004,9.0268,0.1,0.0,0.014463,0.0,5.0,0.867,,,,,,899.18905,FAIL,wheels off ground
68,s01_lqr_pitch_step,g000008_c2,8,,0.38459322903167315,0.024118079226238712,0.07391962415453861,0.668745875352191,,,,,,,,,,22.8071,39.3863,7.1871,0.1,0.0,0.012627,0.0,5.0,0.701,,,,,,546.01395,FAIL,wheels off ground
69,s01_lqr_pitch_step,g000008_c3,8,,0.1970060236009518,0.0033418790439054503,0.029334649640689284,3.1361167062342066,,,,,,,,,,11.2754,19.9921,1.8599,0.1,0.0,0.008775,0.0,5.0,0.195,,,,,,236.19825,FAIL,wheels off ground
70,s01_lqr_pitch_step,g000008_c4,8,,3.9473253024246566,0.020227304098621116,0.00045410819957230307,0.07809993663166133,,,,,,,,,,5.5126,8.5435,0.7805,0.1,0.0,0.009285,0.0,5.0,0.151,,,,,,210.886275,FAIL,wheels off ground
71,s01_lqr_pitch_step,g000008_c5,8,,4.066769536872937,0.17994947365367164,0.007895625931518309,0.5279300672978134,,,,,,,,,,7.3662,10.7283,1.0253,0.1,0.0,0.01008,0.0,5.0,0.187,,,,,,246.831275,FAIL,wheels off ground
72,s01_lqr_pitch_step,g000008_c6,8,,0.9741945465424815,0.5693777456992755,0.009120712085697686,0.735888132403026,,,,,,,,,,5.636,11.6475,1.9194,0.1,0.0,0.008306,0.0,5.0,0.192,,,,,,220.723375,FAIL,wheels off ground
73,s01_lqr_pitch_step,g000008_c7,8,,1.5728579051098506,0.3806742640210033,0.0057650714208633096,4.335966996293126,,,,,,,,,,4.2607,6.1812,0.76,0.1,0.0,0.008762,0.0,5.0,0.161,,,,,,206.511575,FAIL,wheels off ground
74,s01_lqr_pitch_step,g000009_c0,9,,0.19645584849160813,0.06576115721526017,0.0027527168525574527,0.14178264911649943,,,,,,,,,,10.9088,17.8803,1.5153,0.1,0.0,0.010113,0.0,5.0,0.192,,,,,,259.9228,FAIL,wheels off ground
75,s01_lqr_pitch_step,g000009_c1,9,,0.6087127756560465,0.005176305715858869,0.12429439984274568,2.71149603831492,,,,,,,,,,14.6897,27.7885,5.4765,0.1,0.0,0.013025,0.0,5.0,0.531,,,,,,473.4124,FAIL,wheels off ground
76,s01_lqr_pitch_step,g000009_c2,9,,10.0,0.007178803961804953,0.31979854442984296,2.3210085705827908,,,,,,,,,,15.6725,26.8382,2.2412,0.1,0.0,0.014354,0.0,5.0,0.207,,,,,,342.875075,FAIL,wheels off ground
77,s01_lqr_pitch_step,g000009_c3,9,,10.0,1.085842028689207,0.0058200240880293885,0.41218795480591,,,,,,,,,,8.6955,15.1876,1.2452,0.1,0.0,0.009042,0.0,5.0,0.148,,,,,,229.57555,FAIL,wheels off ground
78,s01_lqr_pitch_step,g000009_c4,9,,0.03856577679688828,0.002934061187971917,0.005222832657452018,0.04761709867070425,,,,,,,,,,15.918,34.8288,17.6915,0.1,10.6558,0.01387,0.0,5.0,1.819,,,,,,1370.721475,FAIL,wheels off ground
79,s01_lqr_pitch_step,g000009_c5,9,,10.0,0.7348441800121749,0.8777221522681884,1.0099159425586488,,,,,,,,,,18.1302,35.3203,7.2229,0.1,0.0,0.014348,0.0,5.0,0.676,,,,,,678.24665,FAIL,wheels off ground
80,s01_lqr_pitch_step,g000009_c6,9,,0.08890164742981466,0.001,0.010111522284855734,1.3763537842731604,,,,,,,,,,5.9302,8.0066,0.8663,0.1,0.0,0.010223,0.0,5.0,0.191,,,,,,221.800025,FAIL,wheels off ground
81,s01_lqr_pitch_step,g000009_c7,9,,0.35666408349919565,0.011558381444626271,0.07403515201611635,9.218296129681654,,,,,,,,,,9.7457,14.1462,1.3124,0.1,0.0,0.010364,0.0,5.0,0.187,,,,,,233.575275,FAIL,wheels off ground
82,s01_lqr_pitch_step,g000010_c0,10,,0.041564397464692746,0.005224714481608482,0.04357751313561332,0.34054847157849455,,,,,,,,,,17.011,27.6055,4.2409,0.1,0.0,0.013953,0.0,5.0,0.392,,,,,,452.017875,FAIL,wheels off ground
83,s01_lqr_pitch_step,g000010_c1,10,,1.7921349523592014,0.001,0.009206628004213074,0.8803751154110696,,,,,,,,,,7.1088,14.3714,1.9413,0.1,0.0,0.00758,0.0,5.0,0.195,,,,,,224.637175,FAIL,wheels off ground
84,s01_lqr_pitch_step,g000010_c2,10,,0.6117366729727491,0.0167038129029123,0.0035350029847300932,0.23780052929788,,,,,,,,,,2.6715,8.0062,0.6716,0.1,0.0,0.008846,0.0,5.0,0.198,,,,,,228.690525,FAIL,wheels off ground
85,s01_lqr_pitch_step,g000010_c3,10,,1.594467986312459,0.0014459668380778267,0.003152930085132418,0.02745115623362946,,,,,,,,,,13.0211,24.0113,3.0228,0.1,0.0,0.013873,0.0,5.0,0.291,,,,,,395.49545,FAIL,wheels off ground
86,s01_lqr_pitch_step,g000010_c4,10,,0.1404105998192652,0.021395992621834253,0.003798046581632453,0.12123341750822782,,,,,,,,,,8.3039,16.8261,3.9429,0.1,0.0,0.013057,0.0,5.0,0.399,,,,,,429.255425,FAIL,wheels off ground
87,s01_lqr_pitch_step,g000010_c5,10,,0.1023615030059856,0.0027195338646496385,0.19378474532611897,32.79439245271923,,,,,,,,,,5.5709,8.6037,0.7457,0.1,0.0,0.009344,0.0,5.0,0.152,,,,,,211.6554,FAIL,wheels off ground
88,s01_lqr_pitch_step,g000010_c6,10,,0.5080664197855036,0.015455760635599567,0.10981754959384087,2.596129279167735,,,,,,,,,,13.9646,27.699,6.508,0.1,0.0,0.012751,0.0,5.0,0.659,,,,,,533.629025,FAIL,wheels off ground
89,s01_lqr_pitch_step,g000010_c7,10,,0.3796928243848911,0.21046509015475734,0.025726152094260324,4.072801936002012,,,,,,,,,,3.0736,5.0,0.3813,0.1,0.0,0.00897,0.0,5.0,0.151,,,,,,206.0372,FAIL,wheels off ground
90,s01_lqr_pitch_step,g000011_c0,11,,0.30996129446524645,0.012515613146376094,0.1891262523737531,9.838511742900174,,,,,,,,,,13.6642,23.3323,1.9155,0.1,0.0,0.011234,0.0,5.0,0.199,,,,,,262.97175,FAIL,wheels off ground
91,s01_lqr_pitch_step,g000011_c1,11,,1.5854426246203153,0.08263693429598981,0.07308642035842906,1.2229938132125673,,,,,,,,,,22.123,44.5951,8.1494,0.1,0.0,0.012609,0.0,5.0,0.764,,,,,,525.657475,FAIL,wheels off ground
92,s01_lqr_pitch_step,g000011_c2,11,,0.23371211771980677,0.01066280442697871,0.04338394223459726,3.011173211482122,,,,,,,,,,1.5944,5.0,0.3512,0.1,0.0,0.008203,0.0,5.0,0.221,,,,,,215.01665,FAIL,wheels off ground
93,s01_lqr_pitch_step,g000011_c3,11,,0.9264759712243654,0.011165860740964192,0.007057778086272028,17.5328349063717,,,,,,,,,,3.1006,5.0,1.3162,0.1,0.0,0.008716,0.0,5.0,0.216,,,,,,211.076175,FAIL,wheels off ground
94,s01_lqr_pitch_step,g000011_c4,11,,0.03514318328903425,0.0535949067270142,0.004263835603007018,1.2949503185110913,,,,,,,,,,2.2687,5.0,0.3146,0.1,0.0,0.008528,0.0,5.0,0.156,,,,,,205.636875,FAIL,wheels off ground
95,s01_lqr_pitch_step,g000011_c5,11,,0.541901707519573,0.056772200959727175,0.001290907462310388,1.9846757050964243,,,,,,,,,,2.8808,5.0,0.8358,0.1,0.0,0.007792,0.0,5.0,0.166,,,,,,206.950325,FAIL,wheels off ground
96,s01_lqr_pitch_step,g000011_c6,11,,0.22803210230523221,0.006902692020142023,1.193419421379453,2.6105634441105185,,,,,,,,,,14.8545,32.9386,19.5328,0.1,11.4042,0.015002,0.0,5.0,1.858,,,,,,1777.018325,FAIL,wheels off ground
97,s01_lqr_pitch_step,g000011_c7,11,,0.5091143961116771,0.03581714731871544,0.012065904625648815,0.5963127856196032,,,,,,,,,,14.017,24.3415,1.9774,0.1,0.0,0.011218,0.0,5.0,0.202,,,,,,265.314825,FAIL,wheels off ground
98,s01_lqr_pitch_step,g000012_c0,12,,0.22233566471210583,0.02183605834796356,0.0029488102823437196,12.836506377537185,,,,,,,,,,2.9273,5.0,0.2445,0.1,0.0,0.008526,0.0,5.0,0.171,,,,,,203.253775,FAIL,wheels off ground
99,s01_lqr_pitch_step,g000012_c1,12,,0.975892590096619,0.0028992973330484143,0.024511513470956068,1.3463217131180776,,,,,,,,,,9.091,13.6808,1.4664,0.1,0.0,0.009671,0.0,5.0,0.193,,,,,,256.988275,FAIL,wheels off ground
100,s01_lqr_pitch_step,g000012_c2,12,,1.000221584042637,0.015401933830676492,0.008006798537900657,0.693393351108366,,,,,,,,,,8.3417,15.9516,1.9153,0.1,0.0,0.008548,0.0,5.0,0.192,,,,,,227.135125,FAIL,wheels off ground
101,s01_lqr_pitch_step,g000012_c3,12,,1.7784186555776276,0.11222739364892173,0.0018417416633440965,2.4727097949552403,,,,,,,,,,2.6425,5.0,0.5934,0.1,0.0,0.008032,0.0,5.0,0.166,,,,,,205.770825,FAIL,wheels off ground
102,s01_lqr_pitch_step,g000012_c4,12,,0.3231388009699979,0.023926812468985568,0.008681960737078748,2.7301118976787113,,,,,,,,,,3.2403,5.0,0.6158,0.1,0.0,0.008358,0.0,5.0,0.156,,,,,,209.08035,FAIL,wheels off ground
103,s01_lqr_pitch_step,g000012_c5,12,,2.02663595089077,0.001543781335461506,0.09103947987315571,1.5714442267916866,,,,,,,,,,15.2042,31.4835,16.8908,0.1,10.6554,0.013785,0.0,5.0,1.685,,,,,,1191.9469,FAIL,wheels off ground
104,s01_lqr_pitch_step,g000012_c6,12,,1.083722056065478,0.0016992243763917453,0.005085846717938574,2.362640957676824,,,,,,,,,,3.9744,8.2105,1.447,0.1,0.0,0.00719,0.0,5.0,0.158,,,,,,213.80895,FAIL,wheels off ground
105,s01_lqr_pitch_step,g000012_c7,12,,1.077175309777454,0.01996785622838443,0.1299781188791483,5.185724452522387,,,,,,,,,,9.835,17.9787,2.1588,0.1,0.0,0.010933,0.0,5.0,0.213,,,,,,314.209025,FAIL,wheels off ground
106,s01_lqr_pitch_step,g000013_c0,13,,0.6319674365685639,0.05482342704609072,0.016153928708919605,1.2930540583914767,,,,,,,,,,12.8879,21.6201,1.8057,0.1,0.0,0.009241,0.0,5.0,0.191,,,,,,245.2135,FAIL,wheels off ground
107,s01_lqr_pitch_step,g000013_c1,13,,0.7151243538733878,0.006752348796294075,0.05547248240200048,3.7068450177933885,,,,,,,,,,1.5359,5.0,0.7339,0.1,0.0,0.008587,0.0,5.0,0.205,,,,,,217.71835,FAIL,wheels off ground
108,s01_lqr_pitch_step,g000013_c2,13,,0.3357695674659037,0.02477827113518621,0.0206828706688423,2.382103246686645,,,,,,,,,,11.3323,19.3019,1.8748,0.1,0.0,0.008935,0.0,5.0,0.197,,,,,,242.2515,FAIL,wheels off ground
109,s01_lqr_pitch_step,g000013_c3,13,,0.4259584222915802,0.007436394816414906,0.03016383860971698,0.8212699964989157,,,,,,,,,,13.882,25.7084,5.1842,0.1,0.0,0.012344,0.0,5.0,0.494,,,,,,418.992575,FAIL,wheels off ground
110,s01_lqr_pitch_step,g000013_c4,13,,0.19648241801811728,0.01302248409883189,0.03873232628217938,0.26107879569992176,,,,,,,,,,14.2864,26.3551,2.2911,0.1,0.0,0.015188,0.0,5.0,0.211,,,,,,399.197475,FAIL,wheels off ground
111,s01_lqr_pitch_step,g000013_c5,13,,0.9267070468973614,0.04749231046660945,0.03905590183681512,8.38254130801656,,,,,,,,,,8.3589,15.4935,1.372,0.1,0.0,0.010715,0.0,5.0,0.153,,,,,,223.7152,FAIL,wheels off ground
112,s01_lqr_pitch_step,g000013_c6,13,,1.3605326121056158,0.005191961243219647,0.031343180575481744,0.7305395416828913,,,,,,,,,,20.8787,33.479,12.7878,0.1,11.1207,0.012428,0.0,5.0,1.279,,,,,,753.4675,FAIL,wheels off ground
113,s01_lqr_pitch_step,g000013_c7,13,,0.08508360931143748,0.21001200661654146,0.009639749757291373,1.5167237437853507,,,,,,,,,,3.6165,5.0,0.4591,0.1,0.0,0.008796,0.0,5.0,0.15,,,,,,206.996425,FAIL,wheels off ground
114,s01_lqr_pitch_step,g000014_c0,14,,0.47849326697199235,0.011801273063652966,0.008087460029286467,0.9799737101597938,,,,,,,,,,10.1162,14.8343,1.3553,0.1,0.0,0.010594,0.0,5.0,0.188,,,,,,234.5839,FAIL,wheels off ground
115,s01_lqr_pitch_step,g000014_c1,14,,1.3335766423717912,0.002437355134127577,0.08622843671211113,2.790056857479023,,,,,,,,,,20.2999,36.9254,12.8058,0.1,10.0696,0.012912,0.0,5.0,1.257,,,,,,708.926725,FAIL,wheels off ground
116,s01_lqr_pitch_step,g000014_c2,14,,0.6264768847293272,0.044842735815413565,0.04679465665290241,2.4704542612552443,,,,,,,,,,13.8753,23.9835,1.8719,0.1,0.0,0.010985,0.0,5.0,0.201,,,,,,263.4139,FAIL,wheels off ground
117,s01_lqr_pitch_step,g000014_c3,14,,1.2951293173339264,0.01633632620090653,0.04338587576364498,0.5678718637449219,,,,,,,,,,25.219,42.8406,6.9988,0.068,0.0,0.012518,0.0,5.0,0.669,,,,,,505.201825,FAIL,fell over
118,s01_lqr_pitch_step,g000014_c4,14,,1.0021526287422469,0.007209831798807977,0.005974363054037832,2.343274873845692,,,,,,,,,,3.9948,8.335,1.4229,0.1,0.0,0.006973,0.0,5.0,0.156,,,,,,214.716575,FAIL,wheels off ground
119,s01_lqr_pitch_step,g000014_c5,14,,1.4288117100358162,0.01198143411458486,0.020134460823850123,0.4997581917904226,,,,,,,,,,17.3223,35.5434,31.79,0.1,10.9637,0.013725,0.0,5.0,3.241,,,,,,1836.0695,FAIL,wheels off ground
120,s01_lqr_pitch_step,g000014_c6,14,,1.1512159905427888,0.13485574504406478,0.02443169101270037,3.299957980209936,,,,,,,,,,5.8237,7.8558,0.8473,0.1,0.0,0.010275,0.0,5.0,0.191,,,,,,221.019725,FAIL,wheels off ground
121,s01_lqr_pitch_step,g000014_c7,14,,1.9932352900094623,0.01575756011737485,0.009362164011670828,1.2928713591677288,,,,,,,,,,6.0224,8.1799,0.8768,0.1,0.0,0.010283,0.0,5.0,0.191,,,,,,221.69655,FAIL,wheels off ground
122,s01_lqr_pitch_step,g000015_c0,15,,0.46424154221629776,0.015128234441115865,0.04512993152602019,0.5893703948799247,,,,,,,,,,26.2406,41.5626,5.6343,0.1,0.0,0.012043,0.0,5.0,0.537,,,,,,418.843075,FAIL,wheels off ground
123,s01_lqr_pitch_step,g000015_c1,15,,0.5920495431449507,0.19075367629221912,0.020062209255326476,1.509543094803963,,,,,,,,,,10.7106,15.4916,1.3695,0.1,0.0,0.01001,0.0,5.0,0.187,,,,,,243.68565,FAIL,wheels off ground
124,s01_lqr_pitch_step,g000015_c2,15,,1.0796574975065705,0.032960318154468544,0.01378548423835414,0.6034583947259438,,,,,,,,,,11.469,18.879,2.0295,0.1,0.0,0.010966,0.0,5.0,0.203,,,,,,277.258225,FAIL,wheels off ground
125,s01_lqr_pitch_step,g000015_c3,15,,0.7437157122183767,0.013333871306707304,0.06675340520282379,3.3950466330224818,,,,,,,,,,13.3965,19.7526,1.6789,0.1,0.0,0.011272,0.0,5.0,0.202,,,,,,257.860025,FAIL,wheels off ground
126,s01_lqr_pitch_step,g000015_c4,15,,0.7250976780676811,0.032281555181281514,0.013343747807898269,1.109570043194887,,,,,,,,,,8.9708,16.7898,1.9283,0.1,0.0,0.008563,0.0,5.0,0.193,,,,,,228.702575,FAIL,wheels off ground
127,s01_lqr_pitch_step,g000015_c5,15,,0.3107685102240395,0.017467793874355188,0.026908197751882145,1.306445756693843,,,,,,,,,,11.4809,20.4208,2.0825,0.1,0.0,0.011586,0.0,5.0,0.207,,,,,,306.17415,FAIL,wheels off ground
128,s01_lqr_pitch_step,g000015_c6,15,,0.5597208119637397,0.05464984250320293,0.02169017547565823,0.6543151765599652,,,,,,,,,,11.7262,23.039,10.3699,0.1,13.3919,0.013303,0.0,5.0,1.015,,,,,,683.957425,FAIL,wheels off ground
129,s01_lqr_pitch_step,g000015_c7,15,,3.9341264436404764,0.03222049711573003,0.027595434267451913,0.5305946824057166,,,,,,,,,,18.7158,38.5849,11.5497,0.1,11.9088,0.013706,0.0,5.0,1.118,,,,,,793.036675,FAIL,wheels off ground
130,s01_lqr_pitch_step,g000016_c0,16,,1.6965704920641747,0.00957060364694742,0.018230385323619588,2.7717765172193007,,,,,,,,,,2.6944,5.0,0.3227,0.1,0.0,0.008758,0.0,5.0,0.15,,,,,,205.823125,FAIL,wheels off ground
131,s01_lqr_pitch_step,g000016_c1,16,,0.5489576860060384,0.009581509460519007,0.02457870716014371,1.0441682789992506,,,,,,,,,,10.1794,19.1664,1.8222,0.1,0.0,0.010872,0.0,5.0,0.198,,,,,,280.30245,FAIL,wheels off ground
132,s01_lqr_pitch_step,g000016_c2,16,,1.3624207087064462,0.014423305543359615,0.03474103976509442,1.740226413753444,,,,,,,,,,14.0724,24.2623,2.0016,0.1,0.0,0.01123,0.0,5.0,0.203,,,,,,264.499975,FAIL,wheels off ground
133,s01_lqr_pitch_step,g000016_c3,16,,0.5431132331483743,0.01610427696351697,0.016776949327173746,0.5775750433377974,,,,,,,,,,11.6859,23.8024,3.2724,0.1,0.0,0.012706,0.0,5.0,0.326,,,,,,352.30435,FAIL,wheels off ground
134,s01_lqr_pitch_step,g000016_c4,16,,0.8301980846835434,0.04083727653327241,0.02518940811120041,0.9986326709199701,,,,,,,,,,12.1789,21.4407,1.7294,0.1,0.0,0.01104,0.0,5.0,0.2,,,,,,281.255625,FAIL,wheels off ground
135,s01_lqr_pitch_step,g000016_c5,16,,0.5895050513119398,0.020653309477852985,0.020130584879800045,1.6689946760006233,,,,,,,,,,12.392,20.9285,1.9557,0.1,0.0,0.008248,0.0,5.0,0.197,,,,,,240.47045,FAIL,wheels off ground
136,s01_lqr_pitch_step,g000016_c6,16,,0.8777397823721743,0.02805935503573435,0.017562215159366217,0.8763946206304817,,,,,,,,,,14.1741,24.6255,2.0156,0.1,0.0,0.011198,0.0,5.0,0.204,,,,,,264.944325,FAIL,wheels off ground
137,s01_lqr_pitch_step,g000016_c7,16,,0.9040332838118841,0.029434535028243378,0.014327440290936664,0.5838206739310472,,,,,,,,,,13.2643,22.956,2.2309,0.1,0.0,0.011455,0.0,5.0,0.217,,,,,,272.1806,FAIL,wheels off ground
138,s01_lqr_pitch_step,g000017_c0,17,,0.8479116360242573,0.034396294990301134,0.02755886196580697,1.6538522619922091,,,,,,,,,,4.7558,7.3387,1.1173,0.1,0.0,0.008697,0.0,5.0,0.195,,,,,,237.026625,FAIL,wheels off ground
139,s01_lqr_pitch_step,g000017_c1,17,,0.34119922249170676,0.019056196101271912,0.019242663131419792,0.6527039680686644,,,,,,,,,,10.4909,22.2291,4.0763,0.1,0.0,0.012355,0.0,5.0,0.396,,,,,,428.970275,FAIL,wheels off ground
140,s01_lqr_pitch_step,g000017_c2,17,,0.39195875801191016,0.015845698219715473,0.019766301954938708,1.0562867022282583,,,,,,,,,,13.4899,23.2328,1.8708,0.1,0.0,0.011155,0.0,5.0,0.198,,,,,,262.880775,FAIL,wheels off ground
141,s01_lqr_pitch_step,g000017_c3,17,,1.6371506608096906,0.02981072887445375,0.05203402087063207,0.5973003575505409,,,,,,,,,,18.4698,38.9321,11.8153,0.1,10.9226,0.013942,0.0,5.0,1.195,,,,,,968.180075,FAIL,wheels off ground
142,s01_lqr_pitch_step,g000017_c4,17,,1.0773841042400876,0.01615133629632794,0.014301406366824034,0.7526468957826129,,,,,,,,,,13.6312,23.885,1.8567,0.1,0.0,0.011142,0.0,5.0,0.198,,,,,,264.51635,FAIL,wheels off ground
143,s01_lqr_pitch_step,g000017_c5,17,,0.7519766862268243,0.019288850224882144,0.025803914244242016,0.7927507963548976,,,,,,,,,,8.1744,17.6094,6.8066,0.1,0.0,0.013539,0.0,5.0,0.73,,,,,,557.420575,FAIL,wheels off ground
144,s01_lqr_pitch_step,g000017_c6,17,,0.9746163687802595,0.016791926563466904,0.015457906311994132,1.3744108879651453,,,,,,,,,,7.0836,13.6146,1.9227,0.1,0.0,0.007994,0.0,5.0,0.193,,,,,,224.096025,FAIL,wheels off ground
145,s01_lqr_pitch_step,g000017_c7,17,,1.5037388121799125,0.04454832083756191,0.012149702193137964,2.018112313520001,,,,,,,,,,5.7303,8.9215,0.7662,0.1,0.0,0.009208,0.0,5.0,0.151,,,,,,212.320175,FAIL,wheels off ground
146,s01_lqr_pitch_step,g000018_c0,18,,1.0453366877598826,0.01405372065376056,0.01682061402206411,0.7690760617379739,,,,,,,,,,10.2489,16.4774,1.7375,0.1,0.0,0.011142,0.0,5.0,0.193,,,,,,280.22045,FAIL,wheels off ground
147,s01_lqr_pitch_step,g000018_c1,18,,0.5038641686471305,0.04913925032443947,0.03268248289210609,0.5471030668701647,,,,,,,,,,18.2861,35.907,17.3194,0.1,11.0603,0.013229,0.0,5.0,1.717,,,,,,1094.385475,FAIL,wheels off ground
148,s01_lqr_pitch_step,g000018_c2,18,,0.5535975454231036,0.03150998834853218,0.01790154820414202,0.9401260185578424,,,,,,,,,,13.7314,24.0404,1.8682,0.1,0.0,0.011136,0.0,5.0,0.199,,,,,,264.68535,FAIL,wheels off ground
149,s01_lqr_pitch_step,g000018_c3,18,,0.7873379769948085,0.01699381385614131,0.035284508799302214,0.8239834178217359,,,,,,,,,,15.6763,30.8333,8.6934,0.1,0.0,0.013429,0.0,5.0,0.925,,,,,,661.7388,FAIL,wheels off ground
150,s01_lqr_pitch_step,g000018_c4,18,,0.808069631118499,0.017584721744504744,0.04339374169182583,0.9657803926698817,,,,,,,,,,19.6195,42.2785,18.9609,0.1,10.893,0.013845,0.0,5.0,1.887,,,,,,1198.166,FAIL,wheels off ground
151,s01_lqr_pitch_step,g000018_c5,18,,0.5787909812730917,0.019719232772075868,0.01599756340349228,1.0934513163526167,,,,,,,,,,2.0723,5.355,0.7623,0.1,0.0,0.008554,0.0,5.0,0.202,,,,,,224.3745,FAIL,wheels off ground
152,s01_lqr_pitch_step,g000018_c6,18,,0.496240029383219,0.024361190922235782,0.01795203775868341,1.1184338065509438,,,,,,,,,,4.2555,6.252,1.0531,0.1,0.0,0.008773,0.0,5.0,0.195,,,,,,245.46985,FAIL,wheels off ground
153,s01_lqr_pitch_step,g000018_c7,18,,0.49627746615467383,0.015213929919372045,0.015408660604507293,0.757128287036135,,,,,,,,,,12.8495,20.1424,1.9915,0.1,0.0,0.011728,0.0,5.0,0.206,,,,,,268.7237,FAIL,wheels off ground
154,s01_lqr_pitch_step,g000019_c0,19,,0.6098407697112942,0.03744619604190817,0.015008364228120744,0.927972901335972,,,,,,,,,,4.2875,6.3146,1.0499,0.1,0.0,0.008836,0.0,5.0,0.195,,,,,,247.134625,FAIL,wheels off ground
155,s01_lqr_pitch_step,g000019_c1,19,,0.9134279003866819,0.02308455266975053,0.026740193242407603,1.1184576396717874,,,,,,,,,,10.8294,18.8729,1.8967,0.1,0.0,0.010877,0.0,5.0,0.201,,,,,,273.2157,FAIL,wheels off ground
156,s01_lqr_pitch_step,g000019_c2,19,,0.5923901631977584,0.017149203175872374,0.01445494767141014,0.9860614176906439,,,,,,,,,,2.3815,6.9563,0.6052,0.1,0.0,0.008449,0.0,5.0,0.204,,,,,,224.9896,FAIL,wheels off ground
157,s01_lqr_pitch_step,g000019_c3,19,,0.49759105074867105,0.0161587071083831,0.028788273894128632,1.0117179320678258,,,,,,,,,,21.0595,38.7094,16.8764,0.1,11.0854,0.013472,0.0,5.0,1.661,,,,,,881.690025,FAIL,wheels off ground
158,s01_lqr_pitch_step,g000019_c4,19,,0.6070777841138382,0.025249160692254424,0.03484440852602391,0.9932319548730212,,,,,,,,,,5.7474,14.7548,3.6842,0.1,0.0,0.01205,0.0,5.0,0.48,,,,,,411.757475,FAIL,wheels off ground
159,s01_lqr_pitch_step,g000019_c5,19,,1.4596721753595199,0.015768982349544887,0.027767299973658153,0.8428626233776868,,,,,,,,,,13.4863,30.7583,7.3216,0.1,0.0,0.012862,0.0,5.0,0.774,,,,,,584.8698,FAIL,wheels off ground
160,s01_lqr_pitch_step,g000019_c6,19,,1.4174928958399076,0.020374081076469177,0.01873900791360351,1.404396764654626,,,,,,,,,,9.7849,14.1921,1.2554,0.1,0.0,0.010184,0.0,5.0,0.187,,,,,,245.1127,FAIL,wheels off ground
161,s01_lqr_pitch_step,g000019_c7,19,,1.0669225497974948,0.020071428622191256,0.02149481270117114,0.687611490990253,,,,,,,,,,10.0772,22.1951,11.0859,0.1,11.1375,0.013632,0.0,5.0,1.14,,,,,,816.8902,FAIL,wheels off ground
162,s01_lqr_pitch_step,g000020_c0,20,,0.8710038876518904,0.03163216708801762,0.02550440155202727,1.101797507727085,,,,,,,,,,11.902,21.3656,1.8486,0.1,0.0,0.010858,0.0,5.0,0.197,,,,,,274.393975,FAIL,wheels off ground
163,s01_lqr_pitch_step,g000020_c1,20,,0.8681562665165572,0.015325313793752923,0.01832309668642721,0.9224885440893311,,,,,,,,,,13.888,23.3201,1.9983,0.1,0.0,0.011208,0.0,5.0,0.203,,,,,,262.730625,FAIL,wheels off ground
164,s01_lqr_pitch_step,g000020_c2,20,,0.7429052011013692,0.0200449042937714,0.01941046427101987,1.005132930954542,,,,,,,,,,13.5705,22.16,1.9525,0.1,0.0,0.011226,0.0,5.0,0.201,,,,,,260.7255,FAIL,wheels off ground
165,s01_lqr_pitch_step,g000020_c3,20,,0.7914895686881342,0.02995625436981437,0.02235060551089714,0.7306846756521787,,,,,,,,,,15.9536,30.627,4.3662,0.1,0.0,0.012189,0.0,5.0,0.406,,,,,,393.126525,FAIL,wheels off ground
166,s01_lqr_pitch_step,g000020_c4,20,,0.6370249084414625,0.02406898291177127,0.025645355088638973,0.8461336016092205,,,,,,,,,,11.1239,24.578,5.1392,0.1,0.0,0.013592,0.0,5.0,0.51,,,,,,446.9298,FAIL,wheels off ground
167,s01_lqr_pitch_step,g000020_c5,20,,1.0051364629010446,0.012838853882155232,0.02095732731862636,1.6778744367627545,,,,,,,,,,12.8821,21.4811,1.8063,0.1,0.0,0.009206,0.0,5.0,0.191,,,,,,246.3504,FAIL,wheels off ground
168,s01_lqr_pitch_step,g000020_c6,20,,0.6922556451898355,0.025580745475660575,0.019303489273502786,0.9574477611224316,,,,,,,,,,13.8858,23.0932,2.0238,0.1,0.0,0.011175,0.0,5.0,0.204,,,,,,262.690675,FAIL,wheels off ground
169,s01_lqr_pitch_step,g000020_c7,20,,0.6572039753560427,0.02620545521397899,0.023517454556324778,0.5644754957302295,,,,,,,,,,17.4901,33.0938,5.1768,0.1,0.0,0.011852,0.0,5.0,0.485,,,,,,399.396525,FAIL,wheels off ground
170,s01_lqr_pitch_step,g000021_c0,21,,0.5303321712131385,0.03017463650703102,0.022050403754117074,0.9354652459719932,,,,,,,,,,9.2912,18.4656,2.8863,0.1,0.0,0.011733,0.0,5.0,0.28,,,,,,324.81645,FAIL,wheels off ground
171,s01_lqr_pitch_step,g000021_c1,21,,0.6462460376363547,0.01824617603866086,0.01696711212960812,0.6761146115525501,,,,,,,,,,11.8759,22.4067,1.8967,0.1,0.0,0.011174,0.0,5.0,0.2,,,,,,283.07755,FAIL,wheels off ground
172,s01_lqr_pitch_step,g000021_c2,21,,0.5717456062281218,0.022263546577455922,0.01424482925035386,1.0746821835580236,,,,,,,,,,10.2932,14.9572,1.3542,0.1,0.0,0.010082,0.0,5.0,0.189,,,,,,245.783225,FAIL,wheels off ground
173,s01_lqr_pitch_step,g000021_c3,21,,0.6383790047694895,0.026361081615905637,0.032306892558259075,1.0601854175584444,,,,,,,,,,14.8043,28.7039,3.7207,0.1,0.0,0.012019,0.0,5.0,0.375,,,,,,371.408325,FAIL,wheels off ground
174,s01_lqr_pitch_step,g000021_c4,21,,0.7344697866803418,0.016395151977880208,0.03219750579494225,1.1657936296574003,,,,,,,,,,11.7774,26.9545,6.169,0.1,0.0,0.01226,0.0,5.0,0.568,,,,,,456.467975,FAIL,wheels off ground
175,s01_lqr_pitch_step,g000021_c5,21,,0.47368289341899916,0.02178385454873497,0.021644813030489596,1.0149230711494113,,,,,,,,,,13.6496,20.75,1.7112,0.1,0.0,0.011031,0.0,5.0,0.212,,,,,,261.88565,FAIL,wheels off ground
176,s01_lqr_pitch_step,g000021_c6,21,,0.9077024595899414,0.021303733745597533,0.025851585120937663,1.6147675320878772,,,,,,,,,,1.6739,5.0,0.7239,0.1,0.0,0.008783,0.0,5.0,0.203,,,,,,218.12975,FAIL,wheels off ground
177,s01_lqr_pitch_step,g000021_c7,21,,0.7387864517440533,0.026343225139731686,0.02305741519367238,0.9849387426362833,,,,,,,,,,9.2673,16.7428,1.8631,0.1,0.0,0.011122,0.0,5.0,0.208,,,,,,312.4614,FAIL,wheels off ground
178,s01_lqr_pitch_step,g000022_c0,22,,0.6986382097367886,0.022513709969700618,0.020616634022255817,0.8692557392302392,,,,,,,,,,10.3114,19.4892,1.8132,0.1,0.0,0.010772,0.0,5.0,0.197,,,,,,280.315275,FAIL,wheels off ground
179,s01_lqr_pitch_step,g000022_c1,22,,0.5199726150555594,0.024427730187857724,0.021154381710262498,1.0148338619522979,,,,,,,,,,12.596,20.9398,2.1148,0.1,0.0,0.011133,0.0,5.0,0.207,,,,,,275.263825,FAIL,wheels off ground
180,s01_lqr_pitch_step,g000022_c2,22,,0.6940950286010925,0.02632352685511674,0.021357520447320644,1.0260175614142362,,,,,,,,,,12.1925,20.6904,2.1179,0.1,0.0,0.011176,0.0,5.0,0.208,,,,,,281.92665,FAIL,wheels off ground
181,s01_lqr_pitch_step,g000022_c3,22,,0.6977788259953918,0.022557456504140025,0.016784126574722735,1.091458994820951,,,,,,,,,,5.3238,13.2739,1.0681,0.1,0.0,0.008323,0.0,5.0,0.201,,,,,,237.972075,FAIL,wheels off ground
182,s01_lqr_pitch_step,g000022_c4,22,,0.8803631592819822,0.025465972255017563,0.02241250572847283,1.0520075032392433,,,,,,,,,,14.2727,21.1403,1.8231,0.1,0.0,0.010997,0.0,5.0,0.214,,,,,,260.654275,FAIL,wheels off ground
183,s01_lqr_pitch_step,g000022_c5,22,,0.6774422515117434,0.030584986312462037,0.019418811604934364,0.7857572274793646,,,,,,,,,,10.3715,21.2048,1.8634,0.1,0.0,0.011223,0.0,5.0,0.202,,,,,,292.96425,FAIL,wheels off ground
184,s01_lqr_pitch_step,g000022_c6,22,,0.7997990904122169,0.02422021644926692,0.02414496671737934,0.9262813155413364,,,,,,,,,,9.7332,19.0239,2.697,0.1,0.0,0.011482,0.0,5.0,0.271,,,,,,345.916675,FAIL,wheels off ground
185,s01_lqr_pitch_step,g000022_c7,22,,0.9265422197908737,0.02093380442073672,0.02165520800293622,1.0957049742592846,,,,,,,,,,13.7279,22.7138,1.977,0.1,0.0,0.011265,0.0,5.0,0.202,,,,,,262.184825,FAIL,wheels off ground
186,s01_lqr_pitch_step,g000023_c0,23,,0.7191500061813036,0.022854260054969697,0.02240730671831279,0.9202972400103155,,,,,,,,,,6.6432,12.1506,1.8023,0.1,0.0,0.009217,0.0,5.0,0.201,,,,,,306.97715,FAIL,wheels off ground
187,s01_lqr_pitch_step,g000023_c1,23,,0.8102925344730482,0.025967941622813493,0.016953196925210214,1.032150552574378,,,,,,,,,,4.46,6.9128,0.9235,0.1,0.0,0.008444,0.0,5.0,0.199,,,,,,241.253425,FAIL,wheels off ground
188,s01_lqr_pitch_step,g000023_c2,23,,0.705859920726887,0.027005736772437016,0.01972061272461797,1.1193333636681448,,,,,,,,,,8.2588,13.4036,1.4215,0.1,0.0,0.010106,0.0,5.0,0.196,,,,,,269.66475,FAIL,wheels off ground
189,s01_lqr_pitch_step,g000023_c3,23,,0.7926312714430446,0.024215583615621032,0.025824905966748805,0.9354830998077421,,,,,,,,,,10.5175,17.3807,2.8965,0.1,0.0,0.012349,0.0,5.0,0.34,,,,,,348.302825,FAIL,wheels off ground
190,s01_lqr_pitch_step,g000023_c4,23,,0.7765683636550322,0.025700687487394815,0.02493463967168841,0.9121744072324185,,,,,,,,,,9.5398,20.4802,6.8248,0.1,0.0,0.014197,0.0,5.0,0.655,,,,,,584.100775,FAIL,wheels off ground
191,s01_lqr_pitch_step,g000023_c5,23,,0.6654655877745838,0.028105799499191817,0.019909981078371674,0.996698891460238,,,,,,,,,,13.9868,23.8714,1.9912,0.1,0.0,0.011224,0.0,5.0,0.203,,,,,,264.201275,FAIL,wheels off ground
192,s01_lqr_pitch_step,g000023_c6,23,,0.8430560562988366,0.02416843072243598,0.01997691049547847,0.8993254465187198,,,,,,,,,,10.8911,17.3213,1.8413,0.1,0.0,0.011171,0.0,5.0,0.195,,,,,,276.907875,FAIL,wheels off ground
193,s01_lqr_pitch_step,g000023_c7,23,,0.5864182085723842,0.024608749418821862,0.022954311014379048,1.048320704525837,,,,,,,,,,10.4378,16.7853,1.7308,0.1,0.0,0.011379,0.0,5.0,0.191,,,,,,282.318725,FAIL,wheels off ground
194,s01_lqr_pitch_step,g000024_c0,24,,0.6940176103876552,0.019512356067344583,0.017759748070247664,1.12240011618876,,,,,,,,,,4.0507,5.8763,0.6966,0.1,0.0,0.008147,0.0,5.0,0.199,,,,,,227.585325,FAIL,wheels off ground
195,s01_lqr_pitch_step,g000024_c1,24,,0.6656523557220284,0.02451196733394784,0.021319651361070776,0.9095246213339807,,,,,,,,,,9.931,18.4109,2.7032,0.1,0.0,0.010581,0.0,5.0,0.266,,,,,,300.503,FAIL,wheels off ground
196,s01_lqr_pitch_step,g000024_c2,24,,0.7559444352953619,0.02224705441258821,0.020809920489467934,0.9956103564795671,,,,,,,,,,11.7139,20.7219,2.0969,0.1,0.0,0.011248,0.0,5.0,0.207,,,,,,305.305975,FAIL,wheels off ground
197,s01_lqr_pitch_step,g000024_c3,24,,0.7093549158702092,0.02035082255590461,0.029168317749933406,1.0082407368619821,,,,,,,,,,11.8708,23.1031,3.3749,0.1,0.0,0.012699,0.0,5.0,0.33,,,,,,348.367775,FAIL,wheels off ground
198,s01_lqr_pitch_step,g000024_c4,24,,0.8679135538972333,0.031009816513871215,0.024799687132376357,1.0645062751094045,,,,,,,,,,12.0433,17.361,1.534,0.1,0.0,0.010488,0.0,5.0,0.203,,,,,,263.868425,FAIL,wheels off ground
199,s01_lqr_pitch_step,g000024_c5,24,,0.7473622644463964,0.028205742035120197,0.01827474902298695,1.0075757415234154,,,,,,,,,,8.4773,13.7236,1.2538,0.1,0.0,0.010019,0.0,5.0,0.194,,,,,,265.709075,FAIL,wheels off ground
200,s01_lqr_pitch_step,g000024_c6,24,,0.7644179054663893,0.018813448587368584,0.019767862130239955,1.0751540844908845,,,,,,,,,,13.4654,22.502,1.9259,0.1,0.0,0.010927,0.0,5.0,0.202,,,,,,260.583425,FAIL,wheels off ground
201,s01_lqr_pitch_step,g000024_c7,24,,0.6252180562966763,0.027592134932559062,0.018932899064731643,0.8414956332182577,,,,,,,,,,11.9527,18.5815,1.9232,0.1,0.0,0.01113,0.0,5.0,0.197,,,,,,267.24695,FAIL,wheels off ground
202,s01_lqr_pitch_step,g000025_c0,25,,0.8682998027276861,0.024401175938281193,0.01871612506796668,0.9648107395748601,,,,,,,,,,13.6808,23.8827,1.8893,0.1,0.0,0.011268,0.0,5.0,0.198,,,,,,264.6397,FAIL,wheels off ground
203,s01_lqr_pitch_step,g000025_c1,25,,0.7844368013850086,0.024879930523745923,0.02123425485729854,0.9471081347456317,,,,,,,,,,11.7008,18.352,1.9112,0.1,0.0,0.011116,0.0,5.0,0.197,,,,,,269.4051,FAIL,wheels off ground
204,s01_lqr_pitch_step,g000025_c2,25,,0.7888171055762977,0.02076652243702507,0.020043168120977013,1.070624190573881,,,,,,,,,,13.349,22.3266,1.8696,0.1,0.0,0.011203,0.0,5.0,0.198,,,,,,261.3801,FAIL,wheels off ground
205,s01_lqr_pitch_step,g000025_c3,25,,0.7593479060625368,0.023054980840893757,0.02131816081490504,0.8953794254407266,,,,,,,,,,10.5374,18.9849,1.8398,0.1,0.0,0.010833,0.0,5.0,0.198,,,,,,275.617025,FAIL,wheels off ground
206,s01_lqr_pitch_step,g000025_c4,25,,0.7008780339783593,0.022346027318322567,0.020808910058330642,0.9987881690399012,,,,,,,,,,12.4128,20.7492,2.1152,0.1,0.0,0.011101,0.0,5.0,0.207,,,,,,276.52395,FAIL,wheels off ground
207,s01_lqr_pitch_step,g000025_c5,25,,0.7060838157997497,0.028844881832320445,0.02073387457034375,1.0242760442521335,,,,,,,,,,12.0788,19.68,1.981,0.1,0.0,0.011877,0.0,5.0,0.207,,,,,,292.1356,FAIL,wheels off ground
208,s01_lqr_pitch_step,g000025_c6,25,,0.8225342713961603,0.021288044362111968,0.018869265287805977,1.0010974346505408,,,,,,,,,,13.3254,21.1163,1.7346,0.1,0.0,0.011036,0.0,5.0,0.199,,,,,,257.9285,FAIL,wheels off ground
209,s01_lqr_pitch_step,g000025_c7,25,,0.7891442407183463,0.02350917530845236,0.02270727716713457,1.211272762432453,,,,,,,,,,13.7467,24.2298,1.8806,0.1,0.0,0.011047,0.0,5.0,0.2,,,,,,264.984025,FAIL,wheels off ground
210,s01_lqr_pitch_step,g000026_c0,26,,0.7397378737302781,0.024342486288621446,0.021354553605646108,0.8556556094921914,,,,,,,,,,11.2413,21.9166,1.8778,0.1,0.0,0.011266,0.0,5.0,0.2,,,,,,286.513525,FAIL,wheels off ground
211,s01_lqr_pitch_step,g000026_c1,26,,0.6200212994069436,0.02083128595977274,0.019591704278418266,1.0288646148298133,,,,,,,,,,13.578,23.222,1.825,0.1,0.0,0.01115,0.0,5.0,0.198,,,,,,262.84775,FAIL,wheels off ground
212,s01_lqr_pitch_step,g000026_c2,26,,0.6299929441251271,0.02493382813935845,0.020431949987491003,1.1778519863439298,,,,,,,,,,9.9776,18.3661,1.5018,0.1,0.0,0.009405,0.0,5.0,0.197,,,,,,263.955125,FAIL,wheels off ground
213,s01_lqr_pitch_step,g000026_c3,26,,0.8103395218192782,0.02127266686899966,0.01904884438297199,0.958689863964439,,,,,,,,,,13.9301,23.7793,1.9873,0.1,0.0,0.011202,0.0,5.0,0.202,,,,,,263.379025,FAIL,wheels off ground
214,s01_lqr_pitch_step,g000026_c4,26,,0.7148094711908407,0.02482068118962071,0.019288314928206634,1.1456859585799006,,,,,,,,,,5.0296,7.5595,1.1124,0.1,0.0,0.008563,0.0,5.0,0.194,,,,,,233.767375,FAIL,wheels off ground
215,s01_lqr_pitch_step,g000026_c5,26,,0.6628337589802799,0.02264601482008216,0.021663519796523985,1.0146792361283439,,,,,,,,,,16.002,28.9724,2.2985,0.1,0.0,0.011569,0.0,5.0,0.215,,,,,,271.633875,FAIL,wheels off ground
216,s01_lqr_pitch_step,g000026_c6,26,,0.7113115055558126,0.022382513424181308,0.02123558315337356,0.8792036348390929,,,,,,,,,,11.3606,19.4166,1.9748,0.1,0.0,0.01092,0.0,5.0,0.205,,,,,,272.0459,FAIL,wheels off ground
217,s01_lqr_pitch_step,g000026_c7,26,,0.6529235149058956,0.024769183251799217,0.02202788868882321,0.9942767786469632,,,,,,,,,,10.5901,17.0626,1.8118,0.1,0.0,0.011236,0.0,5.0,0.194,,,,,,285.1414,FAIL,wheels off ground
218,s01_lqr_pitch_step,g000027_c0,27,,0.7739227288924057,0.02223796077529572,0.02170027659001549,1.0159790218694322,,,,,,,,,,16.0648,27.333,2.1593,0.1,0.0,0.011324,0.0,5.0,0.214,,,,,,269.563775,FAIL,wheels off ground
219,s01_lqr_pitch_step,g000027_c1,27,,0.6935566397554429,0.026364763802263606,0.021804950141565818,1.0324518612663103,,,,,,,,,,11.8283,20.8905,2.1342,0.1,0.0,0.011174,0.0,5.0,0.209,,,,,,299.389875,FAIL,wheels off ground
220,s01_lqr_pitch_step,g000027_c2,27,,0.7540616149789013,0.02107556013178685,0.022400084502568137,0.9763999342876382,,,,,,,,,,8.9125,15.3102,1.4374,0.1,0.0,0.010479,0.0,5.0,0.193,,,,,,282.312575,FAIL,wheels off ground
221,s01_lqr_pitch_step,g000027_c3,27,,0.6547657410926302,0.021666923671987144,0.01738322834411589,0.992955803933733,,,,,,,,,,8.1259,13.2397,1.4179,0.1,0.0,0.010075,0.0,5.0,0.196,,,,,,272.013775,FAIL,wheels off ground
222,s01_lqr_pitch_step,g000027_c4,27,,0.7214392666140713,0.02356880374454562,0.021141810446361674,1.0061269770753873,,,,,,,,,,11.8001,20.8801,2.1297,0.1,0.0,0.011179,0.0,5.0,0.209,,,,,,301.384525,FAIL,wheels off ground
223,s01_lqr_pitch_step,g000027_c5,27,,0.802462544002566,0.020768051476626505,0.02010402460785922,0.9074676475470161,,,,,,,,,,10.9823,17.3471,1.8353,0.1,0.0,0.011221,0.0,5.0,0.195,,,,,,276.033275,FAIL,wheels off ground
224,s01_lqr_pitch_step,g000027_c6,27,,0.7803091216876987,0.024546497579511738,0.021911944185239795,0.9708919503199172,,,,,,,,,,11.8619,18.9537,2.0141,0.1,0.0,0.011037,0.0,5.0,0.202,,,,,,271.14945,FAIL,wheels off ground
225,s01_lqr_pitch_step,g000027_c7,27,,0.7809555050766721,0.024479947991245404,0.0240276823119231,1.0354673874659113,,,,,,,,,,12.7668,22.8309,1.9801,0.1,0.0,0.011014,0.0,5.0,0.202,,,,,,272.8854,FAIL,wheels off ground
226,s01_lqr_pitch_step,g000028_c0,28,,0.6987430710963292,0.024861175651275453,0.021546287512729564,1.0323931370910335,,,,,,,,,,12.5921,21.0726,2.099,0.1,0.0,0.011225,0.0,5.0,0.206,,,,,,277.158025,FAIL,wheels off ground
227,s01_lqr_pitch_step,g000028_c1,28,,0.6869918456218622,0.02383350315700726,0.022195103505252202,1.0339897637428852,,,,,,,,,,15.7531,26.0459,2.0861,0.1,0.0,0.011231,0.0,5.0,0.214,,,,,,267.9762,FAIL,wheels off ground
228,s01_lqr_pitch_step,g000028_c2,28,,0.7169463335475005,0.023077194043988745,0.019823351809907148,1.0018331247952794,,,,,,,,,,13.8557,24.02,1.8774,0.1,0.0,0.011289,0.0,5.0,0.199,,,,,,264.750075,FAIL,wheels off ground
229,s01_lqr_pitch_step,g000028_c3,28,,0.7348544415625698,0.02145144150920148,0.02157305876831881,0.9949817398884163,,,,,,,,,,10.5098,16.4347,1.6983,0.1,0.0,0.011172,0.0,5.0,0.191,,,,,,270.84235,FAIL,wheels off ground
230,s01_lqr_pitch_step,g000028_c4,28,,0.7595946707590172,0.022037530928493917,0.018671793533420872,0.9484817651344153,,,,,,,,,,13.7573,23.867,1.9123,0.1,0.0,0.011301,0.0,5.0,0.199,,,,,,265.024975,FAIL,wheels off ground
231,s01_lqr_pitch_step,g000028_c5,28,,0.7083182095623709,0.023502086831598667,0.02049638190109865,1.0011625622582139,,,,,,,,,,12.7252,20.111,1.9805,0.1,0.0,0.011901,0.0,5.0,0.205,,,,,,271.170675,FAIL,wheels off ground
232,s01_lqr_pitch_step,g000028_c6,28,,0.731546809740727,0.022084656058158188,0.021957437001456588,0.9886422134958488,,,,,,,,,,11.1907,17.6282,1.8539,0.1,0.0,0.011163,0.0,5.0,0.195,,,,,,272.8247,FAIL,wheels off ground
233,s01_lqr_pitch_step,g000028_c7,28,,0.6873559181986458,0.02305192368670658,0.019100175804757293,0.9263972024673999,,,,,,,,,,11.6179,20.4906,2.0692,0.1,0.0,0.011671,0.0,5.0,0.206,,,,,,303.266225,FAIL,wheels off ground
234,s01_lqr_pitch_step,g000029_c0,29,,0.6971491931997402,0.024644987944337966,0.02213605745593773,1.042732563066528,,,,,,,,,,9.7748,20.5903,4.4667,0.1,0.0,0.011833,0.0,5.0,0.525,,,,,,420.946575,FAIL,wheels off ground
235,s01_lqr_pitch_step,g000029_c1,29,,0.7116752697609076,0.022402306638730347,0.0202038442376028,1.0488135045565192,,,,,,,,,,13.7115,22.9623,1.9501,0.1,0.0,0.011206,0.0,5.0,0.201,,,,,,261.841075,FAIL,wheels off ground
236,s01_lqr_pitch_step,g000029_c2,29,,0.7729280209720075,0.02467696365264703,0.020516603101104952,0.9675052499700844,,,,,,,,,,11.1524,20.4407,2.0089,0.1,0.0,0.011376,0.0,5.0,0.212,,,,,,311.748125,FAIL,wheels off ground
237,s01_lqr_pitch_step,g000029_c3,29,,0.6867575500598944,0.024259324007041255,0.02130859775031294,1.0017455966210504,,,,,,,,,,16.2304,28.7489,2.2436,0.1,0.0,0.01151,0.0,5.0,0.215,,,,,,271.133725,FAIL,wheels off ground
238,s01_lqr_pitch_step,g000029_c4,29,,0.7674027529419316,0.02192793936160327,0.022024606665851824,1.0406973445238306,,,,,,,,,,11.7517,20.878,2.1456,0.1,0.0,0.011181,0.0,5.0,0.21,,,,,,302.567125,FAIL,wheels off ground
239,s01_lqr_pitch_step,g000029_c5,29,,0.7138666448480456,0.02433190313839676,0.02180361639620085,0.987591089695006,,,,,,,,,,10.6244,16.8407,1.8184,0.1,0.0,0.011157,0.0,5.0,0.195,,,,,,279.959075,FAIL,wheels off ground
240,s01_lqr_pitch_step,g000029_c6,29,,0.7078347586900354,0.024490925313377945,0.02097530508852232,1.020285779088519,,,,,,,,,,14.322,24.5059,2.0607,0.1,0.0,0.011207,0.0,5.0,0.207,,,,,,265.820875,FAIL,wheels off ground
241,s01_lqr_pitch_step,g000029_c7,29,,0.7179695494890801,0.024016611986842514,0.02025467105031088,0.9518256049134066,,,,,,,,,,11.2511,20.5723,1.9941,0.1,0.0,0.011444,0.0,5.0,0.212,,,,,,310.402225,FAIL,wheels off ground
242,s01_lqr_pitch_step,g000030_c0,30,,0.7058309546692524,0.02300179770788658,0.021679430919346827,1.0118191312211962,,,,,,,,,,16.0228,26.8473,2.1274,0.1,0.0,0.011274,0.0,5.0,0.215,,,,,,269.65545,FAIL,wheels off ground
243,s01_lqr_pitch_step,g000030_c1,30,,0.6786674066609915,0.0221581577692169,0.021700977773646088,1.028593814739536,,,,,,,,,,11.4453,20.6706,2.1548,0.1,0.0,0.011139,0.0,5.0,0.211,,,,,,314.31965,FAIL,wheels off ground
244,s01_lqr_pitch_step,g000030_c2,30,,0.6751043915967376,0.023260723622688384,0.01972811079329534,1.0266743212152047,,,,,,,,,,13.7457,24.077,1.8983,0.1,0.0,0.01124,0.0,5.0,0.199,,,,,,264.82785,FAIL,wheels off ground
245,s01_lqr_pitch_step,g000030_c3,30,,0.6981271003010101,0.02261620415374888,0.021398583242277832,1.0231144631397346,,,,,,,,,,11.707,20.7191,2.0967,0.1,0.0,0.011251,0.0,5.0,0.207,,,,,,305.7186,FAIL,wheels off ground
246,s01_lqr_pitch_step,g000030_c4,30,,0.7083182558578952,0.023852706590031213,0.02001766380421429,0.9954938614434854,,,,,,,,,,12.5817,20.0212,1.9587,0.1,0.0,0.011796,0.0,5.0,0.204,,,,,,273.284975,FAIL,wheels off ground
247,s01_lqr_pitch_step,g000030_c5,30,,0.7001387610567198,0.023066012378700915,0.02158255083454842,0.9915151066213336,,,,,,,,,,10.2392,16.5533,1.7074,0.1,0.0,0.011302,0.0,5.0,0.191,,,,,,281.57335,FAIL,wheels off ground
248,s01_lqr_pitch_step,g000030_c6,30,,0.7266809215433458,0.0240072913877096,0.021378862888936763,1.051441846894217,,,,,,,,,,14.1258,23.5584,2.0632,0.1,0.0,0.011196,0.0,5.0,0.207,,,,,,263.656925,FAIL,wheels off ground
249,s01_lqr_pitch_step,g000030_c7,30,,0.7046056153538606,0.02320764487981275,0.02116399060050927,0.9979818153186709,,,,,,,,,,11.7593,20.8852,2.1461,0.1,0.0,0.01118,0.0,5.0,0.21,,,,,,302.4445,FAIL,wheels off ground
250,s01_lqr_pitch_step,g000031_c0,31,,0.725505679777079,0.023547904212241358,0.02001707686732998,0.9641925073979826,,,,,,,,,,11.863,20.5133,2.0964,0.1,0.0,0.011336,0.0,5.0,0.207,,,,,,290.0985,FAIL,wheels off ground
251,s01_lqr_pitch_step,g000031_c1,31,,0.7188124949784798,0.022956740604876104,0.020071863737923957,0.993334150995394,,,,,,,,,,12.8967,20.1656,1.9789,0.1,0.0,0.011735,0.0,5.0,0.205,,,,,,267.09705,FAIL,wheels off ground
252,s01_lqr_pitch_step,g000031_c2,31,,0.7146117044134358,0.02259318867194599,0.01987409952643706,1.0359604489296395,,,,,,,,,,13.6982,23.4512,1.9172,0.1,0.0,0.011209,0.0,5.0,0.2,,,,,,263.367575,FAIL,wheels off ground
253,s01_lqr_pitch_step,g000031_c3,31,,0.7409343071707633,0.023762084198178286,0.02113995352220912,0.96862438047347,,,,,,,,,,10.2967,16.6287,1.7292,0.1,0.0,0.011314,0.0,5.0,0.192,,,,,,282.2043,FAIL,wheels off ground
254,s01_lqr_pitch_step,g000031_c4,31,,0.7202775696842437,0.023074792539937702,0.020444178552957378,0.9607399002193063,,,,,,,,,,12.8754,20.5521,1.6333,0.1,0.0,0.011125,0.0,5.0,0.212,,,,,,266.716725,FAIL,wheels off ground
255,s01_lqr_pitch_step,g000031_c5,31,,0.7390559009984211,0.02420015749216055,0.019934900017180027,1.0073637690134962,,,,,,,,,,13.7513,23.3301,1.9412,0.1,0.0,0.011309,0.0,5.0,0.2,,,,,,263.425325,FAIL,wheels off ground
256,s01_lqr_pitch_step,g000031_c6,31,,0.6968184298506376,0.023865710086983676,0.0205578774197005,0.9645869737396993,,,,,,,,,,15.4541,24.3124,2.0118,0.1,0.0,0.011094,0.0,5.0,0.215,,,,,,264.36455,FAIL,wheels off ground
257,s01_lqr_pitch_step,g000031_c7,31,,0.7464672494903865,0.022956068369218683,0.021283174984218764,1.03693809383654,,,,,,,,,,12.8189,20.304,1.5296,0.1,0.0,0.011276,0.0,5.0,0.207,,,,,,262.84365,FAIL,wheels off ground
258,s01_lqr_pitch_step,g000032_c0,32,,0.7308639108143493,0.023387372039922354,0.020743865129861212,0.9881452799331296,,,,,,,,,,12.1807,20.9044,2.1198,0.1,0.0,0.011147,0.0,5.0,0.208,,,,,,286.130375,FAIL,wheels off ground
259,s01_lqr_pitch_step,g000032_c1,32,,0.7322863024134841,0.023603054408975446,0.02085889466017548,1.008573377471681,,,,,,,,,,11.3949,20.4364,2.0617,0.1,0.0,0.011786,0.0,5.0,0.207,,,,,,313.72695,FAIL,wheels off ground
260,s01_lqr_pitch_step,g000032_c2,32,,0.7523177496199868,0.024074013646260856,0.020791059529918412,1.027951901292454,,,,,,,,,,11.6342,19.5857,1.9059,0.1,0.0,0.011786,0.0,5.0,0.206,,,,,,302.45645,FAIL,wheels off ground
261,s01_lqr_pitch_step,g000032_c3,32,,0.7233878728620795,0.023183555214222273,0.020761919910896858,0.9789620132265743,,,,,,,,,,11.6094,20.8444,2.141,0.1,0.0,0.011189,0.0,5.0,0.21,,,,,,311.218425,FAIL,wheels off ground
262,s01_lqr_pitch_step,g000032_c4,32,,0.7061989560357134,0.023197121425628478,0.020764370364146172,0.9907058287243429,,,,,,,,,,11.5367,20.6634,2.0961,0.1,0.0,0.0112,0.0,5.0,0.207,,,,,,312.880475,FAIL,wheels off ground
263,s01_lqr_pitch_step,g000032_c5,32,,0.7021911759178125,0.023122743844502736,0.02130468415397346,0.9712980530639167,,,,,,,,,,10.8847,16.7594,1.7599,0.1,0.0,0.011289,0.0,5.0,0.192,,,,,,271.497525,FAIL,wheels off ground
264,s01_lqr_pitch_step,g000032_c6,32,,0.7275106913252204,0.023055670570892424,0.020744623205908006,0.9484066400626908,,,,,,,,,,10.7698,16.714,1.7237,0.1,0.0,0.01136,0.0,5.0,0.191,,,,,,271.568275,FAIL,wheels off ground
265,s01_lqr_pitch_step,g000032_c7,32,,0.6992392963447397,0.02327932712499227,0.02001159791636984,0.9720508222375187,,,,,,,,,,13.4469,20.3286,1.669,0.1,0.0,0.011187,0.0,5.0,0.206,,,,,,259.683975,FAIL,wheels off ground
266,s01_lqr_pitch_step,g000033_c0,33,,0.7513836355882066,0.022911152511238528,0.02100128402346866,1.0260811238199705,,,,,,,,,,14.3762,24.4882,2.0743,0.1,0.0,0.011218,0.0,5.0,0.208,,,,,,265.48735,FAIL,wheels off ground
267,s01_lqr_pitch_step,g000033_c1,33,,0.7113185004821798,0.023035292693000302,0.0208022660296577,0.976142754016589,,,,,,,,,,15.955,28.9803,2.285,0.1,0.0,0.01157,0.0,5.0,0.214,,,,,,271.677925,FAIL,wheels off ground
268,s01_lqr_pitch_step,g000033_c2,33,,0.7075192707597123,0.022866612447937276,0.021630831645261243,0.9756341631885835,,,,,,,,,,10.9961,17.423,1.8521,0.1,0.0,0.011194,0.0,5.0,0.196,,,,,,276.46565,FAIL,wheels off ground
269,s01_lqr_pitch_step,g000033_c3,33,,0.6808063976106423,0.02420426570042382,0.02063646092284186,1.0074736225706589,,,,,,,,,,13.1428,20.3105,1.5981,0.1,0.0,0.011211,0.0,5.0,0.206,,,,,,260.360475,FAIL,wheels off ground
270,s01_lqr_pitch_step,g000033_c4,33,,0.7041685776475479,0.022236936686601393,0.020801678001824635,1.013204654748088,,,,,,,,,,14.7475,26.4602,2.0726,0.1,0.0,0.011179,0.0,5.0,0.208,,,,,,269.316325,FAIL,wheels off ground
271,s01_lqr_pitch_step,g000033_c5,33,,0.7444770850964015,0.02285648299043441,0.02069320394698517,1.039661221697447,,,,,,,,,,14.2555,25.1655,2.0125,0.1,0.0,0.011187,0.0,5.0,0.204,,,,,,266.29425,FAIL,wheels off ground
272,s01_lqr_pitch_step,g000033_c6,33,,0.7008645926428357,0.023574198441496892,0.021352617839594464,1.0049265474824347,,,,,,,,,,11.9534,20.3835,1.7384,0.1,0.0,0.011333,0.0,5.0,0.213,,,,,,278.9788,FAIL,wheels off ground
273,s01_lqr_pitch_step,g000033_c7,33,,0.7178964850254892,0.02359818421002896,0.020784004096261743,0.9824187536092476,,,,,,,,,,11.6639,20.863,2.1428,0.1,0.0,0.01118,0.0,5.0,0.21,,,,,,307.560925,FAIL,wheels off ground
274,s01_lqr_pitch_step,g000034_c0,34,,0.7106265974457,0.02404217018298623,0.020573281918987447,0.9802160901667568,,,,,,,,,,11.4997,20.6712,2.1068,0.1,0.0,0.011189,0.0,5.0,0.208,,,,,,314.711175,FAIL,wheels off ground
275,s01_lqr_pitch_step,g000034_c1,34,,0.7130272208115478,0.023288959715634567,0.020978934673395955,1.021780331679384,,,,,,,,,,12.7878,20.0947,2.0146,0.1,0.0,0.01166,0.0,5.0,0.207,,,,,,269.127225,FAIL,wheels off ground
276,s01_lqr_pitch_step,g000034_c2,34,,0.7275666959557159,0.02277076064241954,0.021746899084583327,1.0208932955063337,,,,,,,,,,16.0686,26.897,2.1389,0.1,0.0,0.011245,0.0,5.0,0.215,,,,,,269.083075,FAIL,wheels off ground
