run_id,scenario,label,gen,timestamp,Q_PITCH,Q_PITCH_RATE,Q_VEL,R,KP_V,KI_V,KFF_V,KP_YAW,KI_YAW,LEG_K_S,LEG_B_S,LEG_K_ROLL,LEG_D_ROLL,rms_pitch_deg,max_pitch_deg,wheel_travel_m,wheel_liftoff_s,vel_track_rms_ms,hip_track_rms_rad,hip_cmd_rate_rms,settle_time_s,survived_s,fitness_balance,fitness_disturbance,fitness_drive_slow,fitness_drive_med,fitness_obstacle,fitness,status,fail_reason
1,s08_terrain_compliance,evo_seed,0,,,,,,,,,,,8.74376,0.0125435,29.0288,0.0372484,5.6596,15.5625,17.9896,1.518,1.4681,0.069771,8.9819,0.992,12.0,,,,,,2.075246,PASS,
2,s08_terrain_compliance,g000000_c0,0,,,,,,,,,,,40.01661076907423,0.01,195.10701686117037,0.044279116986576564,7.3818,16.3309,32.6742,7.408,3.3774,0.111687,29.9817,12.0,12.0,,,,,,18.604946,PASS,
3,s08_terrain_compliance,g000000_c1,0,,,,,,,,,,,7.218064740905203,0.01,15.355786174929491,0.016024083419372948,4.2386,15.2326,14.636,0.448,0.7264,0.034695,3.0718,0.992,12.0,,,,,,2.213694,PASS,
4,s08_terrain_compliance,g000000_c2,0,,,,,,,,,,,0.1,0.01,5.324765250938977,0.004563271309379832,3.7604,12.1837,13.8031,0.27,0.448,0.020515,0.854,0.992,12.0,,,,,,7.67323,PASS,
5,s08_terrain_compliance,g000000_c3,0,,,,,,,,,,,1.289794053003648,0.3341566988234621,124.20136585309166,0.0019174721930773503,3.78,12.5642,13.9257,0.284,0.4795,0.010025,11.7783,0.992,12.0,,,,,,7.280768,PASS,
6,s08_terrain_compliance,g000000_c4,0,,,,,,,,,,,69.67881404804996,0.0628803452635698,372.81960098306195,0.05521852747108611,8.0942,17.893,43.8409,8.228,5.0074,0.130181,30.2264,12.0,12.0,,,,,,18.509467,PASS,
7,s08_terrain_compliance,g000000_c5,0,,,,,,,,,,,5.386016729523712,0.01,197.72605526534042,0.0016815476341022287,3.6408,16.2851,13.8369,0.39,0.5786,0.052971,21.3062,1.0,12.0,,,,,,5.502569,PASS,
8,s08_terrain_compliance,g000000_c6,0,,,,,,,,,,,1.1044593730827794,0.14654721779916802,8.292551648799549,0.03978543843878912,3.7745,12.4154,13.8418,0.284,0.4619,0.011856,1.2172,0.992,12.0,,,,,,7.386072,PASS,
9,s08_terrain_compliance,g000000_c7,0,,,,,,,,,,,84.21448630566339,0.48992969956966825,21.401099710972677,0.020775997401741065,3.6928,15.1784,14.3852,0.476,0.756,0.020879,3.8375,0.912,12.0,,,,,,5.748181,PASS,
10,s08_terrain_compliance,g000001_c0,1,,,,,,,,,,,2.9204188914344256,0.01,351.8530622269383,0.3454921380137643,3.9924,13.8081,14.6232,0.314,0.8467,0.046608,26.6695,0.992,12.0,,,,,,7.486278,PASS,
11,s08_terrain_compliance,g000001_c1,1,,,,,,,,,,,32.19587219381681,0.01,499.99999999999994,0.5829882154728803,15.0285,44.2131,14.6049,1.816,7.8605,0.116192,33.1001,12.0,3.248,,,,,,345.137347,FAIL,fell over
12,s08_terrain_compliance,g000001_c2,1,,,,,,,,,,,100.0,0.017609548206615325,261.41080728741457,0.2264133355822523,7.4678,25.8215,35.1938,5.6,4.197,0.089954,34.0789,12.0,12.0,,,,,,15.716254,PASS,
13,s08_terrain_compliance,g000001_c3,1,,,,,,,,,,,5.41790147189578,0.01,113.62515735308253,0.0017596821473530883,4.9481,15.6539,15.2026,0.378,0.8895,0.065649,16.2847,0.992,12.0,,,,,,2.742922,PASS,
14,s08_terrain_compliance,g000001_c4,1,,,,,,,,,,,0.530112847988218,0.01,130.5390198783904,0.11711190881878845,3.7556,12.2485,13.8,0.282,0.4473,0.018914,12.0569,0.992,12.0,,,,,,7.512942,PASS,
15,s08_terrain_compliance,g000001_c5,1,,,,,,,,,,,28.79833733931741,1.4876542623874718,0.23344796058392062,0.07427561971696595,3.7,12.9061,13.8581,0.296,0.4599,0.008446,0.1584,0.992,12.0,,,,,,6.11588,PASS,
16,s08_terrain_compliance,g000001_c6,1,,,,,,,,,,,21.022730848572355,0.047131886107446605,23.99588339020406,0.011297728957097615,5.5731,15.0442,19.2202,2.378,1.9673,0.071992,13.2747,0.992,12.0,,,,,,1.847347,PASS,
17,s08_terrain_compliance,g000001_c7,1,,,,,,,,,,,0.1,0.01,499.99999999999994,1.1507142639067829,3.7816,12.2199,13.8135,0.29,0.4529,0.020764,34.4797,0.992,12.0,,,,,,7.635706,PASS,
18,s08_terrain_compliance,g000002_c0,2,,,,,,,,,,,49.4080630647172,0.01,138.99352225987326,0.003658096227083558,8.0122,15.8683,41.1977,8.612,4.4926,0.122169,27.9659,12.0,12.0,,,,,,17.883635,PASS,
19,s08_terrain_compliance,g000002_c1,2,,,,,,,,,,,4.03280080924827,0.01,29.04388101031095,0.002639473459887751,4.0138,14.7873,14.4992,0.306,0.7242,0.040265,3.5938,0.992,12.0,,,,,,3.360848,PASS,
20,s08_terrain_compliance,g000002_c2,2,,,,,,,,,,,53.20797010493463,0.01,33.95405736408248,0.08327092137629821,4.1087,16.4911,15.1101,0.524,1.0603,0.021613,5.5926,0.992,12.0,,,,,,5.394351,PASS,
21,s08_terrain_compliance,g000002_c3,2,,,,,,,,,,,9.325927006431366,0.09119036656238497,15.566247678112417,0.13288842202538192,4.088,15.4651,14.412,0.3,0.745,0.024438,1.8741,0.992,12.0,,,,,,1.926437,PASS,
22,s08_terrain_compliance,g000002_c4,2,,,,,,,,,,,100.0,0.11520016696901447,0.010314535123602116,0.11056929830208156,3.6448,13.1622,13.8067,0.286,0.4306,0.006702,0.2027,0.992,12.0,,,,,,6.139115,PASS,
23,s08_terrain_compliance,g000002_c5,2,,,,,,,,,,,1.0072534326650013,0.03712808779002985,5.496865750459146,0.014489995445664245,3.7771,12.3384,13.8339,0.276,0.4577,0.015698,0.9306,0.992,12.0,,,,,,7.276027,PASS,
24,s08_terrain_compliance,g000002_c6,2,,,,,,,,,,,0.9850700468561712,0.09685748476965482,156.1247226791825,0.5003657579820364,3.7723,12.3248,13.8322,0.282,0.4581,0.013318,14.1184,0.992,12.0,,,,,,7.39451,PASS,
25,s08_terrain_compliance,g000002_c7,2,,,,,,,,,,,31.1281618617173,45.372515758841914,9.201928247686423,0.004147561144664621,4.1863,14.6366,14.8559,0.63,1.1699,0.011132,1.6983,12.0,12.0,,,,,,11.97074,PASS,
26,s08_terrain_compliance,g000003_c0,3,,,,,,,,,,,3.151930059718578,0.01,0.16002822015828022,0.018416776460437802,3.786,12.7458,13.8521,0.282,0.4595,0.016962,0.1157,0.992,12.0,,,,,,7.408798,PASS,
27,s08_terrain_compliance,g000003_c1,3,,,,,,,,,,,100.0,12.40878975819061,43.68153484884842,0.0002166438913873495,3.8252,13.3448,14.6262,0.512,0.8435,0.027184,5.7257,0.992,12.0,,,,,,4.54456,PASS,
28,s08_terrain_compliance,g000003_c2,3,,,,,,,,,,,22.00515528395936,0.01,24.032489531348713,0.008231699537781589,6.1141,16.6398,19.6107,3.648,1.9877,0.081984,14.6321,0.998,12.0,,,,,,4.194344,PASS,
29,s08_terrain_compliance,g000003_c3,3,,,,,,,,,,,86.07613009172253,0.01,14.211022123140488,0.008665954574640542,6.9998,17.7135,27.7372,4.578,2.9749,0.036496,13.1551,12.0,12.0,,,,,,3.160155,PASS,
30,s08_terrain_compliance,g000003_c4,3,,,,,,,,,,,3.4943277852059085,0.01,5.9495718353293805,0.0008758959199141485,3.9079,13.5182,14.585,0.304,0.8445,0.033596,1.1159,0.992,12.0,,,,,,7.227535,PASS,
31,s08_terrain_compliance,g000003_c5,3,,,,,,,,,,,100.0,0.01,499.99999999999994,0.008814883255707532,9.0263,26.3517,55.2744,9.3,6.1861,0.142668,28.0543,12.0,12.0,,,,,,21.477689,PASS,
32,s08_terrain_compliance,g000003_c6,3,,,,,,,,,,,9.579991929213856,0.03646393180184633,289.2902615137624,0.8608476144297982,4.005,15.8215,14.574,0.356,0.7503,0.030615,26.5679,0.992,12.0,,,,,,2.730754,PASS,
33,s08_terrain_compliance,g000003_c7,3,,,,,,,,,,,21.299837094851306,0.4178344036085681,499.99999999999994,0.00540726409211089,5.7504,18.3569,19.9191,1.492,2.0084,0.109302,40.543,12.0,12.0,,,,,,17.686498,PASS,
34,s08_terrain_compliance,g000004_c0,4,,,,,,,,,,,6.161778436887205,0.1809762628403083,2.350840675686354,0.00197603865148618,3.8886,14.1684,14.4852,0.316,0.7175,0.015982,0.4453,0.992,12.0,,,,,,5.441145,PASS,
35,s08_terrain_compliance,g000004_c1,4,,,,,,,,,,,0.6482798636130187,0.01868147046310175,0.1019157835429089,0.0008039327164679989,3.7777,12.1505,13.807,0.31,0.4511,0.020218,0.0283,0.992,12.0,,,,,,7.739709,PASS,
36,s08_terrain_compliance,g000004_c2,4,,,,,,,,,,,5.823684277546945,0.18444530552435048,158.0150067687542,0.02696308994029074,3.5061,14.0311,13.4331,0.334,0.3846,0.033515,20.4082,0.98,12.0,,,,,,2.43305,PASS,
37,s08_terrain_compliance,g000004_c3,4,,,,,,,,,,,46.94176511680316,0.01,117.21082673305362,0.09649907891084267,8.13,31.8146,11.0835,1.738,6.0051,0.106006,27.0527,12.0,3.182,,,,,,344.919372,FAIL,fell over
38,s08_terrain_compliance,g000004_c4,4,,,,,,,,,,,3.546159495518339,0.01,28.4912144770816,0.007736173593746226,4.1769,14.3161,14.6671,0.3,0.7831,0.045731,3.8169,0.992,12.0,,,,,,4.970831,PASS,
39,s08_terrain_compliance,g000004_c5,4,,,,,,,,,,,2.312363049690188,0.1304492892032173,17.030565522292772,0.42655340099024924,3.8208,12.9916,14.2557,0.294,0.6078,0.016663,2.7731,0.992,12.0,,,,,,6.013816,PASS,
40,s08_terrain_compliance,g000004_c6,4,,,,,,,,,,,100.0,0.46094108624807584,11.849292452494009,0.20153556203467915,4.0496,14.8073,14.6058,0.352,0.83,0.017268,2.3627,0.992,12.0,,,,,,4.064066,PASS,
41,s08_terrain_compliance,g000004_c7,4,,,,,,,,,,,1.7785374676570103,0.05893444776964712,0.1777392219665327,0.0062962736933848944,3.7908,12.5,13.8294,0.278,0.4611,0.0161,0.0587,0.992,12.0,,,,,,7.316624,PASS,
42,s08_terrain_compliance,g000005_c0,5,,,,,,,,,,,100.0,0.11425292599596776,1.8580288807243892,0.10318437666907382,3.871,13.509,14.0903,0.302,0.5528,0.009532,0.3363,0.992,12.0,,,,,,4.122302,PASS,
43,s08_terrain_compliance,g000005_c1,5,,,,,,,,,,,0.7742827968501945,0.10129899621536084,499.99999999999994,0.038755577288400025,3.7847,12.4385,13.8437,0.274,0.4633,0.013776,35.2069,0.992,12.0,,,,,,7.432218,PASS,
44,s08_terrain_compliance,g000005_c2,5,,,,,,,,,,,100.0,0.01,37.2853639378298,0.43603413192723084,4.4431,18.5367,15.3104,0.52,1.2928,0.021891,19.4648,0.946,12.0,,,,,,6.731258,PASS,
45,s08_terrain_compliance,g000005_c3,5,,,,,,,,,,,0.5029637047923066,0.06557923988807518,80.94780832476981,0.0005902258477970258,3.7642,12.1419,13.8125,0.27,0.4535,0.015369,8.3394,0.992,12.0,,,,,,7.420208,PASS,
46,s08_terrain_compliance,g000005_c4,5,,,,,,,,,,,26.15485163309443,0.05657919676501099,2.1605030292678244,0.2534719935789087,3.4617,13.2155,13.6122,0.294,0.4024,0.013588,0.5144,0.992,12.0,,,,,,3.158188,PASS,
47,s08_terrain_compliance,g000005_c5,5,,,,,,,,,,,37.32315484979864,0.01229421924520475,29.347287371081627,0.3553110166357122,3.5966,13.137,14.0585,0.356,0.6871,0.018973,4.7113,0.992,12.0,,,,,,2.572447,PASS,
48,s08_terrain_compliance,g000005_c6,5,,,,,,,,,,,5.151559404969511,0.043206150658807466,346.7835446595394,0.0006402127832580133,3.9578,15.0164,14.4,0.308,0.6949,0.054961,25.2913,0.992,12.0,,,,,,1.719959,PASS,
49,s08_terrain_compliance,g000005_c7,5,,,,,,,,,,,100.0,0.040501473850299695,25.562395531781686,0.03995361281324115,3.7879,14.334,15.6388,0.652,1.1798,0.020871,5.574,1.17,12.0,,,,,,4.357939,PASS,
50,s08_terrain_compliance,g000006_c0,6,,,,,,,,,,,12.211311935224881,0.01,407.1777355657691,0.0007872922187209636,6.3717,15.4375,20.8023,4.422,2.1099,0.109865,27.2987,12.0,12.0,,,,,,6.124989,PASS,
51,s08_terrain_compliance,g000006_c1,6,,,,,,,,,,,0.7869063217221944,0.05244857956974236,499.99999999999994,0.00044107874780549355,3.7898,12.3817,13.8376,0.274,0.4611,0.015754,34.7312,0.992,12.0,,,,,,7.604358,PASS,
52,s08_terrain_compliance,g000006_c2,6,,,,,,,,,,,0.1468098705883494,0.8604148232826019,499.99999999999994,0.0001,3.8039,12.855,14.0226,0.294,0.5095,0.00913,35.8362,0.994,12.0,,,,,,7.383736,PASS,
53,s08_terrain_compliance,g000006_c3,6,,,,,,,,,,,12.968302312641972,0.04887365351584167,499.99999999999994,0.0001,6.2505,17.4576,21.1545,3.698,2.1686,0.108046,28.425,12.0,12.0,,,,,,17.232962,PASS,
54,s08_terrain_compliance,g000006_c4,6,,,,,,,,,,,7.4938002152816265,2.5433901550681957,172.43595429550214,0.0021182413800564085,3.7969,12.629,14.6553,0.38,0.8312,0.016215,15.28,0.994,12.0,,,,,,6.424481,PASS,
55,s08_terrain_compliance,g000006_c5,6,,,,,,,,,,,9.375743164560769,0.08055929895363056,69.5874916032954,0.22161297662467142,4.0409,15.4733,14.2274,0.302,0.6452,0.027198,8.1156,0.992,12.0,,,,,,1.745668,PASS,
56,s08_terrain_compliance,g000006_c6,6,,,,,,,,,,,50.56579584493012,0.01,69.59163302756384,0.0001,7.8243,20.2056,37.9847,8.354,4.231,0.109103,25.2522,12.0,12.0,,,,,,33.811908,PASS,
57,s08_terrain_compliance,g000006_c7,6,,,,,,,,,,,15.94897535717569,0.39489626560943314,499.99999999999994,0.001242643550497682,4.1899,15.0641,16.4277,0.678,1.309,0.102207,38.2746,12.0,12.0,,,,,,10.775258,PASS,
58,s08_terrain_compliance,g000007_c0,7,,,,,,,,,,,15.64963887696653,0.7989520390905896,46.588404842781294,0.00030929282232727465,3.7943,14.3727,14.4195,0.32,0.7159,0.022537,5.5719,0.992,12.0,,,,,,3.734509,PASS,
59,s08_terrain_compliance,g000007_c1,7,,,,,,,,,,,0.1,0.3936867692148207,426.38618750212197,0.0010473565884211154,3.7947,12.6657,13.8944,0.284,0.4745,0.010918,30.6067,0.992,12.0,,,,,,7.361752,PASS,
60,s08_terrain_compliance,g000007_c2,7,,,,,,,,,,,0.45758928625037826,0.15391566433667964,243.8435518810777,0.0216175569324093,3.7993,12.5847,13.8383,0.284,0.4625,0.01313,19.5814,0.992,12.0,,,,,,7.645774,PASS,
61,s08_terrain_compliance,g000007_c3,7,,,,,,,,,,,8.182111727109671,0.038862433893208724,499.99999999999994,0.0001,6.2893,20.0282,22.1228,3.61,2.0442,0.100064,24.1773,12.0,12.0,,,,,,20.939306,PASS,
62,s08_terrain_compliance,g000007_c4,7,,,,,,,,,,,0.6034606389393398,0.38720239883068125,3.63448652012139,0.0001,3.738,12.2576,13.847,0.288,0.4591,0.010187,0.5992,0.992,12.0,,,,,,7.328699,PASS,
63,s08_terrain_compliance,g000007_c5,7,,,,,,,,,,,0.5219352707389757,1.0881151854400037,499.99999999999994,0.0005363521098991329,3.7868,12.6266,14.0456,0.296,0.5211,0.008606,35.3533,0.992,12.0,,,,,,7.345492,PASS,
64,s08_terrain_compliance,g000007_c6,7,,,,,,,,,,,0.1,0.01,60.88372159537697,0.009817771426678626,3.7218,12.2391,13.7827,0.266,0.4432,0.019843,6.626,0.992,12.0,,,,,,7.641544,PASS,
65,s08_terrain_compliance,g000007_c7,7,,,,,,,,,,,3.738681299286274,0.01,163.17127453820513,0.009224801582490788,4.4942,15.5206,15.0333,0.348,0.8928,0.05594,18.4182,0.988,12.0,,,,,,5.702538,PASS,
66,s08_terrain_compliance,g000008_c0,8,,,,,,,,,,,1.5233586044660818,0.2007209684529853,499.99999999999994,0.0017925544814917371,3.8053,13.0418,13.9567,0.284,0.4894,0.011441,36.3425,0.992,12.0,,,,,,7.117052,PASS,
67,s08_terrain_compliance,g000008_c1,8,,,,,,,,,,,0.8685504045225391,0.14568067323667425,86.15501522157201,0.005364718712082686,3.7683,12.2019,13.8367,0.274,0.4615,0.012371,8.7588,0.992,12.0,,,,,,7.293848,PASS,
68,s08_terrain_compliance,g000008_c2,8,,,,,,,,,,,4.562290494912052,0.330941185525312,43.240478162893126,0.002054175321696277,3.8305,13.8331,14.6184,0.31,0.8178,0.021483,5.1717,0.992,12.0,,,,,,6.562336,PASS,
69,s08_terrain_compliance,g000008_c3,8,,,,,,,,,,,5.448418339753899,0.04285753179317482,393.44044406487245,0.0006453179346445042,3.7377,15.8966,13.8259,0.36,0.5944,0.056141,25.19,1.0,12.0,,,,,,4.859323,PASS,
70,s08_terrain_compliance,g000008_c4,8,,,,,,,,,,,0.23337829686818473,0.01,66.26292936059117,0.0006621372275771146,3.7426,12.2192,13.7945,0.266,0.4471,0.019655,7.0758,0.992,12.0,,,,,,7.534335,PASS,
71,s08_terrain_compliance,g000008_c5,8,,,,,,,,,,,5.746550634282984,0.01,179.98919100258695,0.0003418009589341084,3.7139,14.0034,13.8545,0.462,0.5715,0.05571,21.039,0.988,12.0,,,,,,3.534428,PASS,
72,s08_terrain_compliance,g000008_c6,8,,,,,,,,,,,0.1628904656364916,0.01,499.99999999999994,0.0002031546942442948,3.7028,12.1916,13.7611,0.268,0.4348,0.019307,34.7227,0.992,12.0,,,,,,7.443987,PASS,
73,s08_terrain_compliance,g000008_c7,8,,,,,,,,,,,1.2904370178971105,0.01850196694660059,110.82606978539452,0.0001,3.7979,12.7051,13.8674,0.282,0.4629,0.018171,10.7855,0.992,12.0,,,,,,7.252244,PASS,
74,s08_terrain_compliance,g000009_c0,9,,,,,,,,,,,4.960529171865895,0.49028193073469195,26.715237308778274,0.00040426695602455154,3.749,13.6261,14.572,0.302,0.8065,0.019315,3.3703,0.992,12.0,,,,,,6.255721,PASS,
75,s08_terrain_compliance,g000009_c1,9,,,,,,,,,,,1.736507408842113,0.20702476207599016,11.723318953782837,0.0001,3.7941,12.8697,13.9801,0.288,0.4983,0.011417,1.6337,0.992,12.0,,,,,,6.791582,PASS,
76,s08_terrain_compliance,g000009_c2,9,,,,,,,,,,,4.393637714630665,0.016187188330499695,499.99999999999994,0.00010687111304185992,3.604,15.7922,13.7068,0.328,0.4838,0.040406,24.9648,0.98,12.0,,,,,,3.067803,PASS,
77,s08_terrain_compliance,g000009_c3,9,,,,,,,,,,,5.694947021501897,0.13015353425559853,110.2849668329656,0.0001,3.8811,14.4762,14.3532,0.31,0.6768,0.035345,15.884,0.992,12.0,,,,,,2.636759,PASS,
78,s08_terrain_compliance,g000009_c4,9,,,,,,,,,,,14.276072474419532,0.01,43.96121016995988,0.00012541066217481938,6.5095,18.8278,21.3555,4.128,2.327,0.098601,16.8607,12.0,12.0,,,,,,14.681017,PASS,
79,s08_terrain_compliance,g000009_c5,9,,,,,,,,,,,100.0,0.01,499.99999999999994,0.0005933162085920938,12.3676,57.1172,10.9204,2.038,6.251,0.105332,28.1497,12.0,2.976,,,,,,269.161072,FAIL,fell over
80,s08_terrain_compliance,g000009_c6,9,,,,,,,,,,,2.933028605066466,0.010884364687288322,53.34971040059736,0.008656683419724118,3.9705,13.8211,14.5727,0.3,0.8326,0.044301,6.5359,0.992,12.0,,,,,,7.286633,PASS,
81,s08_terrain_compliance,g000009_c7,9,,,,,,,,,,,55.378413765333875,0.01,251.55483042086288,0.007821890234612782,8.5474,19.44,44.7811,8.71,4.638,0.134265,28.8432,12.0,12.0,,,,,,18.474423,PASS,
82,s08_terrain_compliance,g000010_c0,10,,,,,,,,,,,3.031653262383697,0.6435231827680089,338.0232997768993,0.000722448243098796,3.8101,12.7046,14.5045,0.304,0.755,0.013933,26.5105,0.994,12.0,,,,,,6.628251,PASS,
83,s08_terrain_compliance,g000010_c1,10,,,,,,,,,,,71.73396458354325,0.04862588689701727,499.99999999999994,0.0001,8.165,18.1381,42.9518,8.706,4.7161,0.13424,29.2856,12.0,12.0,,,,,,41.078802,PASS,
84,s08_terrain_compliance,g000010_c2,10,,,,,,,,,,,94.65248589537127,0.07764864090428383,152.16383917183015,0.0012820769716124377,8.3365,22.4384,46.0274,9.104,5.1257,0.121167,26.5236,12.0,12.0,,,,,,46.586394,PASS,
85,s08_terrain_compliance,g000010_c3,10,,,,,,,,,,,3.1573490964261124,0.018077069069335015,378.3198113052662,0.0002583955145363095,3.7041,16.0423,13.8302,0.312,0.4929,0.037284,25.4556,1.002,12.0,,,,,,3.458724,PASS,
86,s08_terrain_compliance,g000010_c4,10,,,,,,,,,,,1.0217520301312615,0.03314363488956027,499.99999999999994,0.0001,3.8129,12.8179,13.8585,0.28,0.4655,0.0169,34.9981,0.992,12.0,,,,,,7.631726,PASS,
87,s08_terrain_compliance,g000010_c5,10,,,,,,,,,,,65.54058231095249,1.1527896628552297,2.9813544116627546,0.0001,3.9009,13.6373,14.1534,0.304,0.5829,0.012007,0.4057,0.992,12.0,,,,,,3.704129,PASS,
88,s08_terrain_compliance,g000010_c6,10,,,,,,,,,,,8.479485708932545,0.11680665077552072,499.99999999999994,0.00032230407922338576,3.6276,15.7034,14.2541,0.442,0.8041,0.080906,30.3805,1.06,12.0,,,,,,4.979335,PASS,
89,s08_terrain_compliance,g000010_c7,10,,,,,,,,,,,4.38642704389194,0.01,499.99999999999994,0.0038668888927662075,4.1438,15.0098,14.5855,0.332,0.7203,0.052944,25.3664,0.982,12.0,,,,,,2.345782,PASS,
90,s08_terrain_compliance,g000011_c0,11,,,,,,,,,,,31.37600892953749,0.19443843201526925,30.434849132544837,0.0006632006999637478,5.4779,13.3953,22.2954,2.792,2.2002,0.065164,17.7062,12.0,12.0,,,,,,15.977377,PASS,
91,s08_terrain_compliance,g000011_c1,11,,,,,,,,,,,15.009598240394732,0.03996830815484323,147.79522519504883,0.004899024445110385,6.139,16.8993,20.9645,3.644,2.1324,0.107053,26.5863,12.0,12.0,,,,,,15.482791,PASS,
92,s08_terrain_compliance,g000011_c2,11,,,,,,,,,,,22.79049153264963,0.011681662679678958,499.99999999999994,0.0029626702579680407,7.3052,17.8322,27.0005,6.74,2.8748,0.114817,30.3489,12.0,12.0,,,,,,22.970669,PASS,
93,s08_terrain_compliance,g000011_c3,11,,,,,,,,,,,1.366412158331185,0.08618742021302389,42.45252575601646,0.0024401951092645016,3.8103,12.9953,13.8978,0.282,0.4753,0.014113,4.9724,0.992,12.0,,,,,,7.285088,PASS,
94,s08_terrain_compliance,g000011_c4,11,,,,,,,,,,,2.666449764689478,0.017255322304473325,77.4717558556781,0.0002029700545652967,3.8909,13.5415,14.5146,0.3,0.804,0.039543,8.7284,0.992,12.0,,,,,,7.945638,PASS,
95,s08_terrain_compliance,g000011_c5,11,,,,,,,,,,,3.9228835337855723,0.0523216398182941,308.48220385665246,0.00013351153108399135,3.8287,15.1226,14.3817,0.33,0.6792,0.038252,23.7759,1.0,12.0,,,,,,4.13406,PASS,
96,s08_terrain_compliance,g000011_c6,11,,,,,,,,,,,15.726506960490015,0.01268100140705563,174.79959997469814,0.0005357930678355576,6.0415,15.1803,21.3624,4.916,2.2163,0.10911,27.0743,12.0,12.0,,,,,,10.249686,PASS,
97,s08_terrain_compliance,g000011_c7,11,,,,,,,,,,,0.1,0.012212070510131859,498.6582928688765,0.00010858478846626046,3.7682,12.261,13.8075,0.272,0.453,0.020366,34.2621,0.992,12.0,,,,,,7.744386,PASS,
98,s08_terrain_compliance,g000012_c0,12,,,,,,,,,,,82.1495465632669,0.0884460805953322,431.48470412957136,0.0001477300443070312,10.5091,36.319,51.0687,8.786,5.9613,0.139764,28.8258,12.0,12.0,,,,,,29.310089,PASS,
99,s08_terrain_compliance,g000012_c1,12,,,,,,,,,,,1.2517553699182526,0.05954532910452928,463.0729615198408,0.0005475304724652148,3.772,12.4093,13.8442,0.278,0.4597,0.014889,33.3936,0.992,12.0,,,,,,7.291923,PASS,
100,s08_terrain_compliance,g000012_c2,12,,,,,,,,,,,9.720644451354005,0.01985339149232637,426.1938805913794,0.0006560671710182807,6.519,17.8938,22.922,4.48,2.2849,0.107921,25.565,12.0,12.0,,,,,,14.705931,PASS,
101,s08_terrain_compliance,g000012_c3,12,,,,,,,,,,,5.238065766452975,0.24173459888297624,499.99999999999994,0.0029451104376349607,3.6696,14.5316,13.3963,0.38,0.4463,0.042543,30.1043,0.998,12.0,,,,,,3.890615,PASS,
102,s08_terrain_compliance,g000012_c4,12,,,,,,,,,,,8.72692563204043,0.01,499.99999999999994,0.00015732330225543936,6.589,19.7231,22.1714,4.194,2.0376,0.106717,24.938,12.0,12.0,,,,,,19.732315,PASS,
103,s08_terrain_compliance,g000012_c5,12,,,,,,,,,,,1.61964159113393,0.02567686869662378,228.40244318005765,0.0009838982548341553,3.8486,13.6302,13.9254,0.288,0.4855,0.018253,18.4828,0.992,12.0,,,,,,6.81947,PASS,
104,s08_terrain_compliance,g000012_c6,12,,,,,,,,,,,5.167364968208373,0.10180095466372373,159.06792108941215,0.00037411546446180637,3.6214,15.1089,13.5189,0.348,0.4432,0.03579,19.6539,0.992,12.0,,,,,,2.378884,PASS,
105,s08_terrain_compliance,g000012_c7,12,,,,,,,,,,,9.477300962365057,0.024565480133712573,60.67804565445207,0.000704041095193961,6.538,16.4804,19.5054,3.654,1.8565,0.093122,15.4882,0.992,12.0,,,,,,10.517909,PASS,
106,s08_terrain_compliance,g000013_c0,13,,,,,,,,,,,1.6415736410955688,0.074847162854552,162.43654097881117,0.0005851763250816673,3.8305,13.4467,13.9364,0.286,0.4894,0.01499,14.3119,0.992,12.0,,,,,,6.834729,PASS,
107,s08_terrain_compliance,g000013_c1,13,,,,,,,,,,,18.474758054766212,0.06501327033706662,223.38821177913093,0.0004584871239791813,5.6138,17.3104,20.8762,3.652,2.0556,0.109349,30.1372,12.0,12.0,,,,,,22.17119,PASS,
108,s08_terrain_compliance,g000013_c2,13,,,,,,,,,,,5.185398084973813,0.3918198776719748,97.36415545517666,0.0006401348443805714,3.8465,13.8108,14.6013,0.31,0.8204,0.022838,10.092,0.992,12.0,,,,,,6.170995,PASS,
109,s08_terrain_compliance,g000013_c3,13,,,,,,,,,,,13.536381700448905,0.01,381.42081708155825,0.0008556539784993262,6.9321,19.1225,26.7547,5.454,2.9461,0.116131,26.8429,12.0,12.0,,,,,,28.797094,PASS,
110,s08_terrain_compliance,g000013_c4,13,,,,,,,,,,,18.206825868452324,0.021872690653831146,204.46541418098766,0.0005428155999216576,5.57,17.6709,20.8766,4.272,2.0858,0.110796,29.0617,12.0,12.0,,,,,,12.435393,PASS,
111,s08_terrain_compliance,g000013_c5,13,,,,,,,,,,,3.2494392853774996,0.01688138448288778,258.90846571436356,0.0010723287947826754,4.0834,14.164,14.739,0.326,0.8649,0.049188,22.2729,0.992,12.0,,,,,,6.954978,PASS,
112,s08_terrain_compliance,g000013_c6,13,,,,,,,,,,,7.146581399533338,0.023416477981868626,499.99999999999994,0.0003762667789537811,6.213,16.0651,22.0118,2.894,2.011,0.098091,24.1359,1.054,12.0,,,,,,9.390127,PASS,
113,s08_terrain_compliance,g000013_c7,13,,,,,,,,,,,23.90450530826261,0.11273613558956852,48.500387775410424,0.0012233888527000507,5.5308,12.9109,23.5613,4.154,2.3586,0.097468,23.0437,12.0,12.0,,,,,,13.394623,PASS,
114,s08_terrain_compliance,g000014_c0,14,,,,,,,,,,,1.7671776484996047,0.06447182238477676,499.99999999999994,0.00018435502272002048,3.8362,13.3489,14.0806,0.292,0.533,0.017454,36.6454,0.992,12.0,,,,,,6.317531,PASS,
115,s08_terrain_compliance,g000014_c1,14,,,,,,,,,,,6.92295647778659,0.03085776917538804,499.99999999999994,0.001135986210980837,3.8191,15.6525,13.9254,0.504,0.7341,0.070628,27.0241,1.018,12.0,,,,,,5.085178,PASS,
116,s08_terrain_compliance,g000014_c2,14,,,,,,,,,,,0.9831083684535383,0.020656246240795116,499.99999999999994,0.0006712539169837783,3.7955,12.4327,13.8364,0.274,0.4612,0.01775,34.6915,0.992,12.0,,,,,,7.508089,PASS,
117,s08_terrain_compliance,g000014_c3,14,,,,,,,,,,,31.310619589200716,0.05143269623921401,499.99999999999994,0.0016312012717977977,6.8742,16.8,32.573,7.396,3.4047,0.107484,31.1908,12.0,12.0,,,,,,11.006662,PASS,
118,s08_terrain_compliance,g000014_c4,14,,,,,,,,,,,5.430623884843817,0.07608081179077567,208.59512121901608,0.0011940765640531203,3.6744,16.0686,13.8841,0.36,0.5683,0.04826,22.293,0.996,12.0,,,,,,4.996367,PASS,
119,s08_terrain_compliance,g000014_c5,14,,,,,,,,,,,13.09985858427797,0.015432876465463192,491.5872521610336,0.001401194140889614,7.0243,19.2568,23.0964,5.202,2.2447,0.113646,27.1618,12.0,12.0,,,,,,30.385206,PASS,
120,s08_terrain_compliance,g000014_c6,14,,,,,,,,,,,2.7239208868498195,0.018870736819473773,173.84624498966429,0.0001507774720896964,3.9208,13.6081,14.5594,0.3,0.8358,0.041662,16.9538,0.992,12.0,,,,,,7.912586,PASS,
121,s08_terrain_compliance,g000014_c7,14,,,,,,,,,,,1.4498276566753758,0.03985616996751905,317.0218604293768,0.0018230993291420642,3.8077,12.9017,13.8939,0.282,0.4752,0.016579,23.5766,0.992,12.0,,,,,,7.091617,PASS,
122,s08_terrain_compliance,g000015_c0,15,,,,,,,,,,,4.180578438138501,0.01695604679197617,499.99999999999994,0.0003342158646146766,3.6653,16.7069,13.7683,0.33,0.5045,0.042775,25.3861,1.006,12.0,,,,,,3.784553,PASS,
123,s08_terrain_compliance,g000015_c1,15,,,,,,,,,,,7.678234092707726,0.042326330676358305,401.72117812450665,0.00028923544841084924,4.7792,15.5658,15.5504,1.266,1.1072,0.082479,26.3446,1.02,12.0,,,,,,5.071201,PASS,
124,s08_terrain_compliance,g000015_c2,15,,,,,,,,,,,4.8866189477683895,0.06654203152184979,178.79505070098503,0.000349045808420093,3.5969,15.6622,13.5444,0.328,0.4424,0.036523,20.1263,0.988,12.0,,,,,,2.267673,PASS,
125,s08_terrain_compliance,g000015_c3,15,,,,,,,,,,,8.064957189186128,0.0632115827769522,499.99999999999994,0.0004776427830842462,3.8753,15.5861,14.1389,0.94,0.7961,0.082038,28.1993,1.034,12.0,,,,,,7.003871,PASS,
126,s08_terrain_compliance,g000015_c4,15,,,,,,,,,,,1.2725790114692324,0.024101570185114805,317.16954046193246,0.0008726400470898259,3.7916,12.55,13.8765,0.282,0.4679,0.017638,24.1991,0.992,12.0,,,,,,7.13871,PASS,
127,s08_terrain_compliance,g000015_c5,15,,,,,,,,,,,1.5568003325689106,0.022144237790998635,499.99999999999994,0.00019352083200219344,3.783,12.5442,13.8676,0.278,0.4687,0.017368,35.951,0.992,12.0,,,,,,6.788705,PASS,
128,s08_terrain_compliance,g000015_c6,15,,,,,,,,,,,7.495804410638213,0.07191358648405351,499.99999999999994,0.0002839076983154937,4.7242,14.9993,15.611,1.774,1.2425,0.081992,24.4772,1.002,12.0,,,,,,5.42927,PASS,
129,s08_terrain_compliance,g000015_c7,15,,,,,,,,,,,2.802783993279842,0.04346873004211756,117.37347473789313,0.00047440385386639185,3.9187,13.5523,14.5198,0.302,0.809,0.035783,11.5541,0.992,12.0,,,,,,7.729141,PASS,
130,s08_terrain_compliance,g000016_c0,16,,,,,,,,,,,5.504101284951013,0.07544252654794394,359.01430304620754,0.0007963927093251426,3.6725,16.2397,13.8886,0.402,0.5974,0.05241,26.0547,1.002,12.0,,,,,,6.377987,PASS,
131,s08_terrain_compliance,g000016_c1,16,,,,,,,,,,,8.359177170842859,0.08304748821995502,355.86154002800083,0.0006748947956684337,3.9712,15.823,14.9631,0.862,1.0236,0.083024,27.2568,1.076,12.0,,,,,,5.097154,PASS,
132,s08_terrain_compliance,g000016_c2,16,,,,,,,,,,,6.8169799136184075,0.04595121445608953,153.18520691598732,0.0003265781037183637,3.7628,14.7467,13.9586,0.444,0.7326,0.062289,21.652,1.008,12.0,,,,,,4.879159,PASS,
133,s08_terrain_compliance,g000016_c3,16,,,,,,,,,,,6.582065274879857,0.05120339314935309,499.99999999999994,0.00036286426146608616,3.7732,14.4881,13.87,0.492,0.695,0.066696,27.7153,1.01,12.0,,,,,,4.347305,PASS,
134,s08_terrain_compliance,g000016_c4,16,,,,,,,,,,,2.7329024541766875,0.0412426935492222,499.99999999999994,0.0010288296865438877,4.0335,13.9913,14.7405,0.33,0.8964,0.039942,28.1241,0.996,12.0,,,,,,8.72547,PASS,
135,s08_terrain_compliance,g000016_c5,16,,,,,,,,,,,3.3545897875681123,0.040508109834706985,360.8766585904048,0.00016426697245740767,3.6107,16.2122,13.5987,0.284,0.4045,0.030106,25.6515,0.992,12.0,,,,,,3.085203,PASS,
136,s08_terrain_compliance,g000016_c6,16,,,,,,,,,,,5.415699014748459,0.06671315223379311,329.85363919758026,0.001300845946947815,3.6415,15.6908,13.796,0.346,0.561,0.052104,25.2355,0.996,12.0,,,,,,5.050172,PASS,
137,s08_terrain_compliance,g000016_c7,16,,,,,,,,,,,2.4638019560017486,0.04656291128362569,397.25392025149495,0.0007503947255652755,3.9199,14.0409,14.4566,0.316,0.7522,0.034686,27.4619,0.994,12.0,,,,,,7.711927,PASS,
138,s08_terrain_compliance,g000017_c0,17,,,,,,,,,,,2.2082447485706647,0.027834941873416435,358.6608605877235,0.0005576632905348844,3.5577,14.6427,13.6562,0.264,0.4124,0.01387,27.0034,0.992,12.0,,,,,,4.239837,PASS,
139,s08_terrain_compliance,g000017_c1,17,,,,,,,,,,,3.9503984562365844,0.025456795980151638,280.0838842314786,0.0009027674557109941,3.6449,16.2739,13.6756,0.302,0.4622,0.036185,22.8798,0.994,12.0,,,,,,2.694167,PASS,
140,s08_terrain_compliance,g000017_c2,17,,,,,,,,,,,7.695293982861857,0.0326104981905648,499.99999999999994,0.0006875178808653226,5.501,16.8194,18.0679,2.712,1.5249,0.09005,24.4748,1.034,12.0,,,,,,5.188949,PASS,
141,s08_terrain_compliance,g000017_c3,17,,,,,,,,,,,4.815716833287106,0.04197200829301518,499.99999999999994,0.00031995117495453644,3.8619,14.8759,14.3981,0.362,0.7176,0.051134,26.3813,1.012,12.0,,,,,,2.055974,PASS,
142,s08_terrain_compliance,g000017_c4,17,,,,,,,,,,,4.189334043922943,0.03759088110802437,499.99999999999994,0.001256703826048543,3.6525,16.4695,13.6591,0.332,0.4639,0.036374,25.5596,0.992,12.0,,,,,,2.466844,PASS,
143,s08_terrain_compliance,g000017_c5,17,,,,,,,,,,,1.8333179743988939,0.031352583550637796,424.35422689592974,0.0005845720685967421,3.8948,13.8377,14.2082,0.304,0.585,0.024336,29.3976,0.992,12.0,,,,,,6.938313,PASS,
144,s08_terrain_compliance,g000017_c6,17,,,,,,,,,,,8.077842513168333,0.04185304863997964,477.1591765937351,0.0007748178560865444,6.0544,18.0351,22.326,3.028,2.1142,0.1014,24.8126,12.0,12.0,,,,,,17.832618,PASS,
145,s08_terrain_compliance,g000017_c7,17,,,,,,,,,,,3.74284400535531,0.03884676718839724,499.99999999999994,0.00032546862306121984,4.1896,14.457,14.7979,0.304,0.8378,0.045346,26.1741,0.998,12.0,,,,,,5.246777,PASS,
146,s08_terrain_compliance,g000018_c0,18,,,,,,,,,,,5.297180376465992,0.03944395670996565,363.2824322098124,0.0007554065713164934,3.6133,16.3662,13.7902,0.366,0.5776,0.052047,25.2411,0.998,12.0,,,,,,5.337574,PASS,
147,s08_terrain_compliance,g000018_c1,18,,,,,,,,,,,3.36502645380716,0.056715863542014945,261.19014178215605,0.0011197426269895312,3.9703,14.065,14.5909,0.312,0.8237,0.038025,22.6059,0.992,12.0,,,,,,6.470232,PASS,
148,s08_terrain_compliance,g000018_c2,18,,,,,,,,,,,5.880406094829108,0.02885269412307347,223.63434376153188,0.0008942172228007614,3.6894,15.3931,13.8318,0.444,0.5412,0.058526,23.1087,1.0,12.0,,,,,,3.849295,PASS,
149,s08_terrain_compliance,g000018_c3,18,,,,,,,,,,,4.468433585814055,0.048826697870021175,307.90707621778404,0.0007144317755932164,3.6295,16.1198,13.6364,0.342,0.46,0.0364,23.5066,0.984,12.0,,,,,,2.625261,PASS,
150,s08_terrain_compliance,g000018_c4,18,,,,,,,,,,,6.219953998582829,0.039422843575501666,499.99999999999994,0.0005585564547380095,3.7731,15.1605,14.1004,0.514,0.6573,0.065326,26.8474,1.004,12.0,,,,,,6.83931,PASS,
151,s08_terrain_compliance,g000018_c5,18,,,,,,,,,,,6.233623537033035,0.04551894510491076,499.99999999999994,0.000562017857533742,3.8189,16.2609,14.213,0.526,0.7124,0.065831,27.0071,1.006,12.0,,,,,,7.339909,PASS,
152,s08_terrain_compliance,g000018_c6,18,,,,,,,,,,,2.02411967639743,0.05810237341538637,153.67177341253887,0.0007626016746243939,3.8703,12.9899,14.3057,0.296,0.641,0.023902,13.7418,0.992,12.0,,,,,,7.414026,PASS,
153,s08_terrain_compliance,g000018_c7,18,,,,,,,,,,,4.394672780768679,0.03381591462443908,337.7295122230706,0.00035208629199866634,3.6088,14.9161,13.4728,0.316,0.4147,0.034912,23.9989,1.0,12.0,,,,,,2.495029,PASS,
154,s08_terrain_compliance,g000019_c0,19,,,,,,,,,,,5.748685797699429,0.03265266414225505,325.1599435851924,0.0006456959604450974,3.8257,14.4741,13.9464,0.532,0.6485,0.058417,24.9956,1.002,12.0,,,,,,4.267965,PASS,
155,s08_terrain_compliance,g000019_c1,19,,,,,,,,,,,6.98954364424734,0.02574041913303272,238.4355189141873,0.0004320486818561485,3.7972,14.5795,14.2534,0.888,0.7832,0.072,23.8808,0.992,12.0,,,,,,7.006266,PASS,
156,s08_terrain_compliance,g000019_c2,19,,,,,,,,,,,5.515571254805937,0.055243536809279674,446.9161636284444,0.0010969430606918612,3.5655,14.2668,13.5899,0.35,0.4678,0.052825,26.8421,1.0,12.0,,,,,,3.454101,PASS,
157,s08_terrain_compliance,g000019_c3,19,,,,,,,,,,,4.984149945260645,0.035458341771798546,440.4971242899479,0.000610652539758028,3.7528,15.4496,13.8347,0.402,0.5317,0.049514,25.523,1.002,12.0,,,,,,3.723465,PASS,
158,s08_terrain_compliance,g000019_c4,19,,,,,,,,,,,4.817945483766373,0.06152013341654916,161.8978052652143,0.00043269851002319314,3.6087,16.2756,13.7481,0.33,0.5023,0.037314,19.1275,0.994,12.0,,,,,,3.688227,PASS,
159,s08_terrain_compliance,g000019_c5,19,,,,,,,,,,,4.8985240279573325,0.057525508474113266,499.99999999999994,0.0005808876930834219,3.6612,15.7028,13.6862,0.374,0.4982,0.046024,26.6924,1.0,12.0,,,,,,3.110569,PASS,
160,s08_terrain_compliance,g000019_c6,19,,,,,,,,,,,9.344438125056492,0.04424072901577874,290.37135951062083,0.0006060285765870074,6.4621,19.3695,21.9778,4.22,2.2201,0.104117,23.926,12.0,12.0,,,,,,21.942079,PASS,
161,s08_terrain_compliance,g000019_c7,19,,,,,,,,,,,8.389117907084177,0.03231094898219271,337.5576332026013,0.0005470520309549446,6.1896,15.7195,22.2126,3.942,2.1497,0.10016,23.8438,12.0,12.0,,,,,,5.721514,PASS,
162,s08_terrain_compliance,g000020_c0,20,,,,,,,,,,,4.945677259697695,0.05674995207023966,412.89339983871287,0.0007104819621339092,3.7174,14.7655,13.7553,0.402,0.5306,0.044493,25.8763,0.988,12.0,,,,,,2.569468,PASS,
163,s08_terrain_compliance,g000020_c1,20,,,,,,,,,,,7.154140926993808,0.052060250338669664,348.7182555605613,0.0005602455882821242,3.7642,14.9749,14.3624,0.688,0.8067,0.072556,26.3401,0.996,12.0,,,,,,4.420918,PASS,
164,s08_terrain_compliance,g000020_c2,20,,,,,,,,,,,6.328165762278092,0.0472608572096352,214.925467008905,0.0005984134340691035,3.676,14.2387,13.6951,0.462,0.6012,0.059732,23.3509,1.008,12.0,,,,,,4.950897,PASS,
165,s08_terrain_compliance,g000020_c3,20,,,,,,,,,,,8.4726013319748,0.03910674099686159,404.3039944051494,0.0003667464010195068,5.1721,12.0438,19.2962,3.336,1.7414,0.094395,24.5365,1.028,12.0,,,,,,8.037763,PASS,
166,s08_terrain_compliance,g000020_c4,20,,,,,,,,,,,4.937736048646036,0.05727833021140175,420.7052876726941,0.0005973988030739016,3.6605,15.4343,13.722,0.368,0.5041,0.045942,25.9587,0.994,12.0,,,,,,3.473486,PASS,
167,s08_terrain_compliance,g000020_c5,20,,,,,,,,,,,4.854472861394744,0.0417957138206966,246.43259383155464,0.000841851761492749,3.6029,16.5289,13.7958,0.348,0.527,0.043145,22.3733,0.992,12.0,,,,,,4.820529,PASS,
168,s08_terrain_compliance,g000020_c6,20,,,,,,,,,,,5.819320605984669,0.03713643219885584,453.8498379040099,0.000635931197670534,3.8777,16.0705,14.1381,0.548,0.7034,0.06194,26.2502,1.0,12.0,,,,,,6.624842,PASS,
169,s08_terrain_compliance,g000020_c7,20,,,,,,,,,,,3.5743018750616486,0.045793949515205,308.9324153200046,0.0006733146238663107,4.0924,15.2335,14.7771,0.344,0.9025,0.043594,23.8617,0.986,12.0,,,,,,7.109153,PASS,
170,s08_terrain_compliance,g000021_c0,21,,,,,,,,,,,5.146118861149412,0.04972194989052057,465.36942859827764,0.000660289480513405,3.6962,14.7718,13.7865,0.422,0.5588,0.049122,26.1149,0.996,12.0,,,,,,2.518616,PASS,
171,s08_terrain_compliance,g000021_c1,21,,,,,,,,,,,4.532524513351404,0.03755349791039471,224.34375436978885,0.0005978289483445513,3.8104,15.2846,13.8053,0.344,0.5376,0.034283,21.4224,0.99,12.0,,,,,,2.855439,PASS,
172,s08_terrain_compliance,g000021_c2,21,,,,,,,,,,,6.204984929967075,0.041619988895874656,468.70905757705606,0.000771934722462898,3.7171,14.7725,14.1096,0.514,0.6385,0.065022,26.9591,1.01,12.0,,,,,,5.67357,PASS,
173,s08_terrain_compliance,g000021_c3,21,,,,,,,,,,,5.124638230621447,0.046594139304101,278.08747010384803,0.0009424930401496728,3.6158,16.4407,13.8387,0.36,0.5743,0.048142,23.616,1.002,12.0,,,,,,5.004982,PASS,
174,s08_terrain_compliance,g000021_c4,21,,,,,,,,,,,3.4530429441310275,0.05418598933526992,253.0805260638566,0.0008317175277616825,3.981,15.0546,14.6927,0.35,0.8794,0.040964,22.4658,0.992,12.0,,,,,,7.261295,PASS,
175,s08_terrain_compliance,g000021_c5,21,,,,,,,,,,,6.17089096868353,0.03811542266266811,499.99999999999994,0.0006144525709887814,3.6292,15.0055,13.5141,0.478,0.7201,0.065026,25.6041,0.992,12.0,,,,,,6.251571,PASS,
176,s08_terrain_compliance,g000021_c6,21,,,,,,,,,,,5.828533383408794,0.05045946625400643,314.432488487803,0.0005799985895425915,3.755,13.8518,13.8786,0.468,0.5743,0.057982,25.2145,1.002,12.0,,,,,,3.406532,PASS,
177,s08_terrain_compliance,g000021_c7,21,,,,,,,,,,,5.085177915066337,0.06046110239183554,294.0799009662093,0.0007397273712718396,3.5732,16.2793,13.755,0.354,0.5426,0.045546,24.4517,0.996,12.0,,,,,,5.155595,PASS,
178,s08_terrain_compliance,g000022_c0,22,,,,,,,,,,,5.722144813876525,0.04819286670189767,390.0960063883305,0.0007561466554120364,3.8188,14.8205,13.9016,0.532,0.6295,0.058222,26.3308,0.996,12.0,,,,,,4.191318,PASS,
179,s08_terrain_compliance,g000022_c1,22,,,,,,,,,,,7.569052260806539,0.03888491913849617,410.5485866460877,0.0007451169875552745,4.1802,14.6584,14.5954,1.798,1.0663,0.08262,24.31,1.034,12.0,,,,,,6.475658,PASS,
180,s08_terrain_compliance,g000022_c2,22,,,,,,,,,,,5.7030400622011115,0.05777017487923362,338.4443471162651,0.00039250511786398775,3.6615,15.9717,13.8148,0.368,0.6082,0.057528,25.4385,1.002,12.0,,,,,,5.525076,PASS,
181,s08_terrain_compliance,g000022_c3,22,,,,,,,,,,,5.234266903431941,0.044398484953629754,370.59776394564454,0.0005589226870703514,3.674,14.6461,13.7565,0.396,0.5338,0.050164,25.1157,0.998,12.0,,,,,,3.891502,PASS,
182,s08_terrain_compliance,g000022_c4,22,,,,,,,,,,,5.642050293051517,0.04680319599358485,362.08582868363203,0.0006496006701111124,3.8823,15.1316,14.2026,0.276,0.6758,0.058398,25.9484,1.002,12.0,,,,,,2.173633,PASS,
183,s08_terrain_compliance,g000022_c5,22,,,,,,,,,,,6.775859770901408,0.05673101488783889,336.55981369521425,0.0007531143875604608,4.7839,15.9114,16.0636,0.878,1.0972,0.076049,26.009,1.016,12.0,,,,,,3.174562,PASS,
184,s08_terrain_compliance,g000022_c6,22,,,,,,,,,,,5.947052434589943,0.031037344254995287,321.59566006265794,0.0007030518475853255,3.8578,15.0271,14.24,0.532,0.6655,0.061863,25.1699,1.002,12.0,,,,,,5.389394,PASS,
185,s08_terrain_compliance,g000022_c7,22,,,,,,,,,,,4.5476804220778035,0.043434544297493896,309.4500946315182,0.0007077595580968234,3.5909,15.0062,13.4742,0.322,0.4209,0.036399,23.7419,0.994,12.0,,,,,,2.444518,PASS,
186,s08_terrain_compliance,g000023_c0,23,,,,,,,,,,,4.475362829620735,0.04301099293464989,375.6924943719626,0.0004746005267619652,3.6548,15.237,13.5862,0.334,0.4508,0.038227,24.3679,0.996,12.0,,,,,,2.296357,PASS,
187,s08_terrain_compliance,g000023_c1,23,,,,,,,,,,,5.020978149018622,0.05089838658284121,376.565646108906,0.0006792334017818584,3.6813,15.826,13.7951,0.338,0.5308,0.047874,25.641,0.994,12.0,,,,,,4.203931,PASS,
188,s08_terrain_compliance,g000023_c2,23,,,,,,,,,,,3.7017832565286466,0.05309188946334831,327.9566866839107,0.0007008248031962294,3.6337,16.2805,13.7062,0.292,0.4449,0.032364,24.4059,0.994,12.0,,,,,,3.037323,PASS,
189,s08_terrain_compliance,g000023_c3,23,,,,,,,,,,,5.9019614521604975,0.04164327175016476,282.71652491761864,0.0007017130051199976,3.6262,15.2522,13.9445,0.368,0.6009,0.055557,24.5021,1.006,12.0,,,,,,3.426382,PASS,
190,s08_terrain_compliance,g000023_c4,23,,,,,,,,,,,5.149680942447577,0.037855334030725954,335.28918883539933,0.0005598454839458714,3.6505,14.7725,13.7274,0.386,0.5006,0.049194,24.6071,0.992,12.0,,,,,,3.521107,PASS,
191,s08_terrain_compliance,g000023_c5,23,,,,,,,,,,,7.408763869297936,0.039267863090078604,396.1870597497565,0.0006442992798464042,3.8646,15.2391,14.1417,1.25,0.901,0.078102,25.2775,1.03,12.0,,,,,,7.750471,PASS,
192,s08_terrain_compliance,g000023_c6,23,,,,,,,,,,,5.078560548560785,0.04421666765509954,316.10729816684193,0.0005826737726354226,3.8864,15.4726,14.264,0.3,0.676,0.051854,24.5158,0.992,12.0,,,,,,1.678956,PASS,
193,s08_terrain_compliance,g000023_c7,23,,,,,,,,,,,4.752257332476092,0.04411829822368301,284.7988101970715,0.0006193642043186703,3.6442,16.7954,13.8857,0.352,0.5738,0.043497,23.0932,0.992,12.0,,,,,,4.931441,PASS,
194,s08_terrain_compliance,g000024_c0,24,,,,,,,,,,,4.680574435945694,0.045873119577447864,336.1197137787157,0.0006050776749009262,3.5734,16.3564,13.7365,0.34,0.5093,0.04178,24.1843,0.998,12.0,,,,,,4.320323,PASS,
195,s08_terrain_compliance,g000024_c1,24,,,,,,,,,,,4.767516675934947,0.04314039072613515,388.81873342391964,0.0005313846765946693,3.7193,14.9551,13.8292,0.322,0.53,0.040017,25.3914,0.986,12.0,,,,,,2.585389,PASS,
196,s08_terrain_compliance,g000024_c2,24,,,,,,,,,,,4.328379676021925,0.04054434704374427,341.9474105111077,0.0005949928160264921,3.7306,16.5646,13.9549,0.344,0.5565,0.039623,23.78,1.004,12.0,,,,,,4.106158,PASS,
197,s08_terrain_compliance,g000024_c3,24,,,,,,,,,,,6.293862330885935,0.04577141458911343,346.3829970113696,0.0006892727801639981,4.3557,15.8016,14.7844,0.718,0.9755,0.068766,24.472,1.0,12.0,,,,,,7.312824,PASS,
198,s08_terrain_compliance,g000024_c4,24,,,,,,,,,,,6.018008218638471,0.03692026748271925,303.2910889501828,0.00048708020448177226,3.807,14.7103,14.1081,0.556,0.659,0.061665,24.8378,1.008,12.0,,,,,,5.312768,PASS,
199,s08_terrain_compliance,g000024_c5,24,,,,,,,,,,,5.221978331808408,0.04100628281354311,314.5670945327674,0.0005830966378711888,4.1992,14.8287,14.6286,0.354,0.7018,0.055531,24.4608,0.99,12.0,,,,,,4.073811,PASS,
200,s08_terrain_compliance,g000024_c6,24,,,,,,,,,,,5.344300045765234,0.058109067898089124,304.17157874493415,0.0006251196713579919,3.6967,15.7166,13.8559,0.344,0.5676,0.051556,24.7881,0.984,12.0,,,,,,5.098034,PASS,
201,s08_terrain_compliance,g000024_c7,24,,,,,,,,,,,6.3914503193180385,0.037431703727834456,309.7139963898123,0.0005249770888902709,3.8268,14.18,14.0555,0.582,0.651,0.065996,25.3384,1.004,12.0,,,,,,3.350944,PASS,
202,s08_terrain_compliance,g000025_c0,25,,,,,,,,,,,5.221028752219964,0.04275071160161559,315.3916936358063,0.0005311373814935291,4.5253,15.5459,15.3405,0.462,0.9546,0.058501,24.1575,0.996,12.0,,,,,,5.028475,PASS,
203,s08_terrain_compliance,g000025_c1,25,,,,,,,,,,,4.836160838496075,0.04419630380933409,316.18534324815397,0.0006706158529489817,3.6171,15.1409,13.6008,0.36,0.4635,0.042611,24.0154,1.0,12.0,,,,,,2.613935,PASS,
204,s08_terrain_compliance,g000025_c2,25,,,,,,,,,,,5.6525862408877,0.03696376963447974,312.2631613038954,0.0006083444407708505,3.6686,15.3022,13.8439,0.368,0.5285,0.057546,24.6024,0.994,12.0,,,,,,4.670751,PASS,
205,s08_terrain_compliance,g000025_c3,25,,,,,,,,,,,4.940282175204521,0.044844555191581696,304.83121465348455,0.0006065369496947942,3.7425,14.8759,13.7959,0.412,0.5347,0.043502,24.0449,1.0,12.0,,,,,,2.821556,PASS,
206,s08_terrain_compliance,g000025_c4,25,,,,,,,,,,,5.2883666791755415,0.036637217982104134,302.7629467809074,0.0005388033560836937,3.6478,15.6106,13.8777,0.346,0.5273,0.052804,24.2617,0.992,12.0,,,,,,4.080687,PASS,
207,s08_terrain_compliance,g000025_c5,25,,,,,,,,,,,5.41388732647475,0.0418741454161917,374.7502798660065,0.0005848858394051775,4.4446,15.5427,15.3939,0.41,0.9683,0.061842,25.3269,1.0,12.0,,,,,,4.778974,PASS,
208,s08_terrain_compliance,g000025_c6,25,,,,,,,,,,,5.930765639958137,0.04112878500500835,338.2649195901238,0.0005736371837376558,3.8291,14.8061,14.032,0.536,0.6148,0.061216,25.5562,0.998,12.0,,,,,,4.678147,PASS,
209,s08_terrain_compliance,g000025_c7,25,,,,,,,,,,,4.6402333409234435,0.04000765445902494,260.90416216157246,0.0006887874973183352,3.5934,15.1677,13.4615,0.318,0.4114,0.036784,22.3685,1.002,12.0,,,,,,2.439947,PASS,
210,s08_terrain_compliance,g000026_c0,26,,,,,,,,,,,4.387911613086142,0.043109222314627556,360.188751018034,0.0007220079653361841,4.0737,15.2572,14.7712,0.354,0.85,0.047265,24.2672,1.0,12.0,,,,,,5.284058,PASS,
211,s08_terrain_compliance,g000026_c1,26,,,,,,,,,,,5.102115779173575,0.044653764849027236,310.2906108070315,0.0005853866254490296,3.7653,16.1446,13.9226,0.336,0.5574,0.049752,24.5511,0.984,12.0,,,,,,4.727169,PASS,
212,s08_terrain_compliance,g000026_c2,26,,,,,,,,,,,4.2677427640627945,0.03723520997294027,328.2729971801779,0.0005617433718394299,3.6341,15.8623,13.5951,0.326,0.4408,0.034343,23.7708,0.992,12.0,,,,,,2.24574,PASS,
213,s08_terrain_compliance,g000026_c3,26,,,,,,,,,,,5.398464656771585,0.04248997242165926,284.3553199166319,0.0006364470864779869,3.5878,16.2269,13.7857,0.39,0.5723,0.051887,24.2068,0.994,12.0,,,,,,5.297051,PASS,
214,s08_terrain_compliance,g000026_c4,26,,,,,,,,,,,5.1085148142720005,0.0506793214499859,335.0800692833123,0.0006444448399080946,3.6142,14.4506,13.6455,0.352,0.4652,0.046427,24.8392,0.998,12.0,,,,,,2.885452,PASS,
215,s08_terrain_compliance,g000026_c5,26,,,,,,,,,,,6.297079876395244,0.04643543043694959,356.59512265009977,0.0005048288074159014,3.7937,14.646,14.1132,0.612,0.6786,0.06441,26.0099,1.008,12.0,,,,,,5.4546,PASS,
216,s08_terrain_compliance,g000026_c6,26,,,,,,,,,,,5.15852805244609,0.04690554211273107,351.83455789095115,0.0005017181960872893,3.6944,14.6631,13.775,0.418,0.5505,0.048241,25.2651,0.994,12.0,,,,,,2.820066,PASS,
217,s08_terrain_compliance,g000026_c7,26,,,,,,,,,,,5.261034025584474,0.0469405144580363,306.5926652074141,0.0005809676805597136,3.6446,15.0386,13.7424,0.4,0.5281,0.050097,24.3802,0.99,12.0,,,,,,3.77928,PASS,
218,s08_terrain_compliance,g000027_c0,27,,,,,,,,,,,5.34883295017439,0.04088259239991103,264.820241296677,0.0006050664797785127,3.6605,14.206,13.7909,0.42,0.5664,0.049424,23.355,0.994,12.0,,,,,,2.454077,PASS,
219,s08_terrain_compliance,g000027_c1,27,,,,,,,,,,,4.928450611735073,0.043229353190606466,307.87985104932596,0.0005848182333408165,3.631,16.7472,13.8622,0.354,0.5838,0.046545,24.0567,1.0,12.0,,,,,,5.148777,PASS,
220,s08_terrain_compliance,g000027_c2,27,,,,,,,,,,,5.587799615731329,0.03797956237566193,343.8007136877342,0.0005564572588918578,3.7623,14.1145,13.9862,0.408,0.5593,0.056637,25.4112,1.004,12.0,,,,,,3.184673,PASS,
221,s08_terrain_compliance,g000027_c3,27,,,,,,,,,,,4.8706286283702305,0.045594282037779155,326.15515378225683,0.0005419352281319979,3.7318,14.93,13.8285,0.364,0.5431,0.041754,24.3966,0.996,12.0,,,,,,2.596703,PASS,
222,s08_terrain_compliance,g000027_c4,27,,,,,,,,,,,4.6306343586218475,0.043968441293292145,301.8278248608751,0.0006022853764209059,3.5977,16.1835,13.673,0.326,0.4907,0.04084,23.6978,0.992,12.0,,,,,,3.705317,PASS,
223,s08_terrain_compliance,g000027_c5,27,,,,,,,,,,,5.214691014369597,0.042261965623769875,348.2308925631955,0.0006285846847395011,3.7392,15.4758,13.8643,0.408,0.5481,0.051572,25.2808,0.988,12.0,,,,,,4.406212,PASS,
224,s08_terrain_compliance,g000027_c6,27,,,,,,,,,,,4.870837744987019,0.044773633233157036,345.7480248651788,0.00056968810611673,3.7308,15.9599,13.8549,0.324,0.5319,0.04639,24.5648,0.998,12.0,,,,,,4.100138,PASS,
225,s08_terrain_compliance,g000027_c7,27,,,,,,,,,,,4.904386150446586,0.04211655854295588,353.1136815202804,0.0005723070039726682,3.6935,15.5738,13.7944,0.384,0.5142,0.046166,24.9568,0.996,12.0,,,,,,3.234455,PASS,
226,s08_terrain_compliance,g000028_c0,28,,,,,,,,,,,4.762606989528637,0.04406711152809374,321.2135670881395,0.0005980823195037651,3.7341,14.9032,13.7429,0.4,0.5173,0.040791,24.1424,1.0,12.0,,,,,,2.478305,PASS,
227,s08_terrain_compliance,g000028_c1,28,,,,,,,,,,,5.1702187891399785,0.04385364241925915,324.42997343925487,0.0005987971126720466,3.7802,16.0734,13.9099,0.338,0.5569,0.050902,24.4535,0.996,12.0,,,,,,4.812967,PASS,
228,s08_terrain_compliance,g000028_c2,28,,,,,,,,,,,5.189908544419492,0.04387245964705349,333.5326328367155,0.0005793619560920811,3.702,15.5943,13.8437,0.352,0.538,0.050828,24.716,0.992,12.0,,,,,,4.487884,PASS,
229,s08_terrain_compliance,g000028_c3,28,,,,,,,,,,,5.1218415200079574,0.045821316658252335,327.547703361212,0.0005645581401201713,3.631,16.6147,13.7881,0.36,0.5811,0.048543,24.7455,0.994,12.0,,,,,,5.622645,PASS,
230,s08_terrain_compliance,g000028_c4,28,,,,,,,,,,,5.276989507317103,0.04403415748500205,324.21912318457106,0.0005907409645457335,3.6587,16.53,13.8516,0.382,0.5958,0.050763,24.5742,0.986,12.0,,,,,,6.015386,PASS,
231,s08_terrain_compliance,g000028_c5,28,,,,,,,,,,,4.969141155389257,0.04081442882148434,324.2950218828781,0.0005172875109180514,3.6089,14.6416,13.6464,0.376,0.4744,0.044817,24.13,0.988,12.0,,,,,,2.990495,PASS,
232,s08_terrain_compliance,g000028_c6,28,,,,,,,,,,,5.2560835054229615,0.04728006820570375,327.20648662105674,0.0005395109458415222,3.5188,14.1901,13.4493,0.336,0.4192,0.047616,25.1087,0.994,12.0,,,,,,2.545517,PASS,
233,s08_terrain_compliance,g000028_c7,28,,,,,,,,,,,4.622872812246822,0.04559889823080277,295.105442922229,0.0006160135327439927,3.7462,15.0475,13.7553,0.34,0.5078,0.036905,23.3658,0.994,12.0,,,,,,2.640161,PASS,
234,s08_terrain_compliance,g000029_c0,29,,,,,,,,,,,4.629163598314684,0.041491009160762184,330.9469637649153,0.0005771482417036854,3.6471,16.6891,13.8128,0.346,0.5324,0.041773,24.0117,0.99,12.0,,,,,,4.526414,PASS,
235,s08_terrain_compliance,g000029_c1,29,,,,,,,,,,,5.062146828050743,0.04283947070377934,315.8729866978898,0.0005682631311805646,3.7163,15.7716,13.8453,0.33,0.542,0.048453,24.0889,0.996,12.0,,,,,,4.671787,PASS,
236,s08_terrain_compliance,g000029_c2,29,,,,,,,,,,,4.910073280437626,0.048074003814302095,315.79455325816326,0.0005981872047928253,3.5574,16.2064,13.7008,0.336,0.5091,0.044999,24.3587,0.998,12.0,,,,,,4.2966,PASS,
237,s08_terrain_compliance,g000029_c3,29,,,,,,,,,,,5.070102563338653,0.04493193601363995,332.6521510929277,0.0005803243878329863,4.4805,15.4792,15.3172,0.434,0.9458,0.056785,24.6451,0.992,12.0,,,,,,4.067246,PASS,
238,s08_terrain_compliance,g000029_c4,29,,,,,,,,,,,5.0764792435894135,0.04693486290945971,331.6070941391031,0.0006393227860300068,3.7318,14.6012,13.7984,0.418,0.5363,0.046457,24.7423,0.996,12.0,,,,,,2.71307,PASS,
239,s08_terrain_compliance,g000029_c5,29,,,,,,,,,,,4.88549007819359,0.04361569810795594,300.4704442352809,0.0006229608920583601,3.7459,15.1767,13.8085,0.374,0.5258,0.042171,23.8456,0.996,12.0,,,,,,2.577606,PASS,
240,s08_terrain_compliance,g000029_c6,29,,,,,,,,,,,4.7295800490617586,0.0472623541758012,300.93056074980535,0.0005978275588238572,3.6148,16.6839,13.8546,0.356,0.5618,0.04222,23.8271,0.988,12.0,,,,,,5.295746,PASS,
241,s08_terrain_compliance,g000029_c7,29,,,,,,,,,,,4.7874590545986955,0.04431138870381564,316.4468298456694,0.0006087431666906999,3.6141,15.2699,13.6304,0.336,0.466,0.04282,24.0169,0.986,12.0,,,,,,2.510929,PASS,
242,s08_terrain_compliance,g000030_c0,30,,,,,,,,,,,5.060671465807191,0.043530300734786115,298.76436750129767,0.000559540009220541,3.726,14.9008,13.81,0.432,0.5685,0.045284,23.8621,1.0,12.0,,,,,,3.130798,PASS,
243,s08_terrain_compliance,g000030_c1,30,,,,,,,,,,,5.49155424998918,0.04659320610479787,326.5441169020515,0.0005813171884407501,3.7316,14.7427,13.88,0.446,0.5787,0.054919,24.9864,0.996,12.0,,,,,,4.256373,PASS,
244,s08_terrain_compliance,g000030_c2,30,,,,,,,,,,,5.0197830283758575,0.042048909674584974,315.64659577960765,0.0005939245500920392,3.8879,14.8905,14.2794,0.302,0.6821,0.051827,24.33,0.994,12.0,,,,,,1.628013,PASS,
245,s08_terrain_compliance,g000030_c3,30,,,,,,,,,,,5.133045040081484,0.044120445352132796,320.14535846401503,0.0005737489875849122,4.556,15.2275,15.2681,0.452,0.9133,0.057002,24.21,0.996,12.0,,,,,,4.2105,PASS,
246,s08_terrain_compliance,g000030_c4,30,,,,,,,,,,,4.98821405796595,0.043597090605499544,319.8038963199154,0.0005617514801336656,3.6101,16.5023,13.8447,0.36,0.5715,0.047183,24.394,0.988,12.0,,,,,,5.051293,PASS,
247,s08_terrain_compliance,g000030_c5,30,,,,,,,,,,,5.179311356055009,0.04516296591747745,299.477040246792,0.0006032306158530653,3.699,15.7687,13.8299,0.332,0.5573,0.05017,23.9046,0.988,12.0,,,,,,4.681862,PASS,
248,s08_terrain_compliance,g000030_c6,30,,,,,,,,,,,5.184583199044879,0.04351819782450442,312.3369330624621,0.0005930130576584528,3.6126,16.4654,13.7722,0.358,0.5771,0.048881,24.5265,1.0,12.0,,,,,,5.815952,PASS,
249,s08_terrain_compliance,g000030_c7,30,,,,,,,,,,,5.043401412564561,0.044574570452658356,298.3748954391146,0.0005788231727748232,3.5581,16.125,13.7155,0.344,0.5263,0.046493,24.1889,1.002,12.0,,,,,,5.128722,PASS,
250,s08_terrain_compliance,g000031_c0,31,,,,,,,,,,,5.060061485859837,0.04112347701233766,324.3291832722656,0.0005721108906793085,3.7571,15.7511,13.8545,0.326,0.5332,0.048976,24.4518,0.996,12.0,,,,,,4.363567,PASS,
251,s08_terrain_compliance,g000031_c1,31,,,,,,,,,,,5.122850502046936,0.041177479178858147,318.40320322093777,0.000601160887767876,3.5552,15.8709,13.6978,0.354,0.5126,0.048805,24.5473,1.002,12.0,,,,,,4.636468,PASS,
252,s08_terrain_compliance,g000031_c2,31,,,,,,,,,,,5.386259199538192,0.04280984099244147,318.0208548382113,0.0005816385704173226,3.7479,15.6913,13.88,0.376,0.5774,0.053568,24.8045,1.0,12.0,,,,,,5.307337,PASS,
253,s08_terrain_compliance,g000031_c3,31,,,,,,,,,,,4.957239565523077,0.040568257324689626,310.54069778221276,0.0006120229055506836,3.5342,14.6059,13.4754,0.354,0.4375,0.043047,24.3258,1.004,12.0,,,,,,2.616145,PASS,
254,s08_terrain_compliance,g000031_c4,31,,,,,,,,,,,4.9694029383674305,0.041132523854988876,320.24478989196683,0.0005899918717539212,3.8151,15.7089,14.0643,0.264,0.5963,0.050185,24.4179,0.992,12.0,,,,,,1.599482,PASS,
255,s08_terrain_compliance,g000031_c5,31,,,,,,,,,,,4.840789506210559,0.04294382016103783,310.1183873087564,0.000607184986393263,3.6777,15.2235,13.703,0.364,0.4903,0.043447,24.2024,1.008,12.0,,,,,,3.214054,PASS,
256,s08_terrain_compliance,g000031_c6,31,,,,,,,,,,,4.920178537929332,0.040304072684728354,304.38645671699055,0.0005996471029834947,3.569,15.7727,13.628,0.356,0.4732,0.04449,23.8567,0.998,12.0,,,,,,2.881364,PASS,
257,s08_terrain_compliance,g000031_c7,31,,,,,,,,,,,4.913943141303889,0.04421735673741688,306.6058570574193,0.0005656529624935696,3.6435,15.6144,13.7508,0.338,0.5085,0.045947,24.1489,1.0,12.0,,,,,,3.803659,PASS,
258,s08_terrain_compliance,g000032_c0,32,,,,,,,,,,,5.073941084696819,0.04221905665258347,336.08245983442157,0.0005659546086498361,3.709,14.8997,13.8087,0.358,0.5592,0.044196,24.5565,0.988,12.0,,,,,,2.667804,PASS,
259,s08_terrain_compliance,g000032_c1,32,,,,,,,,,,,4.870540913402544,0.04255444925683835,315.76506653417823,0.0006293921264707446,3.5905,16.1574,13.6305,0.358,0.4741,0.043627,24.2778,1.006,12.0,,,,,,2.606224,PASS,
260,s08_terrain_compliance,g000032_c2,32,,,,,,,,,,,4.989624544544609,0.04220301342567719,332.5409689970711,0.0005551069520147207,3.5835,14.5458,13.6063,0.354,0.457,0.044876,24.69,0.992,12.0,,,,,,2.837111,PASS,
261,s08_terrain_compliance,g000032_c3,32,,,,,,,,,,,5.03462656091507,0.042546225186808395,325.67832988717487,0.0006036154027754299,3.6059,16.5577,13.8328,0.352,0.571,0.04802,24.136,0.988,12.0,,,,,,5.179232,PASS,
262,s08_terrain_compliance,g000032_c4,32,,,,,,,,,,,4.933420489162935,0.041923413066563234,319.8655038110672,0.0005714777593071175,3.7031,16.0289,13.8587,0.33,0.5345,0.047342,24.3944,1.004,12.0,,,,,,4.377767,PASS,
263,s08_terrain_compliance,g000032_c5,32,,,,,,,,,,,4.935340852491087,0.041205451929071595,306.6435980895576,0.0006020185763000931,3.5689,15.8038,13.6521,0.346,0.4762,0.044965,24.1017,0.996,12.0,,,,,,2.99887,PASS,
264,s08_terrain_compliance,g000032_c6,32,,,,,,,,,,,5.160440286338342,0.03893191621709649,314.8338786686683,0.0006205279689894325,3.6491,14.5072,13.7737,0.4,0.5435,0.047993,24.257,1.0,12.0,,,,,,2.434169,PASS,
265,s08_terrain_compliance,g000032_c7,32,,,,,,,,,,,4.836493919882588,0.0397203894739006,288.513910466716,0.0005938005523665558,3.7028,15.349,13.7645,0.344,0.5048,0.044096,23.4834,0.994,12.0,,,,,,3.451004,PASS,
266,s08_terrain_compliance,g000033_c0,33,,,,,,,,,,,5.017433193915788,0.040650153577257174,300.61371702580533,0.0006021543748087131,3.5698,16.2468,13.6938,0.338,0.5154,0.046517,24.0927,0.998,12.0,,,,,,4.780492,PASS,
267,s08_terrain_compliance,g000033_c1,33,,,,,,,,,,,5.197131239788934,0.04349532845877228,341.15264459755304,0.0006117171755688633,3.6342,16.4629,13.7884,0.368,0.5851,0.049783,24.887,1.002,12.0,,,,,,5.760172,PASS,
268,s08_terrain_compliance,g000033_c2,33,,,,,,,,,,,4.708364361760984,0.04158054582846961,329.3140721425944,0.0005994940625202281,3.7456,15.0995,13.7372,0.39,0.5128,0.040477,24.308,0.998,12.0,,,,,,2.582788,PASS,
269,s08_terrain_compliance,g000033_c3,33,,,,,,,,,,,4.829944674381209,0.0411816280341746,303.6923053139538,0.0005414441358295969,3.6002,16.4859,13.7303,0.328,0.5102,0.044291,23.8487,0.994,12.0,,,,,,4.041455,PASS,
270,s08_terrain_compliance,g000033_c4,33,,,,,,,,,,,4.702425879110032,0.043642544649657916,318.7655248158612,0.0005801027188751873,3.6573,15.1058,13.6325,0.334,0.4633,0.041684,24.1817,1.002,12.0,,,,,,2.610642,PASS,
271,s08_terrain_compliance,g000033_c5,33,,,,,,,,,,,5.123521820635367,0.04238111682353975,328.1270882228182,0.0005369805826295357,3.6457,16.4234,13.7835,0.366,0.5817,0.048794,24.2698,0.992,12.0,,,,,,5.643046,PASS,
272,s08_terrain_compliance,g000033_c6,33,,,,,,,,,,,5.496402037248535,0.04200301488123385,298.5302785939505,0.0005654790956016626,3.5799,15.6344,13.8592,0.348,0.5124,0.054454,24.5696,0.994,12.0,,,,,,4.125609,PASS,
273,s08_terrain_compliance,g000033_c7,33,,,,,,,,,,,4.807994491734744,0.04177204839399194,296.7532115273254,0.0005902596575031681,3.7546,14.9109,13.8215,0.38,0.5291,0.040436,23.7435,1.006,12.0,,,,,,2.763405,PASS,
274,s08_terrain_compliance,g000034_c0,34,,,,,,,,,,,4.810585395649302,0.04308240824429769,311.5249085342209,0.0005904058854143576,3.6397,16.7609,13.8951,0.358,0.5865,0.044998,23.952,0.996,12.0,,,,,,5.315751,PASS,
275,s08_terrain_compliance,g000034_c1,34,,,,,,,,,,,4.878961413661283,0.04057352495368422,321.48329866088426,0.0005783723180753644,3.7093,15.3866,13.7597,0.384,0.509,0.045229,24.1161,0.994,12.0,,,,,,3.31194,PASS,
276,s08_terrain_compliance,g000034_c2,34,,,,,,,,,,,4.77150529003902,0.041166819607510605,316.98198404578426,0.000612109792818693,3.5591,14.5152,13.4512,0.32,0.4384,0.039619,23.978,0.996,12.0,,,,,,2.417641,PASS,
277,s08_terrain_compliance,g000034_c3,34,,,,,,,,,,,4.875857045962206,0.041452430583261285,308.94050167389815,0.0005694520472479967,3.5788,16.053,13.6415,0.332,0.4988,0.04447,23.9332,1.0,12.0,,,,,,4.46068,PASS,
278,s08_terrain_compliance,g000034_c4,34,,,,,,,,,,,4.984370724341557,0.04074204287565744,330.05621726010355,0.000586714159705209,3.6922,14.9216,13.8126,0.334,0.5435,0.042833,24.4082,0.988,12.0,,,,,,2.633634,PASS,
279,s08_terrain_compliance,g000034_c5,34,,,,,,,,,,,4.730779595512956,0.041449637082447505,308.94409959681104,0.0005736276287081456,3.7717,15.2185,13.8398,0.356,0.5471,0.039433,24.0248,0.992,12.0,,,,,,2.668155,PASS,
280,s08_terrain_compliance,g000034_c6,34,,,,,,,,,,,4.782702052186501,0.041813227232592405,319.02740123252005,0.0005588203571610382,3.8087,15.4068,14.2001,0.3,0.6199,0.047412,23.9684,0.998,12.0,,,,,,2.120722,PASS,
281,s08_terrain_compliance,g000034_c7,34,,,,,,,,,,,5.110671293930309,0.04495862256199313,319.47631898228485,0.0005761255804422685,3.6877,15.7879,13.8148,0.364,0.547,0.049033,24.3526,0.986,12.0,,,,,,4.343261,PASS,
282,s08_terrain_compliance,g000035_c0,35,,,,,,,,,,,5.020688695624132,0.04198237531892624,305.4055032093969,0.0005833797587662684,3.666,16.8608,13.8728,0.37,0.6073,0.047567,23.939,1.002,12.0,,,,,,6.061238,PASS,
283,s08_terrain_compliance,g000035_c1,35,,,,,,,,,,,4.915763751870162,0.042738368999028144,311.0596163019664,0.0006026139575264459,3.7161,15.9997,13.832,0.368,0.5194,0.046351,24.2328,0.994,12.0,,,,,,2.793932,PASS,
284,s08_terrain_compliance,g000035_c2,35,,,,,,,,,,,4.949527744592728,0.041434086610178396,321.98675969504563,0.0006069642239415131,3.8804,15.0627,14.2608,0.3,0.6762,0.050582,24.3295,0.99,12.0,,,,,,1.560536,PASS,
285,s08_terrain_compliance,g000035_c3,35,,,,,,,,,,,5.144920197610979,0.04203324081912045,331.5964059778369,0.0005988992237333671,3.6476,14.5109,13.6893,0.37,0.4792,0.047706,24.7411,0.99,12.0,,,,,,3.039102,PASS,
286,s08_terrain_compliance,g000035_c4,35,,,,,,,,,,,4.850987177004962,0.04086740715760099,321.51553238582045,0.0006104476024930681,3.8569,15.0449,14.3045,0.31,0.6857,0.049327,24.2844,1.002,12.0,,,,,,1.889052,PASS,
