run_id,scenario,label,gen,timestamp,Q_PITCH,Q_PITCH_RATE,Q_VEL,R,KP_V,KI_V,KFF_V,KP_YAW,KI_YAW,LEG_K_S,LEG_B_S,LEG_K_ROLL,LEG_D_ROLL,rms_pitch_deg,max_pitch_deg,wheel_travel_m,wheel_liftoff_s,vel_track_rms_ms,hip_track_rms_rad,hip_cmd_rate_rms,settle_time_s,survived_s,fitness_balance,fitness_disturbance,fitness_drive_slow,fitness_drive_med,fitness_obstacle,fitness,status,fail_reason
1,s03_vel_pi_disturbance,evo_seed,0,,,,,,0.00980345,0.307154,0.129776,,,,,,,4.0075,8.023,4.1857,0.0,0.1804,0.00999,0.0,0.0,12.0,,,,,,0.9896,PASS,
2,s03_vel_pi_disturbance,g000000_c0,0,,,,,,0.32691737439718543,0.05676872480878902,0.020000000000000004,,,,,,,0.0107,0.023,0.0015,0.0,0.0,0.000787,0.0,12.0,0.008,,,,,,200.15989,FAIL,vel error exceeded
3,s03_vel_pi_disturbance,g000000_c1,0,,,,,,0.0013164639874040137,0.9988942015461797,0.05851632426106177,,,,,,,5.3887,9.1139,0.5361,0.0,0.2339,0.009815,0.0,0.0,3.178,,,,,,201.43301,FAIL,vel error exceeded
4,s03_vel_pi_disturbance,g000000_c2,0,,,,,,0.011142337054326018,0.6872523612030695,0.5,,,,,,,6.9912,14.5599,1.0737,0.0,0.2642,0.010047,0.0,0.0,5.29,,,,,,201.553927,FAIL,vel error exceeded
5,s03_vel_pi_disturbance,g000000_c3,0,,,,,,0.070304210280901,0.2091969009664167,0.10477304652515215,,,,,,,0.0298,0.0625,0.0026,0.0,0.0,0.001014,0.0,12.0,0.01,,,,,,200.1686,FAIL,vel error exceeded
6,s03_vel_pi_disturbance,g000000_c4,0,,,,,,0.001,0.42436345487263377,0.4161106906165566,,,,,,,4.6469,8.4958,1.065,0.0,0.2592,0.009899,0.0,0.0,5.102,,,,,,201.44089,FAIL,vel error exceeded
7,s03_vel_pi_disturbance,g000000_c5,0,,,,,,0.008668046984993355,0.3182516984982378,0.020000000000000004,,,,,,,4.0781,8.0546,4.1683,0.0,0.1856,0.009996,0.0,0.0,12.0,,,,,,1.019732,PASS,
8,s03_vel_pi_disturbance,g000000_c6,0,,,,,,0.003894067192842113,0.10670763119434686,0.020000000000000004,,,,,,,4.7378,6.2391,1.5022,0.0,0.3078,0.010023,0.0,0.0,6.002,,,,,,201.592768,FAIL,vel error exceeded
9,s03_vel_pi_disturbance,g000000_c7,0,,,,,,0.011525910270786139,0.7042045916293314,0.2919223825616453,,,,,,,7.027,14.6466,1.0549,0.0,0.2638,0.010047,0.0,0.0,5.226,,,,,,201.556162,FAIL,vel error exceeded
10,s03_vel_pi_disturbance,g000001_c0,1,,,,,,0.012612683961880197,0.7884978764852595,0.10630775494792667,,,,,,,7.2834,15.6038,0.9735,0.0,0.2653,0.010044,0.0,0.0,4.892,,,,,,201.589867,FAIL,vel error exceeded
11,s03_vel_pi_disturbance,g000001_c1,1,,,,,,1.7827841999925802,0.08246140530991307,0.020000000000000004,,,,,,,0.0131,0.0261,0.0024,0.0,0.0,0.000678,0.0,12.0,0.006,,,,,,200.567795,FAIL,vel error exceeded
12,s03_vel_pi_disturbance,g000001_c2,1,,,,,,0.007393055706177654,0.8621169858914552,0.5,,,,,,,5.037,8.9037,0.6118,0.0,0.2361,0.009834,0.0,0.0,3.512,,,,,,201.419023,FAIL,vel error exceeded
13,s03_vel_pi_disturbance,g000001_c3,1,,,,,,0.006578013986207628,0.12111127809957752,0.020000000000000004,,,,,,,5.0092,7.0757,1.5927,0.0,0.3165,0.010043,0.0,0.0,6.002,,,,,,201.64394,FAIL,vel error exceeded
14,s03_vel_pi_disturbance,g000001_c4,1,,,,,,0.06319779096943916,0.0037335623724070867,0.020000000000000004,,,,,,,1.044,1.7556,0.5593,0.0,0.3999,0.009624,0.0,0.0,2.012,,,,,,202.045212,FAIL,vel error exceeded
15,s03_vel_pi_disturbance,g000001_c5,1,,,,,,0.04055686644949415,7.600543377332607,0.32422198709719424,,,,,,,21.2621,38.31,0.0934,0.0,0.0,0.01002,0.0,12.0,0.45,,,,,,202.282758,FAIL,vel error exceeded
16,s03_vel_pi_disturbance,g000001_c6,1,,,,,,0.24774193951526113,5.446567576307142,0.020000000000000004,,,,,,,0.0119,0.0228,0.0013,0.0,0.0,0.000498,0.0,12.0,0.006,,,,,,200.131587,FAIL,vel error exceeded
17,s03_vel_pi_disturbance,g000001_c7,1,,,,,,0.008732163334087209,0.4694546014082716,0.05005812594878337,,,,,,,5.6541,12.3262,1.2476,0.0,0.2604,0.009995,0.0,0.0,6.002,,,,,,201.47014,FAIL,vel error exceeded
18,s03_vel_pi_disturbance,g000002_c0,2,,,,,,0.0015476131130329382,0.06444304053215826,0.2317396465102102,,,,,,,0.6241,1.4402,0.4501,0.0,0.4103,0.009546,0.0,0.0,1.7,,,,,,202.09693,FAIL,vel error exceeded
19,s03_vel_pi_disturbance,g000002_c1,2,,,,,,0.10579292272613905,3.077282795322131,0.18975872491042198,,,,,,,0.0189,0.0385,0.0019,0.0,0.0,0.000756,0.0,12.0,0.008,,,,,,200.12904,FAIL,vel error exceeded
20,s03_vel_pi_disturbance,g000002_c2,2,,,,,,0.03370079969503374,4.304113500206588,0.5,,,,,,,8.196,12.1996,0.1021,0.0,0.0,0.009765,0.0,12.0,0.778,,,,,,200.66977,FAIL,vel error exceeded
21,s03_vel_pi_disturbance,g000002_c3,2,,,,,,0.0764592624519995,0.009770026962921341,0.020000000000000004,,,,,,,1.4617,2.4247,0.6891,0.0,0.4041,0.009684,0.0,0.0,2.336,,,,,,202.068775,FAIL,vel error exceeded
22,s03_vel_pi_disturbance,g000002_c4,2,,,,,,0.0014787442689554872,0.37048573814515917,0.44354760115148834,,,,,,,4.562,8.3829,1.1806,0.0,0.2645,0.00991,0.0,0.0,5.482,,,,,,201.45416,FAIL,vel error exceeded
23,s03_vel_pi_disturbance,g000002_c5,2,,,,,,0.001,0.38950750162134806,0.5,,,,,,,4.58,8.4384,1.1466,0.0,0.2639,0.009906,0.0,0.0,5.364,,,,,,201.456298,FAIL,vel error exceeded
24,s03_vel_pi_disturbance,g000002_c6,2,,,,,,0.02080475381508224,0.0854274319634293,0.42475627548497263,,,,,,,4.1168,5.3789,1.5845,0.0,0.3224,0.009985,0.0,0.0,6.002,,,,,,201.660795,FAIL,vel error exceeded
25,s03_vel_pi_disturbance,g000002_c7,2,,,,,,0.0018352044674874513,0.16261966384654566,0.1080791708998465,,,,,,,5.0422,7.9603,1.7018,0.0,0.3367,0.010035,0.0,0.0,6.002,,,,,,201.764878,FAIL,vel error exceeded
26,s03_vel_pi_disturbance,g000003_c0,3,,,,,,0.03647923888530708,0.07613534858544088,0.5,,,,,,,3.9163,5.1587,1.6334,0.0,0.3198,0.009975,0.0,0.0,6.004,,,,,,201.65118,FAIL,vel error exceeded
27,s03_vel_pi_disturbance,g000003_c1,3,,,,,,0.001,1.0004637722605774,0.5,,,,,,,5.4878,9.244,0.539,0.0,0.2365,0.009814,0.0,0.0,3.164,,,,,,201.450425,FAIL,vel error exceeded
28,s03_vel_pi_disturbance,g000003_c2,3,,,,,,0.0028143872409938267,0.036150319708020504,0.5,,,,,,,0.3345,0.788,0.4235,0.0,0.4135,0.009519,0.0,0.0,1.628,,,,,,202.109913,FAIL,vel error exceeded
29,s03_vel_pi_disturbance,g000003_c3,3,,,,,,0.03976259308561145,0.23950008648442433,0.020000000000000004,,,,,,,4.1685,7.0334,0.9989,0.0,0.1944,0.009969,0.0,0.0,6.004,,,,,,201.050975,FAIL,vel error exceeded
30,s03_vel_pi_disturbance,g000003_c4,3,,,,,,0.016693305291878298,0.999228468747958,0.5,,,,,,,4.926,8.7795,0.5775,0.0,0.2446,0.009823,0.0,0.0,3.348,,,,,,201.500985,FAIL,vel error exceeded
31,s03_vel_pi_disturbance,g000003_c5,3,,,,,,0.0027954208961800094,0.07090258126967754,0.05607582104297208,,,,,,,0.7698,1.7401,0.4808,0.0,0.4131,0.009565,0.0,0.0,1.774,,,,,,202.112025,FAIL,vel error exceeded
32,s03_vel_pi_disturbance,g000003_c6,3,,,,,,0.01687882508715523,0.005164841264280214,0.5,,,,,,,0.2538,0.4947,0.4152,0.0,0.41,0.009515,0.0,0.0,1.614,,,,,,202.088945,FAIL,vel error exceeded
33,s03_vel_pi_disturbance,g000003_c7,3,,,,,,0.0030921845709845773,5.128606774104448,0.1989913921113264,,,,,,,10.2646,16.1205,0.0858,0.0,0.0,0.009725,0.0,12.0,0.684,,,,,,200.728555,FAIL,vel error exceeded
34,s03_vel_pi_disturbance,g000004_c0,4,,,,,,0.01448366901485202,1.9449840725705074,0.5,,,,,,,6.5627,10.2394,0.31,0.0,0.2528,0.009717,0.0,12.0,2.108,,,,,,201.70995,FAIL,vel error exceeded
35,s03_vel_pi_disturbance,g000004_c1,4,,,,,,0.07511763248042228,0.11759120406512852,0.020000000000000004,,,,,,,4.2774,5.7745,1.0358,0.0,0.2032,0.010009,0.0,0.0,6.002,,,,,,201.069247,FAIL,vel error exceeded
36,s03_vel_pi_disturbance,g000004_c2,4,,,,,,0.2776844551600723,0.0045432892326487334,0.020000000000000004,,,,,,,0.0178,0.0384,0.0024,0.0,0.0,0.000746,0.0,12.0,0.008,,,,,,200.264467,FAIL,vel error exceeded
37,s03_vel_pi_disturbance,g000004_c3,4,,,,,,0.026324626867713388,0.14525284227192556,0.02538053249148881,,,,,,,4.7297,7.0643,1.4268,0.0,0.2771,0.010027,0.0,0.0,6.002,,,,,,201.45163,FAIL,vel error exceeded
38,s03_vel_pi_disturbance,g000004_c4,4,,,,,,0.01050231970053418,0.015417823849696366,0.03769441270259987,,,,,,,0.2524,0.529,0.4086,0.0,0.4089,0.009511,0.0,0.0,1.596,,,,,,202.083603,FAIL,vel error exceeded
39,s03_vel_pi_disturbance,g000004_c5,4,,,,,,0.010352031775775736,19.594507140754267,0.07881982955699732,,,,,,,0.7378,1.6817,0.0123,0.0,0.0,0.002604,0.0,12.0,0.038,,,,,,201.378253,FAIL,vel error exceeded
40,s03_vel_pi_disturbance,g000004_c6,4,,,,,,0.017997752594214263,66.03182711981582,0.5,,,,,,,0.2112,0.539,0.0042,0.0,0.0,0.001784,0.0,12.0,0.02,,,,,,201.176005,FAIL,vel error exceeded
41,s03_vel_pi_disturbance,g000004_c7,4,,,,,,0.0030679301212624857,0.03605490188574068,0.17036395611092672,,,,,,,0.332,0.7798,0.419,0.0,0.4124,0.009517,0.0,0.0,1.62,,,,,,202.103487,FAIL,vel error exceeded
42,s03_vel_pi_disturbance,g000005_c0,5,,,,,,0.007702759903773216,13.911872244548544,0.5,,,,,,,2.1727,4.8159,0.0221,0.0,0.0,0.004019,0.0,12.0,0.078,,,,,,201.791225,FAIL,vel error exceeded
43,s03_vel_pi_disturbance,g000005_c1,5,,,,,,0.001,1.139247913160961,0.5,,,,,,,5.6483,9.2795,0.4778,0.0,0.2329,0.0098,0.0,12.0,2.922,,,,,,201.455647,FAIL,vel error exceeded
44,s03_vel_pi_disturbance,g000005_c2,5,,,,,,0.028468323604990218,0.8243637967986795,0.0618679012399628,,,,,,,6.6792,13.4417,0.8677,0.0,0.2354,0.010045,0.0,0.0,4.866,,,,,,201.42062,FAIL,vel error exceeded
45,s03_vel_pi_disturbance,g000005_c3,5,,,,,,0.0832852608799593,0.015382065654789822,0.5,,,,,,,0.0247,0.0531,0.0022,0.0,0.0,0.001032,0.0,12.0,0.01,,,,,,200.169463,FAIL,vel error exceeded
46,s03_vel_pi_disturbance,g000005_c4,5,,,,,,0.0012713675285000738,0.6127470341209384,0.020000000000000004,,,,,,,4.868,8.7538,0.8024,0.0,0.2458,0.009868,0.0,0.0,4.206,,,,,,201.416697,FAIL,vel error exceeded
47,s03_vel_pi_disturbance,g000005_c5,5,,,,,,0.011555472321976342,2.5995759551166446,0.15699006849578784,,,,,,,8.2911,16.2137,0.27,0.0,0.3051,0.009672,0.0,12.0,1.746,,,,,,202.190085,FAIL,vel error exceeded
48,s03_vel_pi_disturbance,g000005_c6,5,,,,,,0.150432311069666,0.23562897983670414,0.020000000000000004,,,,,,,0.015,0.0318,0.0018,0.0,0.0,0.000768,0.0,12.0,0.008,,,,,,200.14831,FAIL,vel error exceeded
49,s03_vel_pi_disturbance,g000005_c7,5,,,,,,0.007730614364336309,0.0605226261437923,0.2880009578582644,,,,,,,0.7517,1.6697,0.492,0.0,0.4159,0.009568,0.0,0.0,1.796,,,,,,202.12519,FAIL,vel error exceeded
50,s03_vel_pi_disturbance,g000006_c0,6,,,,,,0.02070955744833126,2.5744298494527063,0.5,,,,,,,7.9435,14.9706,0.2632,0.0,0.2945,0.009671,0.0,12.0,1.746,,,,,,202.10636,FAIL,vel error exceeded
51,s03_vel_pi_disturbance,g000006_c1,6,,,,,,0.006098467976987623,0.459346579892441,0.12167151670794507,,,,,,,5.6251,12.6498,1.3107,0.0,0.274,0.009987,0.0,0.0,6.002,,,,,,201.542912,FAIL,vel error exceeded
52,s03_vel_pi_disturbance,g000006_c2,6,,,,,,0.07772556309740716,15.644845952931147,0.06425903029004097,,,,,,,0.0271,0.0598,0.0027,0.0,0.0,0.001014,0.0,12.0,0.01,,,,,,200.256563,FAIL,vel error exceeded
53,s03_vel_pi_disturbance,g000006_c3,6,,,,,,0.006001256438694381,2.459817722335168,0.020000000000000004,,,,,,,7.9089,14.895,0.276,0.0,0.2923,0.009679,0.0,12.0,1.812,,,,,,202.070632,FAIL,vel error exceeded
54,s03_vel_pi_disturbance,g000006_c4,6,,,,,,0.001,3.228888303348551,0.04759188746271639,,,,,,,7.4344,11.7125,0.1472,0.0,0.4616,0.009881,0.0,12.0,1.084,,,,,,202.890942,FAIL,vel error exceeded
55,s03_vel_pi_disturbance,g000006_c5,6,,,,,,0.006993453870911071,0.05542381346584845,0.025678023568136598,,,,,,,0.6199,1.3962,0.4547,0.0,0.4103,0.009549,0.0,0.0,1.714,,,,,,202.097363,FAIL,vel error exceeded
56,s03_vel_pi_disturbance,g000006_c6,6,,,,,,0.001,1.0386180588382123,0.5,,,,,,,5.4385,9.1141,0.517,0.0,0.2331,0.00981,0.0,0.0,3.102,,,,,,201.436265,FAIL,vel error exceeded
57,s03_vel_pi_disturbance,g000006_c7,6,,,,,,0.001,0.32871352258524567,0.06894241935396056,,,,,,,4.5389,8.3161,1.2839,0.0,0.2701,0.009918,0.0,0.0,5.788,,,,,,201.471545,FAIL,vel error exceeded
58,s03_vel_pi_disturbance,g000007_c0,7,,,,,,0.13519639214934348,0.6070934951490355,0.2400790564967547,,,,,,,0.0167,0.035,0.0019,0.0,0.0,0.000762,0.0,12.0,0.008,,,,,,200.144255,FAIL,vel error exceeded
59,s03_vel_pi_disturbance,g000007_c1,7,,,,,,0.013227041858931353,16.303109386688046,0.5,,,,,,,1.142,2.5507,0.0158,0.0,0.0,0.003041,0.0,12.0,0.05,,,,,,201.526085,FAIL,vel error exceeded
60,s03_vel_pi_disturbance,g000007_c2,7,,,,,,0.4000037011253212,0.07439607678326594,0.12261377860805281,,,,,,,0.0107,0.0233,0.0016,0.0,0.0,0.000917,0.0,12.0,0.008,,,,,,200.344935,FAIL,vel error exceeded
61,s03_vel_pi_disturbance,g000007_c3,7,,,,,,0.0480686343239985,2.409781860746627,0.5,,,,,,,5.7999,8.4739,0.2354,0.0,0.2424,0.009666,0.0,12.0,1.824,,,,,,201.679775,FAIL,vel error exceeded
62,s03_vel_pi_disturbance,g000007_c4,7,,,,,,0.036694885278426195,0.0005153774241873282,0.047078910012911444,,,,,,,0.5287,0.9113,0.4598,0.0,0.4052,0.009554,0.0,0.0,1.74,,,,,,202.06574,FAIL,vel error exceeded
63,s03_vel_pi_disturbance,g000007_c5,7,,,,,,0.018844343412361547,8.005061797531505,0.21018363503442944,,,,,,,21.4764,39.2194,0.0963,0.0,0.0,0.01007,0.0,12.0,0.472,,,,,,202.26883,FAIL,vel error exceeded
64,s03_vel_pi_disturbance,g000007_c6,7,,,,,,0.001,0.04932393295976033,0.17164093365440944,,,,,,,0.4472,1.0427,0.4353,0.0,0.4127,0.00953,0.0,0.0,1.66,,,,,,202.10445,FAIL,vel error exceeded
65,s03_vel_pi_disturbance,g000007_c7,7,,,,,,0.0018781321822139581,0.5461282183408916,0.5,,,,,,,4.7617,8.6113,0.8625,0.0,0.2451,0.00988,0.0,0.0,4.462,,,,,,201.395743,FAIL,vel error exceeded
66,s03_vel_pi_disturbance,g000008_c0,8,,,,,,0.015112928963246508,0.3316953253454939,0.5,,,,,,,4.2466,7.9195,3.982,0.0,0.2073,0.010001,0.0,0.0,12.0,,,,,,1.13995,PASS,
67,s03_vel_pi_disturbance,g000008_c1,8,,,,,,0.0026083363205116647,100.0,0.03200083162169318,,,,,,,0.0197,0.0459,0.0022,0.0,0.0,0.00103,0.0,12.0,0.01,,,,,,200.37859,FAIL,vel error exceeded
68,s03_vel_pi_disturbance,g000008_c2,8,,,,,,0.048140759053171604,3.583517086769146,0.5,,,,,,,9.7871,21.1937,0.2128,0.0,0.2923,0.009589,0.0,12.0,1.336,,,,,,202.428835,FAIL,vel error exceeded
69,s03_vel_pi_disturbance,g000008_c3,8,,,,,,0.001,1.2746642161522452,0.020000000000000004,,,,,,,5.8901,9.413,0.4396,0.0,0.2367,0.009784,0.0,12.0,2.732,,,,,,201.50424,FAIL,vel error exceeded
70,s03_vel_pi_disturbance,g000008_c4,8,,,,,,0.015333089134226494,14.874813649234847,0.5,,,,,,,1.8305,4.0907,0.0196,0.0,0.0,0.003747,0.0,12.0,0.07,,,,,,201.717635,FAIL,vel error exceeded
71,s03_vel_pi_disturbance,g000008_c5,8,,,,,,0.008426140403041836,0.47549522297909763,0.028499662119646343,,,,,,,5.7555,12.4383,1.2457,0.0,0.2604,0.01,0.0,0.0,6.002,,,,,,201.472132,FAIL,vel error exceeded
72,s03_vel_pi_disturbance,g000008_c6,8,,,,,,0.001064229608841249,0.12003943312506885,0.5,,,,,,,5.0305,6.9695,1.6064,0.0,0.3205,0.010043,0.0,0.0,6.002,,,,,,201.663655,FAIL,vel error exceeded
73,s03_vel_pi_disturbance,g000008_c7,8,,,,,,0.001,0.04335088967300317,0.020000000000000004,,,,,,,0.3738,0.8646,0.421,0.0,0.4112,0.00952,0.0,0.0,1.624,,,,,,202.097355,FAIL,vel error exceeded
74,s03_vel_pi_disturbance,g000009_c0,9,,,,,,0.010908885012000425,1.8801352247872538,0.04704113156676753,,,,,,,6.7683,10.7441,0.3278,0.0,0.2582,0.009724,0.0,12.0,2.154,,,,,,201.74234,FAIL,vel error exceeded
75,s03_vel_pi_disturbance,g000009_c1,9,,,,,,1.9579525117791639,0.05859342665984445,0.5,,,,,,,0.0192,0.0377,0.0028,0.0,0.0,0.000438,0.0,12.0,0.006,,,,,,200.43217,FAIL,vel error exceeded
76,s03_vel_pi_disturbance,g000009_c2,9,,,,,,0.06687751215288326,2.1169691316463686,0.020000000000000004,,,,,,,0.0281,0.0599,0.0026,0.0,0.0,0.001018,0.0,12.0,0.01,,,,,,200.168935,FAIL,vel error exceeded
77,s03_vel_pi_disturbance,g000009_c3,9,,,,,,0.001,0.28339178299271606,0.020000000000000004,,,,,,,4.326,8.2681,4.2955,0.0,0.2242,0.009976,0.0,0.0,12.0,,,,,,1.21844,PASS,
78,s03_vel_pi_disturbance,g000009_c4,9,,,,,,0.0045798610349342675,0.013199958529198098,0.0971207850999197,,,,,,,0.1384,0.3203,0.3986,0.0,0.4129,0.009498,0.0,0.0,1.566,,,,,,202.104055,FAIL,vel error exceeded
79,s03_vel_pi_disturbance,g000009_c5,9,,,,,,0.013434001644434476,0.08146356517108781,0.105922031649552,,,,,,,1.3388,2.8609,0.5961,0.0,0.4169,0.009634,0.0,0.0,2.054,,,,,,202.139052,FAIL,vel error exceeded
80,s03_vel_pi_disturbance,g000009_c6,9,,,,,,0.01122808879318223,0.8863835573889264,0.5,,,,,,,4.8981,8.7941,0.6286,0.0,0.2437,0.009835,0.0,0.0,3.554,,,,,,201.470133,FAIL,vel error exceeded
81,s03_vel_pi_disturbance,g000009_c7,9,,,,,,0.009122010241608991,0.22749091536906632,0.12702184004755207,,,,,,,4.6052,7.8939,1.3053,0.0,0.2612,0.009972,0.0,0.0,6.004,,,,,,201.398188,FAIL,vel error exceeded
82,s03_vel_pi_disturbance,g000010_c0,10,,,,,,0.11292682891276137,0.21716371013798358,0.46343644299953546,,,,,,,3.9009,5.6813,0.6275,0.0,0.1214,0.009984,0.0,0.0,6.004,,,,,,200.671225,FAIL,vel error exceeded
83,s03_vel_pi_disturbance,g000010_c1,10,,,,,,0.031000019770448577,0.1006012122318014,0.5,,,,,,,4.5513,6.2077,1.3409,0.0,0.2728,0.010017,0.0,0.0,6.002,,,,,,201.416415,FAIL,vel error exceeded
84,s03_vel_pi_disturbance,g000010_c2,10,,,,,,0.001,0.07004358672097989,0.344459157266972,,,,,,,0.7321,1.6859,0.4815,0.0,0.4163,0.009562,0.0,0.0,1.768,,,,,,202.129507,FAIL,vel error exceeded
85,s03_vel_pi_disturbance,g000010_c3,10,,,,,,0.02525894916706807,0.2592037586143097,0.2116841042122635,,,,,,,4.2489,7.4598,1.0963,0.0,0.214,0.009955,0.0,0.0,6.004,,,,,,201.157897,FAIL,vel error exceeded
86,s03_vel_pi_disturbance,g000010_c4,10,,,,,,0.0017693500811775576,0.10891278928661946,0.020000000000000004,,,,,,,4.7968,6.3324,1.5218,0.0,0.3105,0.010027,0.0,0.0,6.002,,,,,,201.608278,FAIL,vel error exceeded
87,s03_vel_pi_disturbance,g000010_c5,10,,,,,,0.0016193531968396032,0.48119603129672317,0.03921469400029764,,,,,,,4.6678,8.5541,0.9903,0.0,0.2575,0.00989,0.0,0.0,4.846,,,,,,201.447455,FAIL,vel error exceeded
88,s03_vel_pi_disturbance,g000010_c6,10,,,,,,0.001,0.6729602874293029,0.11738552479389323,,,,,,,4.956,8.8265,0.7351,0.0,0.2402,0.009859,0.0,0.0,3.976,,,,,,201.3993,FAIL,vel error exceeded
89,s03_vel_pi_disturbance,g000010_c7,10,,,,,,0.0014539879228774597,1.684981741658493,0.44985945403359295,,,,,,,6.7988,10.6766,0.3668,0.0,0.2584,0.009743,0.0,12.0,2.304,,,,,,201.718057,FAIL,vel error exceeded
90,s03_vel_pi_disturbance,g000011_c0,11,,,,,,0.07950458869615712,0.18388560123002426,0.1989967838691365,,,,,,,0.0327,0.0685,0.0029,0.0,0.0,0.001003,0.0,12.0,0.01,,,,,,200.19232,FAIL,vel error exceeded
91,s03_vel_pi_disturbance,g000011_c1,11,,,,,,0.00793924450564295,0.45147822266583665,0.08684304440124238,,,,,,,5.4165,12.0293,1.2827,0.0,0.2659,0.009982,0.0,0.0,6.004,,,,,,201.49605,FAIL,vel error exceeded
92,s03_vel_pi_disturbance,g000011_c2,11,,,,,,0.001,0.15957253663467727,0.05920397681520722,,,,,,,5.0878,8.0059,1.7308,0.0,0.3433,0.010039,0.0,0.0,6.002,,,,,,201.797902,FAIL,vel error exceeded
93,s03_vel_pi_disturbance,g000011_c3,11,,,,,,0.002319567759510163,0.05651475478451182,0.5,,,,,,,0.5611,1.2818,0.4509,0.0,0.4127,0.009542,0.0,0.0,1.698,,,,,,202.108778,FAIL,vel error exceeded
94,s03_vel_pi_disturbance,g000011_c4,11,,,,,,0.009264636175818373,0.0365816477689703,0.16901802476252423,,,,,,,0.449,0.9754,0.4373,0.0,0.4106,0.009533,0.0,0.0,1.668,,,,,,202.094853,FAIL,vel error exceeded
95,s03_vel_pi_disturbance,g000011_c5,11,,,,,,0.05139721765791196,2.2628909915588755,0.5,,,,,,,5.7509,8.5811,0.2547,0.0,0.2455,0.00968,0.0,12.0,1.916,,,,,,201.685287,FAIL,vel error exceeded
96,s03_vel_pi_disturbance,g000011_c6,11,,,,,,0.010102429799120275,0.10143013387287442,0.5,,,,,,,4.5933,6.0378,1.4619,0.0,0.3026,0.010015,0.0,0.0,6.002,,,,,,201.56513,FAIL,vel error exceeded
97,s03_vel_pi_disturbance,g000011_c7,11,,,,,,0.4765877515555625,0.8019789434155974,0.34166309214502943,,,,,,,0.0475,0.1226,0.0021,0.0,0.0,0.001182,0.0,12.0,0.012,,,,,,200.795175,FAIL,vel error exceeded
98,s03_vel_pi_disturbance,g000012_c0,12,,,,,,0.012108136019567051,0.07342622038059145,0.1836257094166697,,,,,,,1.0592,2.3057,0.539,0.0,0.4142,0.009602,0.0,0.0,1.918,,,,,,202.12083,FAIL,vel error exceeded
99,s03_vel_pi_disturbance,g000012_c1,12,,,,,,0.03258384927498017,0.17582020081570063,0.29712726153808233,,,,,,,4.4984,7.0236,1.2694,0.0,0.2437,0.010006,0.0,0.0,6.002,,,,,,201.287682,FAIL,vel error exceeded
100,s03_vel_pi_disturbance,g000012_c2,12,,,,,,0.011428166187579542,0.2479592272894375,0.04556212648084398,,,,,,,4.4947,7.8588,1.2396,0.0,0.2461,0.009957,0.0,0.0,6.004,,,,,,201.324917,FAIL,vel error exceeded
101,s03_vel_pi_disturbance,g000012_c3,12,,,,,,0.05559881867523061,0.07420808753474831,0.5,,,,,,,3.939,5.2645,1.4293,0.0,0.2841,0.00998,0.0,0.0,6.004,,,,,,201.473113,FAIL,vel error exceeded
102,s03_vel_pi_disturbance,g000012_c4,12,,,,,,0.0011639685063555094,1.2138688791221923,0.030866230517948963,,,,,,,5.8916,9.5218,0.4601,0.0,0.2378,0.009791,0.0,12.0,2.804,,,,,,201.50201,FAIL,vel error exceeded
103,s03_vel_pi_disturbance,g000012_c5,12,,,,,,0.013292763138571483,0.26806011786608464,0.07412523310068957,,,,,,,4.4604,8.1316,4.0629,0.0,0.2369,0.009988,0.0,0.0,12.0,,,,,,1.282023,PASS,
104,s03_vel_pi_disturbance,g000012_c6,12,,,,,,0.03871055454778189,0.20764421736442285,0.04116039244649093,,,,,,,4.2905,6.958,1.0823,0.0,0.2105,0.009985,0.0,0.0,6.004,,,,,,201.12763,FAIL,vel error exceeded
105,s03_vel_pi_disturbance,g000012_c7,12,,,,,,0.014524888624505019,5.790833005437537,0.3585136159677195,,,,,,,11.7557,19.1873,0.0796,0.0,0.0,0.009701,0.0,12.0,0.616,,,,,,200.899465,FAIL,vel error exceeded
106,s03_vel_pi_disturbance,g000013_c0,13,,,,,,0.011010423528830407,1.406747165896903,0.020000000000000004,,,,,,,5.7858,9.282,0.4028,0.0,0.2358,0.009769,0.0,12.0,2.596,,,,,,201.518185,FAIL,vel error exceeded
107,s03_vel_pi_disturbance,g000013_c1,13,,,,,,0.03064147770643897,0.29131421688756176,0.045701609774816195,,,,,,,4.0831,7.4087,3.8958,0.0,0.1911,0.009991,0.0,0.0,12.0,,,,,,1.043925,PASS,
108,s03_vel_pi_disturbance,g000013_c2,13,,,,,,0.006423340645366979,0.12968522034930138,0.1423208598782575,,,,,,,5.1131,7.527,1.6758,0.0,0.3323,0.010048,0.0,0.0,6.002,,,,,,201.729655,FAIL,vel error exceeded
109,s03_vel_pi_disturbance,g000013_c3,13,,,,,,0.027632553306142258,0.17597365430536352,0.10766653651397848,,,,,,,4.5569,7.1458,1.3214,0.0,0.2544,0.010008,0.0,0.0,6.002,,,,,,201.343235,FAIL,vel error exceeded
110,s03_vel_pi_disturbance,g000013_c4,13,,,,,,0.19510237848372922,0.38934951234047527,0.036219817478161255,,,,,,,0.0241,0.0508,0.0028,0.0,0.0,0.000719,0.0,12.0,0.008,,,,,,200.27175,FAIL,vel error exceeded
111,s03_vel_pi_disturbance,g000013_c5,13,,,,,,0.010617209442617275,0.2076378646216793,0.10160313960533038,,,,,,,4.6493,7.7682,1.3681,0.0,0.2711,0.009989,0.0,0.0,6.004,,,,,,201.44423,FAIL,vel error exceeded
112,s03_vel_pi_disturbance,g000013_c6,13,,,,,,0.014949905336909064,0.8129926760998655,0.12125533453225965,,,,,,,7.2957,15.5982,0.948,0.0,0.2632,0.010043,0.0,0.0,4.816,,,,,,201.584585,FAIL,vel error exceeded
113,s03_vel_pi_disturbance,g000013_c7,13,,,,,,0.0021862417559161034,0.06318353403965306,0.05957539147500178,,,,,,,0.6288,1.4524,0.4578,0.0,0.4124,0.009549,0.0,0.0,1.716,,,,,,202.10991,FAIL,vel error exceeded
114,s03_vel_pi_disturbance,g000014_c0,14,,,,,,0.06836254222549674,0.3676382573869942,0.18648360626521918,,,,,,,0.0311,0.0653,0.0027,0.0,0.0,0.001008,0.0,12.0,0.01,,,,,,200.166787,FAIL,vel error exceeded
115,s03_vel_pi_disturbance,g000014_c1,14,,,,,,0.03387199302037087,0.2242638931553477,0.2539053407360079,,,,,,,4.2708,7.1244,1.0702,0.0,0.2097,0.009975,0.0,0.0,6.004,,,,,,201.12779,FAIL,vel error exceeded
116,s03_vel_pi_disturbance,g000014_c2,14,,,,,,0.0549127249738417,0.4146354523487131,0.21108108693623814,,,,,,,4.2974,7.0904,0.8395,0.0,0.159,0.009978,0.0,0.0,6.004,,,,,,200.89878,FAIL,vel error exceeded
117,s03_vel_pi_disturbance,g000014_c3,14,,,,,,0.0035672089069088164,0.3966879868476667,0.11145634158754601,,,,,,,4.5143,8.3391,1.1677,0.0,0.2662,0.009908,0.0,0.0,5.434,,,,,,201.471937,FAIL,vel error exceeded
118,s03_vel_pi_disturbance,g000014_c4,14,,,,,,0.020142287441340393,1.2185021353354148,0.1306258381057432,,,,,,,5.2347,8.9525,0.4546,0.0,0.2309,0.009793,0.0,12.0,2.882,,,,,,201.45646,FAIL,vel error exceeded
119,s03_vel_pi_disturbance,g000014_c5,14,,,,,,0.006012958478683778,0.46615869200192156,0.2588591749556444,,,,,,,5.6949,12.7256,1.2897,0.0,0.2703,0.009992,0.0,0.0,6.002,,,,,,201.524333,FAIL,vel error exceeded
120,s03_vel_pi_disturbance,g000014_c6,14,,,,,,0.010873972845847787,0.0434319750318472,0.17667747587847796,,,,,,,0.5698,1.2366,0.4579,0.0,0.4114,0.009548,0.0,0.0,1.718,,,,,,202.100425,FAIL,vel error exceeded
121,s03_vel_pi_disturbance,g000014_c7,14,,,,,,0.04211534467106779,0.0845697199717869,0.5,,,,,,,4.1796,5.6042,1.3329,0.0,0.2784,0.009994,0.0,0.0,6.002,,,,,,201.44,FAIL,vel error exceeded
122,s03_vel_pi_disturbance,g000015_c0,15,,,,,,0.042004228810257185,0.2750171529149046,0.06060523215528806,,,,,,,4.0536,7.0808,0.9577,0.0,0.1841,0.009957,0.0,0.0,6.004,,,,,,201.004503,FAIL,vel error exceeded
123,s03_vel_pi_disturbance,g000015_c1,15,,,,,,0.01807005773420889,0.2343122974678533,0.40601543162961756,,,,,,,4.4382,7.6088,1.1964,0.0,0.2372,0.009967,0.0,0.0,6.004,,,,,,201.274088,FAIL,vel error exceeded
124,s03_vel_pi_disturbance,g000015_c2,15,,,,,,0.056166727680373514,0.6103367755316135,0.04507408796665775,,,,,,,4.9615,8.4526,0.8387,0.0,0.1671,0.010023,0.0,0.0,6.002,,,,,,200.97984,FAIL,vel error exceeded
125,s03_vel_pi_disturbance,g000015_c3,15,,,,,,0.008828854960256387,0.12388128768505692,0.26264878089963273,,,,,,,5.028,7.227,1.6086,0.0,0.3184,0.010044,0.0,0.0,6.002,,,,,,201.655352,FAIL,vel error exceeded
126,s03_vel_pi_disturbance,g000015_c4,15,,,,,,0.01088220805651542,1.6784579318784727,0.13904829798948495,,,,,,,6.3332,9.5601,0.3538,0.0,0.247,0.009742,0.0,12.0,2.318,,,,,,201.63467,FAIL,vel error exceeded
127,s03_vel_pi_disturbance,g000015_c5,15,,,,,,0.02615676671627456,0.43069151197211897,0.1685399390877863,,,,,,,4.7916,9.5046,1.0984,0.0,0.2189,0.009976,0.0,0.0,6.004,,,,,,201.230257,FAIL,vel error exceeded
128,s03_vel_pi_disturbance,g000015_c6,15,,,,,,0.0062997054054143645,0.062102038457228274,0.1763052612647196,,,,,,,0.7446,1.638,0.4855,0.0,0.4135,0.009567,0.0,0.0,1.784,,,,,,202.111967,FAIL,vel error exceeded
129,s03_vel_pi_disturbance,g000015_c7,15,,,,,,0.011104922133524228,0.365490739029963,0.2377068136528009,,,,,,,5.3933,11.3224,3.7102,0.0,0.2844,0.010019,0.0,0.0,10.9,,,,,,201.567862,FAIL,vel error exceeded
130,s03_vel_pi_disturbance,g000016_c0,16,,,,,,0.008516790701276245,0.5709219631961633,0.18260234191039268,,,,,,,6.6569,13.5029,1.2248,0.0,0.2656,0.01005,0.0,0.0,5.86,,,,,,201.52683,FAIL,vel error exceeded
131,s03_vel_pi_disturbance,g000016_c1,16,,,,,,0.012130340882875307,0.2790524218703127,0.09926386389698456,,,,,,,4.2622,7.89,4.1115,0.0,0.2132,0.009984,0.0,0.0,12.0,,,,,,1.158543,PASS,
132,s03_vel_pi_disturbance,g000016_c2,16,,,,,,0.009282742262648856,0.46859922617185895,0.06193745888057223,,,,,,,5.6407,12.2443,1.2436,0.0,0.2593,0.009995,0.0,0.0,6.002,,,,,,201.463763,FAIL,vel error exceeded
133,s03_vel_pi_disturbance,g000016_c3,16,,,,,,0.008745463373806907,0.4665252044748268,0.1028072296658431,,,,,,,5.6308,12.348,1.2575,0.0,0.2624,0.009993,0.0,0.0,6.002,,,,,,201.480685,FAIL,vel error exceeded
134,s03_vel_pi_disturbance,g000016_c4,16,,,,,,0.0198341437445586,0.3110099161492345,0.05227290986339326,,,,,,,4.0267,7.7523,4.0016,0.0,0.1835,0.009992,0.0,0.0,12.0,,,,,,1.007155,PASS,
135,s03_vel_pi_disturbance,g000016_c5,16,,,,,,0.028923896932654562,0.27682180082664765,0.10143636857675391,,,,,,,4.1956,7.5758,3.9158,0.0,0.2052,0.009991,0.0,0.0,12.0,,,,,,1.115263,PASS,
136,s03_vel_pi_disturbance,g000016_c6,16,,,,,,0.011434034791547315,0.623238344458687,0.09346286741673021,,,,,,,6.7084,13.6194,1.1328,0.0,0.2592,0.010048,0.0,0.0,5.598,,,,,,201.505765,FAIL,vel error exceeded
137,s03_vel_pi_disturbance,g000016_c7,16,,,,,,0.007329708325305167,0.24826839196209313,0.1937101302928984,,,,,,,4.563,7.9695,1.28,0.0,0.255,0.009955,0.0,0.0,6.004,,,,,,201.37141,FAIL,vel error exceeded
138,s03_vel_pi_disturbance,g000017_c0,17,,,,,,0.006202681331266766,0.44917095318618383,0.16253548367806486,,,,,,,5.4545,12.27,1.3238,0.0,0.2751,0.009979,0.0,0.0,6.004,,,,,,201.5462,FAIL,vel error exceeded
139,s03_vel_pi_disturbance,g000017_c1,17,,,,,,0.01662930606043884,0.4997370283611006,0.18977506759519108,,,,,,,5.8158,11.6756,1.1488,0.0,0.2373,0.010017,0.0,0.0,6.002,,,,,,201.349465,FAIL,vel error exceeded
140,s03_vel_pi_disturbance,g000017_c2,17,,,,,,0.003798471618744695,0.46703396494690874,0.15744912719819565,,,,,,,5.7656,12.9898,1.3089,0.0,0.2752,0.009993,0.0,0.0,6.002,,,,,,201.552295,FAIL,vel error exceeded
141,s03_vel_pi_disturbance,g000017_c3,17,,,,,,0.013917827769920942,0.10551043979938625,0.09070803769174801,,,,,,,4.6966,6.3166,1.4455,0.0,0.2946,0.010023,0.0,0.0,6.002,,,,,,201.526792,FAIL,vel error exceeded
142,s03_vel_pi_disturbance,g000017_c4,17,,,,,,0.009709193139891803,0.12736278621445243,0.1398437014707315,,,,,,,5.0567,7.4067,1.6326,0.0,0.323,0.010046,0.0,0.0,6.002,,,,,,201.680463,FAIL,vel error exceeded
143,s03_vel_pi_disturbance,g000017_c5,17,,,,,,0.012984589405587246,0.2453147264204484,0.06108215098816934,,,,,,,4.47,7.7843,1.2228,0.0,0.2425,0.009959,0.0,0.0,6.004,,,,,,201.305238,FAIL,vel error exceeded
144,s03_vel_pi_disturbance,g000017_c6,17,,,,,,0.007426557324648967,0.2575385663358134,0.057417547148771765,,,,,,,5.0689,9.2137,3.7786,0.0,0.2703,0.010019,0.0,0.0,10.598,,,,,,201.455253,FAIL,vel error exceeded
145,s03_vel_pi_disturbance,g000017_c7,17,,,,,,0.009530583810080717,1.0353313250006442,0.13669729211993745,,,,,,,5.2401,9.0054,0.5244,0.0,0.2338,0.009812,0.0,0.0,3.15,,,,,,201.439873,FAIL,vel error exceeded
146,s03_vel_pi_disturbance,g000018_c0,18,,,,,,0.011550968951993156,0.4142433385733873,0.30521139716172996,,,,,,,4.8555,10.1009,1.2905,0.0,0.2628,0.009958,0.0,0.0,6.004,,,,,,201.465395,FAIL,vel error exceeded
147,s03_vel_pi_disturbance,g000018_c1,18,,,,,,0.01057757906460253,0.2678719750077808,0.08987112888944589,,,,,,,4.5063,8.202,4.0866,0.0,0.2421,0.009986,0.0,0.0,12.0,,,,,,1.30953,PASS,
148,s03_vel_pi_disturbance,g000018_c2,18,,,,,,0.022746221528374088,0.2595698465345402,0.09809603934519809,,,,,,,4.2785,7.5068,1.1163,0.0,0.2186,0.009954,0.0,0.0,6.004,,,,,,201.182247,FAIL,vel error exceeded
149,s03_vel_pi_disturbance,g000018_c3,18,,,,,,0.010691324841706967,0.4516158477500105,0.22377100476687556,,,,,,,5.3576,11.7047,1.2532,0.0,0.2588,0.009983,0.0,0.0,6.004,,,,,,201.456967,FAIL,vel error exceeded
150,s03_vel_pi_disturbance,g000018_c4,18,,,,,,0.009027363037815246,0.410334368984888,0.10597132812072203,,,,,,,4.8502,10.0762,1.3234,0.0,0.2708,0.009954,0.0,0.0,6.004,,,,,,201.508042,FAIL,vel error exceeded
151,s03_vel_pi_disturbance,g000018_c5,18,,,,,,0.013467276131078489,0.3443405309442493,0.15879178020646711,,,,,,,4.5038,8.2671,3.8998,0.0,0.2367,0.010007,0.0,0.0,12.0,,,,,,1.302512,PASS,
152,s03_vel_pi_disturbance,g000018_c6,18,,,,,,0.01801671798700509,0.27393033132280986,0.14436814265840528,,,,,,,4.289,7.6583,4.0209,0.0,0.2163,0.009989,0.0,0.0,12.0,,,,,,1.17366,PASS,
153,s03_vel_pi_disturbance,g000018_c7,18,,,,,,0.007214384436643651,0.280672335605777,0.11291752872229936,,,,,,,4.2811,8.0495,4.1862,0.0,0.2163,0.009981,0.0,0.0,12.0,,,,,,1.175443,PASS,
154,s03_vel_pi_disturbance,g000019_c0,19,,,,,,0.008124327901096589,0.223946339566361,0.23619643269904309,,,,,,,4.6281,7.8944,1.3237,0.0,0.2649,0.009975,0.0,0.0,6.004,,,,,,201.416583,FAIL,vel error exceeded
155,s03_vel_pi_disturbance,g000019_c1,19,,,,,,0.01222768536578899,0.17762011616591505,0.13274650574814387,,,,,,,4.7671,7.6311,1.4988,0.0,0.2921,0.010014,0.0,0.0,6.002,,,,,,201.539977,FAIL,vel error exceeded
156,s03_vel_pi_disturbance,g000019_c2,19,,,,,,0.011038767445749439,0.3473591072703952,0.13491397222211943,,,,,,,4.6636,8.8096,3.9132,0.0,0.252,0.010011,0.0,0.0,12.0,,,,,,1.385997,PASS,
157,s03_vel_pi_disturbance,g000019_c3,19,,,,,,0.008848379336905148,0.29180086322189,0.17754897431538674,,,,,,,4.0903,8.0252,4.1875,0.0,0.1933,0.009983,0.0,0.0,12.0,,,,,,1.054973,PASS,
158,s03_vel_pi_disturbance,g000019_c4,19,,,,,,0.004198129262836257,0.41179810222144253,0.10642076945796476,,,,,,,4.9535,10.5493,1.3875,0.0,0.2864,0.009951,0.0,0.0,6.004,,,,,,201.594153,FAIL,vel error exceeded
159,s03_vel_pi_disturbance,g000019_c5,19,,,,,,0.00591096896904707,0.44907503328349974,0.19213191997939044,,,,,,,5.4693,12.3193,1.3279,0.0,0.2762,0.009979,0.0,0.0,6.004,,,,,,201.552507,FAIL,vel error exceeded
160,s03_vel_pi_disturbance,g000019_c6,19,,,,,,0.022107104681763665,0.29020049481384824,0.10248280340698097,,,,,,,4.0927,7.637,3.9972,0.0,0.1923,0.009988,0.0,0.0,12.0,,,,,,1.04919,PASS,
161,s03_vel_pi_disturbance,g000019_c7,19,,,,,,0.01122889089658979,0.24472865776269329,0.14406212702473525,,,,,,,4.5086,7.8484,1.2458,0.0,0.2476,0.009959,0.0,0.0,6.004,,,,,,201.331517,FAIL,vel error exceeded
162,s03_vel_pi_disturbance,g000020_c0,20,,,,,,0.008289251297127284,0.23453730092986066,0.11756954782718095,,,,,,,4.5878,7.9036,1.2912,0.0,0.258,0.009966,0.0,0.0,6.004,,,,,,201.383765,FAIL,vel error exceeded
163,s03_vel_pi_disturbance,g000020_c1,20,,,,,,0.010125342375597934,0.2679569705324652,0.10270319382223454,,,,,,,4.5116,8.2439,4.0876,0.0,0.2428,0.009986,0.0,0.0,12.0,,,,,,1.313632,PASS,
164,s03_vel_pi_disturbance,g000020_c2,20,,,,,,0.01061639327583778,0.29142794633512775,0.154023679241114,,,,,,,4.0824,7.9638,4.1582,0.0,0.1916,0.009985,0.0,0.0,12.0,,,,,,1.046402,PASS,
165,s03_vel_pi_disturbance,g000020_c3,20,,,,,,0.008700893334788433,0.2697977615315779,0.14540849901255393,,,,,,,4.5031,8.1355,4.1176,0.0,0.2416,0.009984,0.0,0.0,12.0,,,,,,1.307985,PASS,
166,s03_vel_pi_disturbance,g000020_c4,20,,,,,,0.009729511109540177,0.31954940642717466,0.10862715035516131,,,,,,,4.0818,8.0437,4.1409,0.0,0.1866,0.009996,0.0,0.0,12.0,,,,,,1.025335,PASS,
167,s03_vel_pi_disturbance,g000020_c5,20,,,,,,0.00885189229550028,0.4850881915160494,0.1144106410743158,,,,,,,5.8703,12.4771,1.2315,0.0,0.2577,0.010007,0.0,0.0,6.002,,,,,,201.460078,FAIL,vel error exceeded
168,s03_vel_pi_disturbance,g000020_c6,20,,,,,,0.00941274625825696,0.3545188251004493,0.14340066169710275,,,,,,,4.9336,9.8335,3.8716,0.0,0.2797,0.010016,0.0,0.0,12.0,,,,,,1.539613,PASS,
169,s03_vel_pi_disturbance,g000020_c7,20,,,,,,0.00451448681285392,0.3614119636414138,0.08402395324653657,,,,,,,5.5057,11.6134,3.8961,0.0,0.2935,0.01002,0.0,0.0,11.036,,,,,,201.616373,FAIL,vel error exceeded
170,s03_vel_pi_disturbance,g000021_c0,21,,,,,,0.009127254311738234,0.30551814318097786,0.10730825256662722,,,,,,,4.0067,8.0326,4.1979,0.0,0.1809,0.009988,0.0,0.0,12.0,,,,,,0.991825,PASS,
171,s03_vel_pi_disturbance,g000021_c1,21,,,,,,0.010385442101919294,0.2642329270989315,0.1415949116043101,,,,,,,4.5842,8.4889,4.0773,0.0,0.2516,0.009988,0.0,0.0,12.0,,,,,,1.359475,PASS,
172,s03_vel_pi_disturbance,g000021_c2,21,,,,,,0.010926505858442622,0.33151725354144435,0.1330289454047137,,,,,,,4.287,8.0387,4.0544,0.0,0.2091,0.010004,0.0,0.0,12.0,,,,,,1.14958,PASS,
173,s03_vel_pi_disturbance,g000021_c3,21,,,,,,0.00932812218632609,0.34359646379956055,0.12988888954035996,,,,,,,4.567,8.2332,3.9786,0.0,0.2401,0.01001,0.0,0.0,12.0,,,,,,1.320475,PASS,
174,s03_vel_pi_disturbance,g000021_c4,21,,,,,,0.00962258860558765,0.345055171938731,0.0936504009534474,,,,,,,4.6234,8.5148,3.9606,0.0,0.2463,0.010011,0.0,0.0,12.0,,,,,,1.354585,PASS,
175,s03_vel_pi_disturbance,g000021_c5,21,,,,,,0.012959042433437505,0.2847383317172275,0.09820447240036197,,,,,,,4.1656,7.884,4.1144,0.0,0.2016,0.009985,0.0,0.0,12.0,,,,,,1.098335,PASS,
176,s03_vel_pi_disturbance,g000021_c6,21,,,,,,0.009879244370882764,0.34035174577840394,0.1056588201141043,,,,,,,4.4918,8.0777,3.9893,0.0,0.2321,0.010009,0.0,0.0,12.0,,,,,,1.27616,PASS,
177,s03_vel_pi_disturbance,g000021_c7,21,,,,,,0.008224338302169124,0.2345215587284321,0.1346926131265207,,,,,,,4.5764,7.8834,1.2847,0.0,0.2565,0.009966,0.0,0.0,6.004,,,,,,201.37574,FAIL,vel error exceeded
178,s03_vel_pi_disturbance,g000022_c0,22,,,,,,0.008642418487746351,0.31150205658709207,0.12439098865134152,,,,,,,4.0242,8.0646,4.1993,0.0,0.181,0.009992,0.0,0.0,12.0,,,,,,0.993645,PASS,
179,s03_vel_pi_disturbance,g000022_c1,22,,,,,,0.009501471404233715,0.24855013593175687,0.12674181139831464,,,,,,,4.5193,7.9039,1.2548,0.0,0.2494,0.009956,0.0,0.0,6.004,,,,,,201.34195,FAIL,vel error exceeded
180,s03_vel_pi_disturbance,g000022_c2,22,,,,,,0.009719258265195084,0.31991391172939604,0.10382589919676749,,,,,,,4.0764,8.0128,4.1374,0.0,0.1861,0.009996,0.0,0.0,12.0,,,,,,1.022487,PASS,
181,s03_vel_pi_disturbance,g000022_c3,22,,,,,,0.010712365614364101,0.27825152367815387,0.13193855698785548,,,,,,,4.2924,7.9065,4.1148,0.0,0.2169,0.009984,0.0,0.0,12.0,,,,,,1.178023,PASS,
182,s03_vel_pi_disturbance,g000022_c4,22,,,,,,0.010084438177094462,0.35376012253202466,0.1134636716438523,,,,,,,4.8888,9.7219,3.863,0.0,0.2756,0.010015,0.0,0.0,12.0,,,,,,1.51705,PASS,
183,s03_vel_pi_disturbance,g000022_c5,22,,,,,,0.00815824553628902,0.37928278195853804,0.17051174245138784,,,,,,,4.591,8.4084,2.2681,0.0,0.2956,0.009919,0.0,0.0,8.644,,,,,,201.632097,FAIL,vel error exceeded
184,s03_vel_pi_disturbance,g000022_c6,22,,,,,,0.009692669756977138,0.40915711712763364,0.12384026710111468,,,,,,,4.8285,9.9696,1.3153,0.0,0.2685,0.009954,0.0,0.0,6.004,,,,,,201.494943,FAIL,vel error exceeded
185,s03_vel_pi_disturbance,g000022_c7,22,,,,,,0.008660649582797851,0.25955657901859386,0.18383024979278556,,,,,,,4.7439,8.9962,4.0677,0.0,0.2706,0.009989,0.0,0.0,12.0,,,,,,1.45882,PASS,
186,s03_vel_pi_disturbance,g000023_c0,23,,,,,,0.0070049003283984565,0.3293429620726362,0.1434430239945318,,,,,,,4.2734,8.1633,4.1474,0.0,0.2048,0.010003,0.0,0.0,12.0,,,,,,1.125725,PASS,
187,s03_vel_pi_disturbance,g000023_c1,23,,,,,,0.011175262427987198,0.3052400970345234,0.11355243854260413,,,,,,,4.0041,7.9666,4.1556,0.0,0.1803,0.009989,0.0,0.0,12.0,,,,,,0.988575,PASS,
188,s03_vel_pi_disturbance,g000023_c2,23,,,,,,0.009246991314378663,0.3148324988700021,0.12054482711344884,,,,,,,4.0487,8.0727,4.175,0.0,0.1831,0.009994,0.0,0.0,12.0,,,,,,1.00571,PASS,
189,s03_vel_pi_disturbance,g000023_c3,23,,,,,,0.00939371344117531,0.29356913224894104,0.12331384469858024,,,,,,,4.0691,7.9999,4.1908,0.0,0.1905,0.009984,0.0,0.0,12.0,,,,,,1.040693,PASS,
190,s03_vel_pi_disturbance,g000023_c4,23,,,,,,0.012183934745955584,0.2627203599295101,0.12033648952190018,,,,,,,4.5898,8.5633,4.0548,0.0,0.2527,0.009989,0.0,0.0,12.0,,,,,,1.364783,PASS,
191,s03_vel_pi_disturbance,g000023_c5,23,,,,,,0.00883034089328036,0.2971734144968321,0.12715702674242416,,,,,,,4.0377,8.0374,4.1958,0.0,0.1863,0.009985,0.0,0.0,12.0,,,,,,1.01943,PASS,
192,s03_vel_pi_disturbance,g000023_c6,23,,,,,,0.00997808985806719,0.27459120653669467,0.12365242342594764,,,,,,,4.3729,7.9867,4.1287,0.0,0.2264,0.009984,0.0,0.0,12.0,,,,,,1.228128,PASS,
193,s03_vel_pi_disturbance,g000023_c7,23,,,,,,0.009944125365111744,0.3091641799054019,0.12690636246561468,,,,,,,4.01,8.0198,4.1736,0.0,0.1803,0.00999,0.0,0.0,12.0,,,,,,0.989015,PASS,
194,s03_vel_pi_disturbance,g000024_c0,24,,,,,,0.011865081966881401,0.25555993518117276,0.11232033219602432,,,,,,,4.4559,7.8674,1.2257,0.0,0.2425,0.009952,0.0,0.0,6.004,,,,,,201.308288,FAIL,vel error exceeded
195,s03_vel_pi_disturbance,g000024_c1,24,,,,,,0.00979004403366773,0.30183044422690974,0.14236859294172352,,,,,,,4.0083,8.0224,4.1833,0.0,0.1816,0.009987,0.0,0.0,12.0,,,,,,0.994893,PASS,
196,s03_vel_pi_disturbance,g000024_c2,24,,,,,,0.011910774433034722,0.31103378970546436,0.12439285882872032,,,,,,,4.0175,7.9741,4.132,0.0,0.1807,0.009992,0.0,0.0,12.0,,,,,,0.991768,PASS,
197,s03_vel_pi_disturbance,g000024_c3,24,,,,,,0.0126165424663066,0.3412373556410007,0.12023560752400524,,,,,,,4.4656,8.0051,3.9504,0.0,0.2311,0.010007,0.0,0.0,12.0,,,,,,1.271188,PASS,
198,s03_vel_pi_disturbance,g000024_c4,24,,,,,,0.011405512929475718,0.30863490932106075,0.10677428544868263,,,,,,,4.0089,7.9774,4.1521,0.0,0.1801,0.009991,0.0,0.0,12.0,,,,,,0.987955,PASS,
199,s03_vel_pi_disturbance,g000024_c5,24,,,,,,0.010048131361548978,0.29324631031506054,0.12568620901612645,,,,,,,4.0754,8.006,4.1792,0.0,0.1912,0.009984,0.0,0.0,12.0,,,,,,1.04394,PASS,
200,s03_vel_pi_disturbance,g000024_c6,24,,,,,,0.011236712515494244,0.29950279617023046,0.11701449963708498,,,,,,,4.0199,7.9561,4.1574,0.0,0.1832,0.009987,0.0,0.0,12.0,,,,,,1.00307,PASS,
201,s03_vel_pi_disturbance,g000024_c7,24,,,,,,0.01107335454648179,0.28884053276390664,0.12612856173326242,,,,,,,4.1133,7.9607,4.1538,0.0,0.1954,0.009985,0.0,0.0,12.0,,,,,,1.065948,PASS,
202,s03_vel_pi_disturbance,g000025_c0,25,,,,,,0.010195052436582,0.29682670823022045,0.107168715549301,,,,,,,4.0376,7.9697,4.1716,0.0,0.1861,0.009985,0.0,0.0,12.0,,,,,,1.017853,PASS,
203,s03_vel_pi_disturbance,g000025_c1,25,,,,,,0.012147546947653003,0.3188071643806082,0.1257718724388591,,,,,,,4.0764,7.9731,4.102,0.0,0.1866,0.009996,0.0,0.0,12.0,,,,,,1.025035,PASS,
204,s03_vel_pi_disturbance,g000025_c2,25,,,,,,0.012398607693280956,0.32656213199306183,0.10372364854587886,,,,,,,4.1769,7.9749,4.0545,0.0,0.198,0.01,0.0,0.0,12.0,,,,,,1.088463,PASS,
205,s03_vel_pi_disturbance,g000025_c3,25,,,,,,0.01150824427552238,0.31358047973399755,0.10947837184013284,,,,,,,4.0318,7.9836,4.1298,0.0,0.182,0.009993,0.0,0.0,12.0,,,,,,0.999445,PASS,
206,s03_vel_pi_disturbance,g000025_c4,25,,,,,,0.013236811979220258,0.2764675498247865,0.10608702237513688,,,,,,,4.2854,7.8259,4.0794,0.0,0.2158,0.009986,0.0,0.0,12.0,,,,,,1.171617,PASS,
207,s03_vel_pi_disturbance,g000025_c5,25,,,,,,0.009315143517207684,0.29216246865188134,0.12982414814144,,,,,,,4.0786,7.9925,4.1891,0.0,0.1916,0.009984,0.0,0.0,12.0,,,,,,1.046385,PASS,
208,s03_vel_pi_disturbance,g000025_c6,25,,,,,,0.012398646258043388,0.33271989532665325,0.13039546367192087,,,,,,,4.2912,7.9856,4.0246,0.0,0.2105,0.010003,0.0,0.0,12.0,,,,,,1.157115,PASS,
209,s03_vel_pi_disturbance,g000025_c7,25,,,,,,0.011707346326998283,0.31907811155474547,0.10866825458630912,,,,,,,4.0763,8.0108,4.1093,0.0,0.1864,0.009996,0.0,0.0,12.0,,,,,,1.024245,PASS,
210,s03_vel_pi_disturbance,g000026_c0,26,,,,,,0.011707736462149903,0.3586405684552373,0.10729696608570716,,,,,,,5.1438,10.3228,3.7325,0.0,0.2698,0.01002,0.0,0.0,11.132,,,,,,201.485772,FAIL,vel error exceeded
211,s03_vel_pi_disturbance,g000026_c1,26,,,,,,0.011802004278615365,0.31358721079901725,0.11223718271364189,,,,,,,4.0353,7.9817,4.1207,0.0,0.1824,0.009994,0.0,0.0,12.0,,,,,,1.001758,PASS,
212,s03_vel_pi_disturbance,g000026_c2,26,,,,,,0.01026480134559908,0.29113014307719665,0.11061523708760988,,,,,,,4.0954,7.982,4.1687,0.0,0.1937,0.009984,0.0,0.0,12.0,,,,,,1.056815,PASS,
213,s03_vel_pi_disturbance,g000026_c3,26,,,,,,0.011333742659857184,0.32231859101579585,0.11135817437966798,,,,,,,4.1167,8.0074,4.1013,0.0,0.1906,0.009998,0.0,0.0,12.0,,,,,,1.047557,PASS,
214,s03_vel_pi_disturbance,g000026_c4,26,,,,,,0.011070671993043055,0.29810054153531773,0.11439188933588097,,,,,,,4.0293,7.96,4.1633,0.0,0.1848,0.009986,0.0,0.0,12.0,,,,,,1.010975,PASS,
215,s03_vel_pi_disturbance,g000026_c5,26,,,,,,0.010210140199241052,0.29536001605098383,0.12053531852804543,,,,,,,4.0504,7.9734,4.1649,0.0,0.1878,0.009985,0.0,0.0,12.0,,,,,,1.0264,PASS,
216,s03_vel_pi_disturbance,g000026_c6,26,,,,,,0.011955367786579673,0.30513455915133086,0.08693772845031611,,,,,,,4.0061,7.9566,4.141,0.0,0.1806,0.009989,0.0,0.0,12.0,,,,,,0.989873,PASS,
217,s03_vel_pi_disturbance,g000026_c7,26,,,,,,0.012615597192106432,0.3689472119195408,0.112500031915766,,,,,,,5.4707,11.6773,3.6642,0.0,0.2891,0.010019,0.0,0.0,10.804,,,,,,201.594828,FAIL,vel error exceeded
218,s03_vel_pi_disturbance,g000027_c0,27,,,,,,0.012863280715739259,0.28098354071804665,0.10472062222259916,,,,,,,4.2129,7.8811,4.1104,0.0,0.2072,0.009985,0.0,0.0,12.0,,,,,,1.12697,PASS,
219,s03_vel_pi_disturbance,g000027_c1,27,,,,,,0.011913133156856898,0.35709792183226396,0.09235818584016631,,,,,,,5.0934,10.1358,3.7443,0.0,0.2685,0.010021,0.0,0.0,11.228,,,,,,201.478075,FAIL,vel error exceeded
220,s03_vel_pi_disturbance,g000027_c2,27,,,,,,0.009811879470807352,0.31435082296331734,0.11173343167441045,,,,,,,4.0364,8.0482,4.1605,0.0,0.1822,0.009993,0.0,0.0,12.0,,,,,,1.000918,PASS,
221,s03_vel_pi_disturbance,g000027_c3,27,,,,,,0.012472913302964954,0.30409669471900364,0.10875936360379264,,,,,,,4.0056,7.9218,4.1283,0.0,0.1809,0.009989,0.0,0.0,12.0,,,,,,0.9912,PASS,
222,s03_vel_pi_disturbance,g000027_c4,27,,,,,,0.011178897496817528,0.2918915556872195,0.11616426957740274,,,,,,,4.0878,7.9827,4.1578,0.0,0.1926,0.009984,0.0,0.0,12.0,,,,,,1.05142,PASS,
223,s03_vel_pi_disturbance,g000027_c5,27,,,,,,0.010499185040940117,0.318107566548128,0.09619772965939674,,,,,,,4.0621,7.9939,4.1314,0.0,0.1848,0.009995,0.0,0.0,12.0,,,,,,1.015375,PASS,
224,s03_vel_pi_disturbance,g000027_c6,27,,,,,,0.010086342331226687,0.3207165506981625,0.11892425653804528,,,,,,,4.0946,8.0584,4.1323,0.0,0.188,0.009996,0.0,0.0,12.0,,,,,,1.03315,PASS,
225,s03_vel_pi_disturbance,g000027_c7,27,,,,,,0.011089282000876282,0.3153833365447833,0.11187416300937512,,,,,,,4.0407,7.9733,4.1285,0.0,0.1827,0.009994,0.0,0.0,12.0,,,,,,1.003565,PASS,
226,s03_vel_pi_disturbance,g000028_c0,28,,,,,,0.011761994310569299,0.3017704334583216,0.10407763569617853,,,,,,,4.0147,7.9941,4.1605,0.0,0.1826,0.009987,0.0,0.0,12.0,,,,,,0.999678,PASS,
227,s03_vel_pi_disturbance,g000028_c1,28,,,,,,0.011946417189729889,0.2944757365944919,0.10115352637998451,,,,,,,4.0531,7.9376,4.1438,0.0,0.1877,0.009986,0.0,0.0,12.0,,,,,,1.02581,PASS,
228,s03_vel_pi_disturbance,g000028_c2,28,,,,,,0.01120060949216891,0.31923632651533057,0.10269238987016634,,,,,,,4.0818,8.0123,4.1171,0.0,0.1868,0.009996,0.0,0.0,12.0,,,,,,1.026485,PASS,
229,s03_vel_pi_disturbance,g000028_c3,28,,,,,,0.010812133161403888,0.2728481377755735,0.10974574327926385,,,,,,,4.3833,7.9263,4.1183,0.0,0.2275,0.009985,0.0,0.0,12.0,,,,,,1.233555,PASS,
230,s03_vel_pi_disturbance,g000028_c4,28,,,,,,0.011487817045342671,0.30946214655126586,0.10602855747550838,,,,,,,4.0088,7.9533,4.1374,0.0,0.1804,0.009991,0.0,0.0,12.0,,,,,,0.990013,PASS,
231,s03_vel_pi_disturbance,g000028_c5,28,,,,,,0.012191795568430057,0.35932407916908277,0.11120455398576368,,,,,,,5.1939,10.525,3.7311,0.0,0.272,0.010019,0.0,0.0,11.056,,,,,,201.49829,FAIL,vel error exceeded
232,s03_vel_pi_disturbance,g000028_c6,28,,,,,,0.011476749518476213,0.32267747682423525,0.09591863531918146,,,,,,,4.117,7.9978,4.0931,0.0,0.1907,0.009998,0.0,0.0,12.0,,,,,,1.047968,PASS,
233,s03_vel_pi_disturbance,g000028_c7,28,,,,,,0.011866913789729218,0.3284569723325945,0.1082488898602129,,,,,,,4.2022,8.0316,4.0552,0.0,0.2007,0.010001,0.0,0.0,12.0,,,,,,1.103248,PASS,
234,s03_vel_pi_disturbance,g000029_c0,29,,,,,,0.011527814448267034,0.29694986543408386,0.11092233105801651,,,,,,,4.0372,7.9833,4.1572,0.0,0.1856,0.009986,0.0,0.0,12.0,,,,,,1.015352,PASS,
235,s03_vel_pi_disturbance,g000029_c1,29,,,,,,0.010919927090250471,0.3140521027465061,0.09768143570419816,,,,,,,4.036,8.0248,4.1526,0.0,0.1822,0.009993,0.0,0.0,12.0,,,,,,1.000722,PASS,
236,s03_vel_pi_disturbance,g000029_c2,29,,,,,,0.011813640828434264,0.3191807140370511,0.10931861189823618,,,,,,,4.0708,7.9756,4.1017,0.0,0.1862,0.009996,0.0,0.0,12.0,,,,,,1.02288,PASS,
237,s03_vel_pi_disturbance,g000029_c3,29,,,,,,0.01131429217109307,0.3040866958433587,0.11100119109361474,,,,,,,4.0072,7.9924,4.1644,0.0,0.1808,0.009989,0.0,0.0,12.0,,,,,,0.990743,PASS,
238,s03_vel_pi_disturbance,g000029_c4,29,,,,,,0.01040808572926601,0.3109045069711905,0.10902562821389897,,,,,,,4.0167,7.9899,4.1515,0.0,0.1806,0.009992,0.0,0.0,12.0,,,,,,0.99131,PASS,
239,s03_vel_pi_disturbance,g000029_c5,29,,,,,,0.011404270824061606,0.3237291970247287,0.10952204256664862,,,,,,,4.1295,7.9775,4.086,0.0,0.1922,0.009998,0.0,0.0,12.0,,,,,,1.056173,PASS,
240,s03_vel_pi_disturbance,g000029_c6,29,,,,,,0.012153587712018342,0.2947648573620634,0.10623286930911621,,,,,,,4.0495,7.9117,4.1393,0.0,0.1872,0.009986,0.0,0.0,12.0,,,,,,1.022903,PASS,
241,s03_vel_pi_disturbance,g000029_c7,29,,,,,,0.011329342131165189,0.2892213262734977,0.10309673333903223,,,,,,,4.113,7.9542,4.1465,0.0,0.1955,0.009984,0.0,0.0,12.0,,,,,,1.066555,PASS,
242,s03_vel_pi_disturbance,g000030_c0,30,,,,,,0.011156208115350588,0.3081970799113049,0.10849845846185265,,,,,,,4.0052,7.952,4.1466,0.0,0.1798,0.00999,0.0,0.0,12.0,,,,,,0.986743,PASS,
243,s03_vel_pi_disturbance,g000030_c1,30,,,,,,0.011766104444526946,0.31405481929176277,0.10069571339367629,,,,,,,4.0332,7.9882,4.1334,0.0,0.1821,0.009993,0.0,0.0,12.0,,,,,,0.999893,PASS,
244,s03_vel_pi_disturbance,g000030_c2,30,,,,,,0.012067292490083715,0.32266832624581454,0.10372075315443863,,,,,,,4.0986,7.983,4.0847,0.0,0.1895,0.009997,0.0,0.0,12.0,,,,,,1.041685,PASS,
245,s03_vel_pi_disturbance,g000030_c3,30,,,,,,0.010594707736950591,0.3351515165058304,0.10565756810443798,,,,,,,4.3729,8.0171,4.0171,0.0,0.2188,0.010006,0.0,0.0,12.0,,,,,,1.20294,PASS,
246,s03_vel_pi_disturbance,g000030_c4,30,,,,,,0.011121503096226193,0.31324055181254606,0.10150978323840633,,,,,,,4.0209,7.9971,4.1418,0.0,0.1811,0.009992,0.0,0.0,12.0,,,,,,0.994393,PASS,
247,s03_vel_pi_disturbance,g000030_c5,30,,,,,,0.011221270783843369,0.31902070449093317,0.10539438410973119,,,,,,,4.0732,7.9843,4.1115,0.0,0.1862,0.009996,0.0,0.0,12.0,,,,,,1.022773,PASS,
248,s03_vel_pi_disturbance,g000030_c6,30,,,,,,0.012456141184468998,0.29994455555132477,0.10838081575196908,,,,,,,4.0182,7.9392,4.1388,0.0,0.1826,0.009988,0.0,0.0,12.0,,,,,,0.999838,PASS,
249,s03_vel_pi_disturbance,g000030_c7,30,,,,,,0.01199544319870854,0.2966742527357043,0.10862244748055146,,,,,,,4.0367,7.94,4.1441,0.0,0.1858,0.009986,0.0,0.0,12.0,,,,,,1.01614,PASS,
250,s03_vel_pi_disturbance,g000031_c0,31,,,,,,0.010960080501826105,0.2969231398006125,0.10424818859270309,,,,,,,4.0349,7.9403,4.1546,0.0,0.1854,0.009986,0.0,0.0,12.0,,,,,,1.01405,PASS,
251,s03_vel_pi_disturbance,g000031_c1,31,,,,,,0.010032254935836338,0.3045147081967742,0.10845793903069738,,,,,,,4.0049,8.0114,4.1766,0.0,0.1808,0.009988,0.0,0.0,12.0,,,,,,0.99066,PASS,
252,s03_vel_pi_disturbance,g000031_c2,31,,,,,,0.01167105348749268,0.3043903315218256,0.10440067665046213,,,,,,,4.0064,7.9534,4.1484,0.0,0.1809,0.009989,0.0,0.0,12.0,,,,,,0.991462,PASS,
253,s03_vel_pi_disturbance,g000031_c3,31,,,,,,0.011701773192447772,0.32444378398612855,0.11567213517688442,,,,,,,4.1495,8.0117,4.0853,0.0,0.1943,0.009999,0.0,0.0,12.0,,,,,,1.06782,PASS,
254,s03_vel_pi_disturbance,g000031_c4,31,,,,,,0.01137759965556759,0.3131926999911004,0.11199196133688867,,,,,,,4.0171,7.967,4.13,0.0,0.1809,0.009992,0.0,0.0,12.0,,,,,,0.99332,PASS,
255,s03_vel_pi_disturbance,g000031_c5,31,,,,,,0.011264077985118833,0.3090859228593197,0.10349136143214088,,,,,,,4.0064,7.968,4.1427,0.0,0.18,0.009991,0.0,0.0,12.0,,,,,,0.987665,PASS,
256,s03_vel_pi_disturbance,g000031_c6,31,,,,,,0.010675337719910506,0.294000240105665,0.10693007616403548,,,,,,,4.0623,7.987,4.1731,0.0,0.1893,0.009985,0.0,0.0,12.0,,,,,,1.034147,PASS,
257,s03_vel_pi_disturbance,g000031_c7,31,,,,,,0.010397834900471362,0.31296371745721485,0.12574117462923515,,,,,,,4.0333,8.0247,4.1564,0.0,0.1821,0.009993,0.0,0.0,12.0,,,,,,0.999963,PASS,
258,s03_vel_pi_disturbance,g000032_c0,32,,,,,,0.011288225419558146,0.3062665263631839,0.11766861123657535,,,,,,,4.0056,8.0016,4.159,0.0,0.1803,0.00999,0.0,0.0,12.0,,,,,,0.988887,PASS,
259,s03_vel_pi_disturbance,g000032_c1,32,,,,,,0.01156935800112407,0.31136534644918357,0.11181437900182446,,,,,,,4.0164,7.9621,4.1383,0.0,0.1807,0.009992,0.0,0.0,12.0,,,,,,0.992045,PASS,
260,s03_vel_pi_disturbance,g000032_c2,32,,,,,,0.011448020070092319,0.32045733023479195,0.11138657177819769,,,,,,,4.0988,7.9863,4.1001,0.0,0.1889,0.009997,0.0,0.0,12.0,,,,,,1.03777,PASS,
261,s03_vel_pi_disturbance,g000032_c3,32,,,,,,0.01187077847206758,0.2990719842300898,0.1062013016421293,,,,,,,4.0276,7.9634,4.1525,0.0,0.1844,0.009987,0.0,0.0,12.0,,,,,,1.009073,PASS,
262,s03_vel_pi_disturbance,g000032_c4,32,,,,,,0.010980311505210383,0.3198528697591728,0.1082194524766624,,,,,,,4.0881,8.0161,4.1215,0.0,0.1874,0.009996,0.0,0.0,12.0,,,,,,1.029635,PASS,
263,s03_vel_pi_disturbance,g000032_c5,32,,,,,,0.01120443836312011,0.29670680831386215,0.11104750827395456,,,,,,,4.0335,7.979,4.1652,0.0,0.1851,0.009986,0.0,0.0,12.0,,,,,,1.012615,PASS,
264,s03_vel_pi_disturbance,g000032_c6,32,,,,,,0.010746664507208256,0.30791313907308093,0.107294304647649,,,,,,,4.0072,7.9858,4.1564,0.0,0.18,0.00999,0.0,0.0,12.0,,,,,,0.98753,PASS,
265,s03_vel_pi_disturbance,g000032_c7,32,,,,,,0.010524355418923697,0.33900803365344784,0.10458047601021635,,,,,,,4.4349,8.052,3.9962,0.0,0.2261,0.010007,0.0,0.0,12.0,,,,,,1.243237,PASS,
266,s03_vel_pi_disturbance,g000033_c0,33,,,,,,0.012226541394880023,0.31053432911052503,0.10077045821908145,,,,,,,4.0101,7.9414,4.1196,0.0,0.1805,0.009991,0.0,0.0,12.0,,,,,,0.990463,PASS,
267,s03_vel_pi_disturbance,g000033_c1,33,,,,,,0.011694317744847336,0.32060308882294763,0.11181555560426032,,,,,,,4.0968,7.9921,4.103,0.0,0.1886,0.009997,0.0,0.0,12.0,,,,,,1.03648,PASS,
268,s03_vel_pi_disturbance,g000033_c2,33,,,,,,0.011252805398104982,0.27573985247925875,0.099731684731176,,,,,,,4.3228,7.9104,4.1117,0.0,0.2204,0.009985,0.0,0.0,12.0,,,,,,1.196157,PASS,
269,s03_vel_pi_disturbance,g000033_c3,33,,,,,,0.010488797967829344,0.3007762221377168,0.11152687691832175,,,,,,,4.0137,8.0014,4.176,0.0,0.1826,0.009987,0.0,0.0,12.0,,,,,,1.000343,PASS,
270,s03_vel_pi_disturbance,g000033_c4,33,,,,,,0.01110714907538009,0.31261680555285054,0.11726031281122223,,,,,,,4.0202,7.9919,4.1422,0.0,0.1813,0.009992,0.0,0.0,12.0,,,,,,0.995305,PASS,
271,s03_vel_pi_disturbance,g000033_c5,33,,,,,,0.010644484925344568,0.2656505565502539,0.11191725124082243,,,,,,,4.5492,8.4123,4.0698,0.0,0.2474,0.009987,0.0,0.0,12.0,,,,,,1.337365,PASS,
272,s03_vel_pi_disturbance,g000033_c6,33,,,,,,0.011235376972433611,0.30992140253409667,0.10903084247754767,,,,,,,4.0169,8.0096,4.1637,0.0,0.1806,0.009992,0.0,0.0,12.0,,,,,,0.991165,PASS,
273,s03_vel_pi_disturbance,g000033_c7,33,,,,,,0.011924780164207402,0.3128565723048178,0.10633566824140475,,,,,,,4.0297,7.9895,4.1316,0.0,0.1818,0.009993,0.0,0.0,12.0,,,,,,0.998285,PASS,
274,s03_vel_pi_disturbance,g000034_c0,34,,,,,,0.011030293443141529,0.332857422295929,0.10235104096453984,,,,,,,4.3066,8.0396,4.0398,0.0,0.2115,0.010004,0.0,0.0,12.0,,,,,,1.1625,PASS,
275,s03_vel_pi_disturbance,g000034_c1,34,,,,,,0.01172180261391452,0.30668464075455965,0.11751429895147558,,,,,,,4.0075,7.9837,4.1453,0.0,0.1802,0.00999,0.0,0.0,12.0,,,,,,0.988575,PASS,
276,s03_vel_pi_disturbance,g000034_c2,34,,,,,,0.011585728812034533,0.3147553895228673,0.11051886723709545,,,,,,,4.0343,7.9661,4.1281,0.0,0.1821,0.009994,0.0,0.0,12.0,,,,,,0.999633,PASS,
277,s03_vel_pi_disturbance,g000034_c3,34,,,,,,0.011574332433574976,0.3080226574853523,0.10219263436910957,,,,,,,4.0018,7.9697,4.1404,0.0,0.18,0.00999,0.0,0.0,12.0,,,,,,0.987018,PASS,
278,s03_vel_pi_disturbance,g000034_c4,34,,,,,,0.011161189754094676,0.30710763085399123,0.10668255794918773,,,,,,,4.0044,8.0014,4.159,0.0,0.18,0.00999,0.0,0.0,12.0,,,,,,0.987348,PASS,
279,s03_vel_pi_disturbance,g000034_c5,34,,,,,,0.011433797267852734,0.3022097793713766,0.10633968554800703,,,,,,,4.0095,7.9612,4.1572,0.0,0.1813,0.009988,0.0,0.0,12.0,,,,,,0.993105,PASS,
280,s03_vel_pi_disturbance,g000034_c6,34,,,,,,0.01124469861447958,0.32039978497228433,0.11057955956237275,,,,,,,4.0916,8.0258,4.112,0.0,0.188,0.009996,0.0,0.0,12.0,,,,,,1.032785,PASS,
281,s03_vel_pi_disturbance,g000034_c7,34,,,,,,0.011338083747010704,0.31578785825491723,0.1053425415529689,,,,,,,4.0366,7.9755,4.1226,0.0,0.1826,0.009993,0.0,0.0,12.0,,,,,,1.003178,PASS,
282,s03_vel_pi_disturbance,g000035_c0,35,,,,,,0.010606454564286952,0.29879823086124363,0.11058183175663115,,,,,,,4.0261,7.9881,4.1734,0.0,0.1845,0.009986,0.0,0.0,12.0,,,,,,1.00969,PASS,
283,s03_vel_pi_disturbance,g000035_c1,35,,,,,,0.011205618146027996,0.30134060384896527,0.10290791770345882,,,,,,,4.0104,7.9573,4.157,0.0,0.1818,0.009988,0.0,0.0,12.0,,,,,,0.996125,PASS,
284,s03_vel_pi_disturbance,g000035_c2,35,,,,,,0.011002657120239413,0.29695363721768747,0.10299071660868933,,,,,,,4.0381,7.9652,4.1588,0.0,0.186,0.009986,0.0,0.0,12.0,,,,,,1.017085,PASS,
285,s03_vel_pi_disturbance,g000035_c3,35,,,,,,0.011111810094950636,0.3279076641937721,0.10527184098398643,,,,,,,4.1969,8.0479,4.0816,0.0,0.1993,0.010001,0.0,0.0,12.0,,,,,,1.09579,PASS,
286,s03_vel_pi_disturbance,g000035_c4,35,,,,,,0.010649356991259622,0.2934122100280273,0.10521996063189458,,,,,,,4.0607,7.9608,4.168,0.0,0.1889,0.009985,0.0,0.0,12.0,,,,,,1.03214,PASS,
287,s03_vel_pi_disturbance,g000035_c5,35,,,,,,0.011550272660197924,0.30446832292435505,0.10353408769106333,,,,,,,4.004,7.9469,4.1439,0.0,0.1806,0.009989,0.0,0.0,12.0,,,,,,0.989953,PASS,
288,s03_vel_pi_disturbance,g000035_c6,35,,,,,,0.010993492830578674,0.3013268262834213,0.11474339257301808,,,,,,,4.0123,7.9695,4.1591,0.0,0.1818,0.009988,0.0,0.0,12.0,,,,,,0.995835,PASS,
289,s03_vel_pi_disturbance,g000035_c7,35,,,,,,0.012185428372328886,0.3132756662726245,0.11338238320594858,,,,,,,4.0297,7.9905,4.1263,0.0,0.1819,0.009993,0.0,0.0,12.0,,,,,,0.99901,PASS,
290,s03_vel_pi_disturbance,g000036_c0,36,,,,,,0.010687424406314231,0.31656666315161225,0.1043980887383359,,,,,,,4.0479,7.9844,4.1346,0.0,0.1833,0.009994,0.0,0.0,12.0,,,,,,1.00678,PASS,
291,s03_vel_pi_disturbance,g000036_c1,36,,,,,,0.01161397665018009,0.29510656741721375,0.10287972661288135,,,,,,,4.0521,7.9169,4.1465,0.0,0.1879,0.009985,0.0,0.0,12.0,,,,,,1.026943,PASS,
292,s03_vel_pi_disturbance,g000036_c2,36,,,,,,0.010877033208364991,0.28471513010219407,0.11410797979648209,,,,,,,4.1831,7.9485,4.1425,0.0,0.2041,0.009984,0.0,0.0,12.0,,,,,,1.111313,PASS,
293,s03_vel_pi_disturbance,g000036_c3,36,,,,,,0.010280347960588989,0.2978649170529037,0.10745303806335724,,,,,,,4.033,8.0027,4.1794,0.0,0.1852,0.009986,0.0,0.0,12.0,,,,,,1.01334,PASS,
294,s03_vel_pi_disturbance,g000036_c4,36,,,,,,0.011121706607702871,0.2929122901351661,0.10471887582717006,,,,,,,4.067,7.9516,4.1503,0.0,0.1897,0.009985,0.0,0.0,12.0,,,,,,1.036135,PASS,
295,s03_vel_pi_disturbance,g000036_c5,36,,,,,,0.010622521991908954,0.2954640577267723,0.11063455285288798,,,,,,,4.0458,7.9927,4.1671,0.0,0.1871,0.009985,0.0,0.0,12.0,,,,,,1.022935,PASS,
296,s03_vel_pi_disturbance,g000036_c6,36,,,,,,0.01118301333082347,0.3109375484323412,0.10622192120418858,,,,,,,4.0153,7.9902,4.1444,0.0,0.1805,0.009992,0.0,0.0,12.0,,,,,,0.990787,PASS,
297,s03_vel_pi_disturbance,g000036_c7,36,,,,,,0.010404841606997912,0.28731756310122647,0.11237956806900964,,,,,,,4.146,7.9897,4.1647,0.0,0.1999,0.009983,0.0,0.0,12.0,,,,,,1.089365,PASS,
298,s03_vel_pi_disturbance,g000037_c0,37,,,,,,0.011407354002891392,0.2952562507536516,0.11277601104992684,,,,,,,4.049,7.9424,4.149,0.0,0.1873,0.009986,0.0,0.0,12.0,,,,,,1.02364,PASS,
299,s03_vel_pi_disturbance,g000037_c1,37,,,,,,0.010883366098307558,0.3049972962532353,0.10835158139228522,,,,,,,4.0052,7.971,4.1575,0.0,0.1806,0.009989,0.0,0.0,12.0,,,,,,0.989958,PASS,
300,s03_vel_pi_disturbance,g000037_c2,37,,,,,,0.01094640073532675,0.30163410877688257,0.10966100618913753,,,,,,,4.0137,7.9909,4.1656,0.0,0.182,0.009988,0.0,0.0,12.0,,,,,,0.997033,PASS,
301,s03_vel_pi_disturbance,g000037_c3,37,,,,,,0.011389545608237952,0.29845206972797694,0.10527363740839539,,,,,,,4.0301,7.9838,4.1582,0.0,0.1848,0.009986,0.0,0.0,12.0,,,,,,1.010792,PASS,
302,s03_vel_pi_disturbance,g000037_c4,37,,,,,,0.01086922913165542,0.3013759543547988,0.10286986417451169,,,,,,,4.0123,7.9713,4.1664,0.0,0.1823,0.009987,0.0,0.0,12.0,,,,,,0.998495,PASS,
303,s03_vel_pi_disturbance,g000037_c5,37,,,,,,0.010653791630373104,0.2927447419306326,0.11030009092223593,,,,,,,4.0733,7.9493,4.1587,0.0,0.1905,0.009985,0.0,0.0,12.0,,,,,,1.04048,PASS,
304,s03_vel_pi_disturbance,g000037_c6,37,,,,,,0.011367074361875914,0.3120820295612264,0.11133424201982864,,,,,,,4.0214,7.9893,4.1472,0.0,0.181,0.009992,0.0,0.0,12.0,,,,,,0.993855,PASS,
305,s03_vel_pi_disturbance,g000037_c7,37,,,,,,0.010871392644284524,0.30561580515281106,0.10626269843133333,,,,,,,4.0022,7.9846,4.1599,0.0,0.1801,0.009989,0.0,0.0,12.0,,,,,,0.987525,PASS,
306,s03_vel_pi_disturbance,g000038_c0,38,,,,,,0.011179613722857308,0.31608532984171156,0.10863026289867878,,,,,,,4.0427,7.9952,4.1274,0.0,0.1831,0.009994,0.0,0.0,12.0,,,,,,1.00593,PASS,
307,s03_vel_pi_disturbance,g000038_c1,38,,,,,,0.010936107026006515,0.3098477684119101,0.10997882724657979,,,,,,,4.0115,8.005,4.1557,0.0,0.1804,0.009991,0.0,0.0,12.0,,,,,,0.9902,PASS,
308,s03_vel_pi_disturbance,g000038_c2,38,,,,,,0.010677142052780116,0.30291181599948414,0.10938144225613837,,,,,,,4.008,8.0045,4.1708,0.0,0.1815,0.009988,0.0,0.0,12.0,,,,,,0.99444,PASS,
309,s03_vel_pi_disturbance,g000038_c3,38,,,,,,0.01152027893566273,0.30212915951720687,0.10400762252566323,,,,,,,4.01,7.9357,4.1446,0.0,0.1818,0.009988,0.0,0.0,12.0,,,,,,0.995897,PASS,
