run_id,scenario,label,gen,timestamp,Q_PITCH,Q_PITCH_RATE,Q_VEL,R,KP_V,KI_V,KFF_V,KP_YAW,KI_YAW,LEG_K_S,LEG_B_S,LEG_K_ROLL,LEG_D_ROLL,rms_pitch_deg,max_pitch_deg,wheel_travel_m,wheel_liftoff_s,vel_track_rms_ms,hip_track_rms_rad,hip_cmd_rate_rms,settle_time_s,survived_s,fitness_balance,fitness_disturbance,fitness_drive_slow,fitness_drive_med,fitness_obstacle,fitness,status,fail_reason
1,s01_lqr_pitch_step,evo_seed,0,,1.4809695,2.3501509,0.00055824141,17.100361,,,,,,,,,,4.0262,6.4378,1.4308,0.1,0.0,0.006458,0.0,5.0,0.186,,,,,,223.9755,FAIL,wheels off ground
2,s01_lqr_pitch_step,g000000_c0,0,,0.09902378610776073,10.0,4.862599635375274e-05,522.4847448774631,,,,,,,,,,4.1312,6.1317,1.2752,0.1,0.0,0.006815,0.0,5.0,0.186,,,,,,221.51255,FAIL,wheels off ground
3,s01_lqr_pitch_step,g000000_c1,0,,0.22199324168687165,2.255526825543725,0.010410428102616128,127.48115017701167,,,,,,,,,,4.1859,6.4035,1.6424,0.1,0.0,0.00684,0.0,5.0,0.192,,,,,,223.84085,FAIL,wheels off ground
4,s01_lqr_pitch_step,g000000_c2,0,,0.1620850269909599,3.8641357354676824,0.0003993447252434457,0.4054815522499667,,,,,,,,,,4.7011,10.2639,10.1629,0.1,7.1316,0.010578,0.0,5.0,1.34,,,,,,427.570375,FAIL,wheels off ground
5,s01_lqr_pitch_step,g000000_c3,0,,10.0,0.05653860500107448,0.0020255024961919944,9.730530555111624,,,,,,,,,,3.5886,6.6466,1.5476,0.1,0.0,0.007215,0.0,5.0,0.192,,,,,,230.730075,FAIL,wheels off ground
6,s01_lqr_pitch_step,g000000_c4,0,,1.4578700258390784,0.9238570177906179,4.4970884296652645e-05,27.59405136089443,,,,,,,,,,4.4099,6.224,1.4813,0.1,0.0,0.006775,0.0,5.0,0.186,,,,,,220.1628,FAIL,wheels off ground
7,s01_lqr_pitch_step,g000000_c5,0,,2.233307740132618,2.8869102798017505,0.001218965304598679,0.2606797485039215,,,,,,,,,,6.4566,13.8715,7.7231,0.1,0.0,0.010536,0.0,5.0,0.97,,,,,,404.217625,FAIL,wheels off ground
8,s01_lqr_pitch_step,g000000_c6,0,,1.065809798029756,1.1903967389224885,9.611356251376878e-05,2.9079441584374117,,,,,,,,,,3.2264,5.6792,0.889,0.1,0.0,0.008101,0.0,5.0,0.192,,,,,,234.9209,FAIL,wheels off ground
9,s01_lqr_pitch_step,g000000_c7,0,,0.2913571809231585,10.0,0.0014651883016175613,8.81092133919734,,,,,,,,,,2.7612,6.4234,3.9286,0.1,0.0,0.00993,0.0,5.0,0.592,,,,,,300.941475,FAIL,wheels off ground
10,s01_lqr_pitch_step,g000001_c0,1,,7.183651265860024,10.0,0.00010753059210585936,2.9401107810251372,,,,,,,,,,2.3986,7.6712,21.9116,0.1,8.1471,0.010465,0.0,5.0,2.998,,,,,,690.21245,FAIL,wheels off ground
11,s01_lqr_pitch_step,g000001_c1,1,,0.757135637318593,0.6920297352231558,5.938462650053943e-05,19.050226714105087,,,,,,,,,,4.5006,6.357,3.6901,0.1,0.0,0.008348,0.0,5.0,0.398,,,,,,236.114825,FAIL,wheels off ground
12,s01_lqr_pitch_step,g000001_c2,1,,1.680438408350348,1.1013593258385797,2.26806365463439e-05,6.584836740460672,,,,,,,,,,3.221,6.011,1.3187,0.1,0.0,0.008303,0.0,5.0,0.244,,,,,,237.21875,FAIL,wheels off ground
13,s01_lqr_pitch_step,g000001_c3,1,,10.0,8.592251246227972,0.0017295362880236696,0.6481419117050577,,,,,,,,,,3.57,10.1761,26.3209,0.1,8.4632,0.010988,0.0,5.0,3.512,,,,,,866.0091,FAIL,wheels off ground
14,s01_lqr_pitch_step,g000001_c4,1,,0.01,2.641536992712392,0.0010977897929157767,8.750209405804506,,,,,,,,,,3.1417,6.1328,1.3645,0.1,0.0,0.009023,0.0,5.0,0.236,,,,,,245.0306,FAIL,wheels off ground
15,s01_lqr_pitch_step,g000001_c5,1,,0.01,10.0,0.0009761088783093615,16.249337481999795,,,,,,,,,,4.6002,14.3617,9.357,0.1,10.2871,0.009704,0.0,5.0,1.122,,,,,,358.160175,FAIL,wheels off ground
16,s01_lqr_pitch_step,g000001_c6,1,,10.0,0.7430476856851507,0.007983628475262796,5.015504441767187,,,,,,,,,,7.6295,9.8296,1.388,0.1,0.0,0.007347,0.0,5.0,0.142,,,,,,216.80005,FAIL,wheels off ground
17,s01_lqr_pitch_step,g000001_c7,1,,10.0,10.0,4.772706913674744e-05,6.785003255196875,,,,,,,,,,1.632,5.0,8.1982,0.1,7.4051,0.010199,0.0,5.0,1.228,,,,,,406.612,FAIL,wheels off ground
18,s01_lqr_pitch_step,g000002_c0,2,,0.4713046072799712,10.0,0.012270369189774215,4.3995034443507235,,,,,,,,,,5.5486,12.5844,7.5741,0.1,0.0,0.010937,0.0,5.0,0.936,,,,,,386.17335,FAIL,wheels off ground
19,s01_lqr_pitch_step,g000002_c1,2,,1.421432660330761,10.0,0.0019273499971365702,1.799832208767704,,,,,,,,,,2.6954,7.1151,10.2301,0.1,9.9716,0.010275,0.0,5.0,1.306,,,,,,432.0982,FAIL,wheels off ground
20,s01_lqr_pitch_step,g000002_c2,2,,2.958740498457126,0.2228096480712021,0.002552041932426638,4.121186101995102,,,,,,,,,,3.9269,6.8229,1.6425,0.1,0.0,0.007379,0.0,5.0,0.19,,,,,,229.072475,FAIL,wheels off ground
21,s01_lqr_pitch_step,g000002_c3,2,,0.3152668449932861,10.0,0.0008303069486334987,272.88742942896346,,,,,,,,,,3.7258,6.2435,1.9721,0.1,0.0,0.007834,0.0,5.0,0.25,,,,,,229.16715,FAIL,wheels off ground
22,s01_lqr_pitch_step,g000002_c4,2,,0.3332183209264334,0.9117809488311941,0.003176033769292576,103.17897522733652,,,,,,,,,,4.6714,7.5967,1.5365,0.1,0.0,0.006644,0.0,5.0,0.188,,,,,,225.0482,FAIL,wheels off ground
23,s01_lqr_pitch_step,g000002_c5,2,,1.946574839839949,8.662907403702084,0.005519530048568599,9.087310733708753,,,,,,,,,,3.2281,8.6108,16.6298,0.1,8.4293,0.010903,0.0,5.0,2.344,,,,,,588.9525,FAIL,wheels off ground
24,s01_lqr_pitch_step,g000002_c6,2,,0.19369426529606176,0.04810098986693362,0.0001401885160436989,6.7003358688539345,,,,,,,,,,4.8806,8.412,1.4927,0.1,0.0,0.006487,0.0,5.0,0.186,,,,,,226.4248,FAIL,wheels off ground
25,s01_lqr_pitch_step,g000002_c7,2,,0.01,0.9184305845189281,0.001187608125908998,2.3181271816102593,,,,,,,,,,2.9756,6.0499,1.5225,0.1,0.0,0.006306,0.0,5.0,0.188,,,,,,226.8566,FAIL,wheels off ground
26,s01_lqr_pitch_step,g000003_c0,3,,10.0,10.0,0.00021066230137726906,1.554252993326735,,,,,,,,,,2.2172,5.3322,7.2101,0.1,6.147,0.010009,0.0,5.0,1.036,,,,,,379.7698,FAIL,wheels off ground
27,s01_lqr_pitch_step,g000003_c1,3,,7.128474204391914,0.08145240194735355,0.0032142521310659093,49.20758929072974,,,,,,,,,,4.3503,6.9476,1.6244,0.1,0.0,0.006754,0.0,5.0,0.192,,,,,,224.439875,FAIL,wheels off ground
28,s01_lqr_pitch_step,g000003_c2,3,,1.266767448006801,9.4876212725993,0.005010995026852544,24.569735650850607,,,,,,,,,,3.2299,6.118,1.4042,0.1,0.0,0.006491,0.0,5.0,0.184,,,,,,225.492425,FAIL,wheels off ground
29,s01_lqr_pitch_step,g000003_c3,3,,0.6018522786764167,10.0,4.645137993255306e-06,1.1815725127155934,,,,,,,,,,2.4683,5.2502,5.0322,0.1,0.0,0.009818,0.0,5.0,0.78,,,,,,356.728225,FAIL,wheels off ground
30,s01_lqr_pitch_step,g000003_c4,3,,10.0,9.307664971146966,0.0002512404351428136,126.18126234970998,,,,,,,,,,3.6576,6.12,1.0487,0.1,0.0,0.008188,0.0,5.0,0.198,,,,,,235.496975,FAIL,wheels off ground
31,s01_lqr_pitch_step,g000003_c5,3,,10.0,0.8163070950795934,0.106115727546799,44.30502482677116,,,,,,,,,,8.3068,11.4592,1.9157,0.1,0.0,0.007303,0.0,5.0,0.192,,,,,,226.901725,FAIL,wheels off ground
32,s01_lqr_pitch_step,g000003_c6,3,,1.793010613298716,0.03843889715320359,0.0005140477828983138,10.35794086634116,,,,,,,,,,4.4101,6.9015,1.5534,0.1,0.0,0.006623,0.0,5.0,0.188,,,,,,224.49385,FAIL,wheels off ground
33,s01_lqr_pitch_step,g000003_c7,3,,0.12831477993622445,0.24203565181819842,0.00013846362272450837,1.8281048437379999,,,,,,,,,,3.8609,6.4261,1.4627,0.1,0.0,0.006319,0.0,5.0,0.186,,,,,,224.53535,FAIL,wheels off ground
34,s01_lqr_pitch_step,g000004_c0,4,,10.0,7.152377878126189,0.0010945285016572771,0.9239178109765646,,,,,,,,,,3.7344,11.8958,17.1214,0.1,8.1057,0.010571,0.0,5.0,2.256,,,,,,603.31485,FAIL,wheels off ground
35,s01_lqr_pitch_step,g000004_c1,4,,1.5748119930366904,0.026104464304533694,8.66313852668157e-05,27.10633061315194,,,,,,,,,,4.5609,6.0866,1.4318,0.1,0.0,0.006345,0.0,5.0,0.186,,,,,,223.020225,FAIL,wheels off ground
36,s01_lqr_pitch_step,g000004_c2,4,,0.17189257888342344,10.0,0.003017535891303902,42.79657009865355,,,,,,,,,,1.7249,6.1569,12.6392,0.1,8.4374,0.010314,0.0,5.0,1.856,,,,,,493.28835,FAIL,wheels off ground
37,s01_lqr_pitch_step,g000004_c3,4,,0.3070690036371096,0.05196668073756371,0.0008582964176991302,34.70796070332673,,,,,,,,,,4.8297,8.3093,1.4961,0.1,0.0,0.006492,0.0,5.0,0.186,,,,,,226.36905,FAIL,wheels off ground
38,s01_lqr_pitch_step,g000004_c4,4,,10.0,10.0,0.00020938396019160618,514.172968740226,,,,,,,,,,4.2665,6.1015,1.3983,0.1,0.0,0.006436,0.0,5.0,0.186,,,,,,221.90665,FAIL,wheels off ground
39,s01_lqr_pitch_step,g000004_c5,4,,1.8156550911504041,0.8571916853515928,0.00024278432357918624,3.5913808150606354,,,,,,,,,,2.2793,6.1458,4.1935,0.1,0.0,0.009602,0.0,5.0,0.618,,,,,,297.1247,FAIL,wheels off ground
40,s01_lqr_pitch_step,g000004_c6,4,,0.4631980329728693,10.0,0.00016848249837224198,5.826051466210303,,,,,,,,,,2.3982,5.0,2.5478,0.1,0.0,0.009644,0.0,5.0,0.4,,,,,,271.769175,FAIL,wheels off ground
41,s01_lqr_pitch_step,g000004_c7,4,,2.637720121053425,10.0,1.5796804182055406e-05,3.872476433305202,,,,,,,,,,2.0449,5.0,3.3372,0.1,0.0,0.010511,0.0,5.0,0.422,,,,,,266.3108,FAIL,wheels off ground
42,s01_lqr_pitch_step,g000005_c0,5,,5.903649445083157,5.660890912983793,0.0014222916487525367,1000.0,,,,,,,,,,4.0336,6.0453,1.3666,0.1,0.0,0.006408,0.0,5.0,0.188,,,,,,221.8661,FAIL,wheels off ground
43,s01_lqr_pitch_step,g000005_c1,5,,3.889892634844612,0.25437837951104325,0.00011228311672584495,0.17699369235517634,,,,,,,,,,3.3399,5.8314,3.7221,0.1,0.0,0.009387,0.0,5.0,0.512,,,,,,285.06575,FAIL,wheels off ground
44,s01_lqr_pitch_step,g000005_c2,5,,0.035763982322917186,2.161526124326952,1.999360864052486e-05,74.50112158885672,,,,,,,,,,3.8215,6.1839,1.8456,0.1,0.0,0.007639,0.0,5.0,0.244,,,,,,227.862625,FAIL,wheels off ground
45,s01_lqr_pitch_step,g000005_c3,5,,0.1254400953021759,2.182406029921198,0.00022898733076488016,3.058861696905661,,,,,,,,,,1.9398,5.0,11.5018,0.1,7.0432,0.010436,0.0,5.0,1.622,,,,,,434.4113,FAIL,wheels off ground
46,s01_lqr_pitch_step,g000005_c4,5,,0.01,5.543421085107423,2.2566885619956145e-05,27.06527315325258,,,,,,,,,,3.6425,6.0633,0.9396,0.1,0.0,0.007886,0.0,5.0,0.192,,,,,,231.1661,FAIL,wheels off ground
47,s01_lqr_pitch_step,g000005_c5,5,,0.4053767549691448,2.199830717973397,0.00025932336456608945,2.04206621633676,,,,,,,,,,3.1544,10.2581,6.8026,0.1,13.3841,0.010214,0.0,5.0,1.01,,,,,,370.367125,FAIL,wheels off ground
48,s01_lqr_pitch_step,g000005_c6,5,,4.03922073796289,10.0,0.0009322312338222562,1.1161642029527354,,,,,,,,,,3.2613,7.5318,8.0122,0.1,12.3807,0.010105,0.0,5.0,1.062,,,,,,376.8325,FAIL,wheels off ground
49,s01_lqr_pitch_step,g000005_c7,5,,0.45278779245543443,1.152501183696951,0.0009855501554633748,0.23893996241857832,,,,,,,,,,9.0467,17.3624,4.8441,0.1,0.0,0.011164,0.0,5.0,0.604,,,,,,318.873975,FAIL,wheels off ground
50,s01_lqr_pitch_step,g000006_c0,6,,6.721657288837635,10.0,0.001710324592064629,65.97555014037094,,,,,,,,,,3.9389,6.4774,1.3713,0.1,0.0,0.006644,0.0,5.0,0.184,,,,,,223.41125,FAIL,wheels off ground
51,s01_lqr_pitch_step,g000006_c1,6,,7.348787250919212,0.1003250479233843,5.917634893806151e-05,23.110533769934264,,,,,,,,,,4.1691,6.1424,1.4275,0.1,0.0,0.006521,0.0,5.0,0.186,,,,,,221.259725,FAIL,wheels off ground
52,s01_lqr_pitch_step,g000006_c2,6,,0.6209542263542585,10.0,0.0015833984021122903,198.75566538701983,,,,,,,,,,4.597,6.4413,1.4914,0.1,0.0,0.006745,0.0,5.0,0.184,,,,,,222.2957,FAIL,wheels off ground
53,s01_lqr_pitch_step,g000006_c3,6,,0.37981992909293855,0.09305758384927817,0.007851782034283833,60.29476688066692,,,,,,,,,,3.4241,6.498,1.4831,0.1,0.0,0.007632,0.0,5.0,0.19,,,,,,226.869075,FAIL,wheels off ground
54,s01_lqr_pitch_step,g000006_c4,6,,0.795521741006559,10.0,0.00024130606312621028,229.62995827160057,,,,,,,,,,2.3622,6.2087,3.8316,0.1,0.0,0.009818,0.0,5.0,0.628,,,,,,298.66895,FAIL,wheels off ground
55,s01_lqr_pitch_step,g000006_c5,6,,2.507544264403983,10.0,0.0038353741408422583,145.5764712128442,,,,,,,,,,3.7075,6.4251,1.2311,0.1,0.0,0.006957,0.0,5.0,0.188,,,,,,224.093375,FAIL,wheels off ground
56,s01_lqr_pitch_step,g000006_c6,6,,1.8881246241401397,1.3211810894360345,0.0002115572918610694,2.3858627156452843,,,,,,,,,,1.9764,5.0,4.9638,0.1,0.0,0.008992,0.0,5.0,0.56,,,,,,248.80285,FAIL,wheels off ground
57,s01_lqr_pitch_step,g000006_c7,6,,6.96496378148763,0.6107027830119401,0.0022649977716734174,49.17659077921359,,,,,,,,,,4.5057,7.2398,1.548,0.1,0.0,0.00661,0.0,5.0,0.188,,,,,,225.01295,FAIL,wheels off ground
58,s01_lqr_pitch_step,g000007_c0,7,,7.487068309718553,0.5822812064428884,0.01692277224259648,25.168515481694598,,,,,,,,,,5.2152,7.0596,1.6744,0.1,0.0,0.007272,0.0,5.0,0.188,,,,,,226.6959,FAIL,wheels off ground
59,s01_lqr_pitch_step,g000007_c1,7,,2.505271775288638,10.0,0.0016975550756431477,0.4800003949495484,,,,,,,,,,4.8028,12.2984,26.523,0.1,9.1204,0.011009,0.0,5.0,3.292,,,,,,762.59155,FAIL,wheels off ground
60,s01_lqr_pitch_step,g000007_c2,7,,6.571638951840283,0.6296975219051024,0.00015397880506783348,0.09353250835742652,,,,,,,,,,5.5764,12.4849,9.8842,0.1,10.0851,0.010206,0.0,5.0,1.21,,,,,,376.257,FAIL,wheels off ground
61,s01_lqr_pitch_step,g000007_c3,7,,0.23135717864151548,1.2027187095182774,0.06323865219426374,30.62446626017454,,,,,,,,,,9.3117,13.0361,1.884,0.1,0.0,0.007892,0.0,5.0,0.19,,,,,,228.9082,FAIL,wheels off ground
62,s01_lqr_pitch_step,g000007_c4,7,,9.111540590238928,0.9920411207112986,0.00045566018384179637,3.991025358856534,,,,,,,,,,3.2882,6.109,1.1759,0.1,0.0,0.006598,0.0,5.0,0.186,,,,,,227.72755,FAIL,wheels off ground
63,s01_lqr_pitch_step,g000007_c5,7,,0.695126591579954,0.15063986994578205,0.001674179190167723,1.2252313175751877,,,,,,,,,,6.9508,8.5295,1.7506,0.1,0.0,0.007616,0.0,5.0,0.186,,,,,,227.08865,FAIL,wheels off ground
64,s01_lqr_pitch_step,g000007_c6,7,,4.160212870178029,2.364708135401767,1.5719985080165063e-05,84.57670876761345,,,,,,,,,,3.9176,6.1793,1.8512,0.1,0.0,0.007773,0.0,5.0,0.24,,,,,,228.6431,FAIL,wheels off ground
65,s01_lqr_pitch_step,g000007_c7,7,,1.3363793232259285,0.3473277371959598,0.0009746843833990664,99.84858953218207,,,,,,,,,,4.5958,6.4084,1.4568,0.1,0.0,0.006427,0.0,5.0,0.186,,,,,,223.488775,FAIL,wheels off ground
66,s01_lqr_pitch_step,g000008_c0,8,,10.0,10.0,1.4960621290704541e-05,5.32999414673414,,,,,,,,,,2.112,5.0,2.5763,0.1,0.0,0.009671,0.0,5.0,0.45,,,,,,287.459325,FAIL,wheels off ground
67,s01_lqr_pitch_step,g000008_c1,8,,0.4904421550598096,3.4026689561431773,0.003648969475431674,1.6283465867934621,,,,,,,,,,4.42,9.4645,4.0476,0.1,0.0,0.010261,0.0,5.0,0.56,,,,,,310.2293,FAIL,wheels off ground
68,s01_lqr_pitch_step,g000008_c2,8,,1.9087390807402236,10.0,1.6247444435370934e-05,10.637909265675981,,,,,,,,,,7.9837,13.4065,3.3322,0.1,0.0,0.008413,0.0,5.0,0.424,,,,,,272.194025,FAIL,wheels off ground
69,s01_lqr_pitch_step,g000008_c3,8,,1.8710219663732395,4.155599256544865,0.019148298766179198,0.8551929623427942,,,,,,,,,,4.1931,10.4433,1.1804,0.1,0.0,0.011032,0.0,5.0,0.192,,,,,,253.788775,FAIL,wheels off ground
70,s01_lqr_pitch_step,g000008_c4,8,,0.5201682505648154,0.021272869297758498,0.002011341551126305,6.7220796096289535,,,,,,,,,,3.6314,6.5436,1.5383,0.1,0.0,0.006882,0.0,5.0,0.192,,,,,,230.5768,FAIL,wheels off ground
71,s01_lqr_pitch_step,g000008_c5,8,,3.00016573550872,0.9732477707996773,1.0451723417505317e-06,28.765634573871797,,,,,,,,,,4.1435,6.2206,1.9721,0.1,0.0,0.00764,0.0,5.0,0.242,,,,,,227.57225,FAIL,wheels off ground
72,s01_lqr_pitch_step,g000008_c6,8,,0.05535949562158545,0.06483684054458662,0.005983205791742329,11.929278679763488,,,,,,,,,,4.8272,6.9746,1.6596,0.1,0.0,0.007279,0.0,5.0,0.19,,,,,,226.22455,FAIL,wheels off ground
73,s01_lqr_pitch_step,g000008_c7,8,,0.23065593248265032,0.0909375464141515,7.822770640424176e-05,33.85663093995856,,,,,,,,,,3.9346,6.0352,1.3276,0.1,0.0,0.006402,0.0,5.0,0.188,,,,,,222.092725,FAIL,wheels off ground
74,s01_lqr_pitch_step,g000009_c0,9,,1.1797448375290465,10.0,0.0004215936598194013,2.38636296043669,,,,,,,,,,2.267,5.0,9.2489,0.1,9.3244,0.009938,0.0,5.0,1.168,,,,,,363.9523,FAIL,wheels off ground
75,s01_lqr_pitch_step,g000009_c1,9,,0.12525712879753473,0.16444422842936762,0.0002843625957505241,3.4343041355442225,,,,,,,,,,3.9642,6.3765,1.6548,0.1,0.0,0.00705,0.0,5.0,0.19,,,,,,221.834325,FAIL,wheels off ground
76,s01_lqr_pitch_step,g000009_c2,9,,7.618114881510271,7.6088018557198085,0.0012836276023223622,766.9877248531559,,,,,,,,,,4.1686,6.1345,1.3985,0.1,0.0,0.006521,0.0,5.0,0.186,,,,,,221.5151,FAIL,wheels off ground
77,s01_lqr_pitch_step,g000009_c3,9,,1.6733767963891735,10.0,0.0012580387712636451,1.8682925145579157,,,,,,,,,,2.5834,5.4631,9.0775,0.1,8.3825,0.010177,0.0,5.0,1.114,,,,,,369.13205,FAIL,wheels off ground
78,s01_lqr_pitch_step,g000009_c4,9,,10.0,6.9040760673496955,0.0032629928652990092,47.45590210733724,,,,,,,,,,4.2839,6.4787,1.4831,0.1,0.0,0.006584,0.0,5.0,0.186,,,,,,225.5938,FAIL,wheels off ground
79,s01_lqr_pitch_step,g000009_c5,9,,10.0,0.21602440619066163,0.0010380284050231748,2.343827761692108,,,,,,,,,,3.2057,6.5953,1.6977,0.1,0.0,0.006577,0.0,5.0,0.196,,,,,,228.9309,FAIL,wheels off ground
80,s01_lqr_pitch_step,g000009_c6,9,,5.952137878402028,0.7010112395921476,2.4987474040017003e-06,6.446420935829715,,,,,,,,,,4.2472,6.3797,1.1731,0.1,0.0,0.006785,0.0,5.0,0.184,,,,,,225.158925,FAIL,wheels off ground
81,s01_lqr_pitch_step,g000009_c7,9,,0.31815654656741693,1.7939319312310718,0.00035617508172439784,13.912094308446166,,,,,,,,,,4.1251,6.4182,1.4111,0.1,0.0,0.006408,0.0,5.0,0.186,,,,,,224.47265,FAIL,wheels off ground
82,s01_lqr_pitch_step,g000010_c0,10,,0.22529633593407103,0.12157462526145714,4.3998201059821876e-05,54.92789592118197,,,,,,,,,,4.0929,6.0489,1.3714,0.1,0.0,0.006417,0.0,5.0,0.188,,,,,,222.061675,FAIL,wheels off ground
83,s01_lqr_pitch_step,g000010_c1,10,,0.9267971883297137,1.9404807609644354,0.000408912597001829,9.199930750049642,,,,,,,,,,3.4088,6.1382,1.024,0.1,0.0,0.008285,0.0,5.0,0.196,,,,,,234.997425,FAIL,wheels off ground
84,s01_lqr_pitch_step,g000010_c2,10,,10.0,6.104091482547199,8.825230101182448e-05,0.8520862956767501,,,,,,,,,,1.8477,5.1476,4.7148,0.1,0.0,0.010346,0.0,5.0,0.746,,,,,,350.893225,FAIL,wheels off ground
85,s01_lqr_pitch_step,g000010_c3,10,,0.06992547271006647,0.503831967065642,0.000518349673214679,6.194049276524887,,,,,,,,,,3.4615,6.5273,1.2945,0.1,0.0,0.007148,0.0,5.0,0.188,,,,,,227.117125,FAIL,wheels off ground
86,s01_lqr_pitch_step,g000010_c4,10,,3.5823384626909487,10.0,0.0007862026856037438,111.96715364528417,,,,,,,,,,3.6542,6.2478,1.4338,0.1,0.0,0.008829,0.0,5.0,0.242,,,,,,244.01415,FAIL,wheels off ground
87,s01_lqr_pitch_step,g000010_c5,10,,0.2214848842226422,9.533117746554652,0.000730027967706537,2.2537930015031575,,,,,,,,,,3.0318,5.7497,3.0185,0.1,0.0,0.009034,0.0,5.0,0.372,,,,,,255.909025,FAIL,wheels off ground
88,s01_lqr_pitch_step,g000010_c6,10,,0.8475491010644757,0.11121989755502998,0.001298479332146821,12.186149344598588,,,,,,,,,,3.4433,6.5605,1.6037,0.1,0.0,0.006881,0.0,5.0,0.192,,,,,,225.55515,FAIL,wheels off ground
89,s01_lqr_pitch_step,g000010_c7,10,,0.8703255351900389,0.751935358501791,0.00018403340406131574,48.56041817913019,,,,,,,,,,4.521,6.1324,1.4375,0.1,0.0,0.006409,0.0,5.0,0.186,,,,,,222.726225,FAIL,wheels off ground
90,s01_lqr_pitch_step,g000011_c0,11,,10.0,1.5703913953601045,0.0005022648571573412,59.35895951363671,,,,,,,,,,3.5729,6.2419,1.9569,0.1,0.0,0.007875,0.0,5.0,0.244,,,,,,228.62775,FAIL,wheels off ground
91,s01_lqr_pitch_step,g000011_c1,11,,7.604216909521492,8.082881010356504,0.001112772261127601,14.386503593098803,,,,,,,,,,2.2024,5.2272,2.627,0.1,0.0,0.009338,0.0,5.0,0.384,,,,,,260.9942,FAIL,wheels off ground
92,s01_lqr_pitch_step,g000011_c2,11,,5.346028627994519,10.0,0.0025751314577331197,2.7357533411565953,,,,,,,,,,3.0333,7.135,6.3421,0.1,0.0,0.010643,0.0,5.0,0.872,,,,,,370.539625,FAIL,wheels off ground
93,s01_lqr_pitch_step,g000011_c3,11,,0.44569570365359235,7.032703098841847,0.0002872653690535646,71.15827795418511,,,,,,,,,,3.953,11.1654,7.1123,0.1,0.0,0.00974,0.0,5.0,0.992,,,,,,341.429075,FAIL,wheels off ground
94,s01_lqr_pitch_step,g000011_c4,11,,0.25468475198096935,1.5578117580798352,0.00019374184726002143,21.69011663476739,,,,,,,,,,3.5544,6.1614,1.0362,0.1,0.0,0.007728,0.0,5.0,0.196,,,,,,233.244075,FAIL,wheels off ground
95,s01_lqr_pitch_step,g000011_c5,11,,0.5419593821475974,1.4219009367419166,0.01118464886683728,8.09628832089674,,,,,,,,,,4.5219,7.009,1.6199,0.1,0.0,0.006747,0.0,5.0,0.188,,,,,,226.448575,FAIL,wheels off ground
96,s01_lqr_pitch_step,g000011_c6,11,,3.319569708764255,7.25244199505302,0.00018595488310282112,47.506986199855014,,,,,,,,,,4.1285,6.4199,1.1913,0.1,0.0,0.006852,0.0,5.0,0.184,,,,,,224.337175,FAIL,wheels off ground
97,s01_lqr_pitch_step,g000011_c7,11,,6.52313660390959,0.8961804157882135,0.0012186680752034127,6.473727165018259,,,,,,,,,,3.44,6.53,1.5973,0.1,0.0,0.006548,0.0,5.0,0.188,,,,,,223.14445,FAIL,wheels off ground
98,s01_lqr_pitch_step,g000012_c0,12,,0.8379709111404375,4.375782209047456,0.00164891559671654,65.3545927177061,,,,,,,,,,3.7139,6.4416,1.2251,0.1,0.0,0.007536,0.0,5.0,0.188,,,,,,227.007175,FAIL,wheels off ground
99,s01_lqr_pitch_step,g000012_c1,12,,2.474157690460594,10.0,0.0007996424313238121,68.95958715235277,,,,,,,,,,4.0646,6.4325,1.2892,0.1,0.0,0.006607,0.0,5.0,0.184,,,,,,223.9982,FAIL,wheels off ground
100,s01_lqr_pitch_step,g000012_c2,12,,4.623641897727893,6.9814158017887085,0.0005906377479293708,7.917973904059955,,,,,,,,,,2.9038,6.1867,4.6849,0.1,0.0,0.009603,0.0,5.0,0.686,,,,,,309.0645,FAIL,wheels off ground
101,s01_lqr_pitch_step,g000012_c3,12,,10.0,10.0,0.0004555382617685568,92.21021044319404,,,,,,,,,,3.7399,6.3103,1.0318,0.1,0.0,0.007398,0.0,5.0,0.19,,,,,,233.892725,FAIL,wheels off ground
102,s01_lqr_pitch_step,g000012_c4,12,,0.4285714464981715,2.1005763961027677,4.185256504403489e-05,48.51646144888662,,,,,,,,,,3.887,6.2244,1.9573,0.1,0.0,0.007748,0.0,5.0,0.242,,,,,,228.7686,FAIL,wheels off ground
103,s01_lqr_pitch_step,g000012_c5,12,,5.707562236423203,3.6597514649280543,0.0004231681629922068,90.95536322686976,,,,,,,,,,4.6701,6.5626,1.5137,0.1,0.0,0.006861,0.0,5.0,0.186,,,,,,221.753725,FAIL,wheels off ground
104,s01_lqr_pitch_step,g000012_c6,12,,0.8632714024983261,9.179590016326964,0.004833781804442249,62.74452451732439,,,,,,,,,,4.2788,6.465,1.5046,0.1,0.0,0.006603,0.0,5.0,0.188,,,,,,226.0113,FAIL,wheels off ground
105,s01_lqr_pitch_step,g000012_c7,12,,0.6342706599256895,9.09423238506186,1.874748173353932e-05,11.009040502640431,,,,,,,,,,1.9059,5.0,3.3334,0.1,0.0,0.00946,0.0,5.0,0.526,,,,,,280.38335,FAIL,wheels off ground
106,s01_lqr_pitch_step,g000013_c0,13,,3.789203944074053,6.048490188399951,6.950551630020613e-05,64.18397432293615,,,,,,,,,,3.7823,6.2249,1.011,0.1,0.0,0.008034,0.0,5.0,0.192,,,,,,233.9162,FAIL,wheels off ground
107,s01_lqr_pitch_step,g000013_c1,13,,1.4361654251112808,5.577246834252811,0.0005130443729134134,2.398456505214069,,,,,,,,,,2.7389,7.6926,22.2059,0.1,9.2134,0.01058,0.0,5.0,2.838,,,,,,610.47895,FAIL,wheels off ground
108,s01_lqr_pitch_step,g000013_c2,13,,0.5160569129894285,5.908164666915405,0.00829148499600329,12.875013231723093,,,,,,,,,,2.993,6.0473,1.5812,0.1,0.0,0.006645,0.0,5.0,0.186,,,,,,225.622125,FAIL,wheels off ground
109,s01_lqr_pitch_step,g000013_c3,13,,0.6598008370756276,3.7730572277126657,0.00017298403541741674,19.78295157944489,,,,,,,,,,3.5057,6.0616,1.0253,0.1,0.0,0.00856,0.0,5.0,0.198,,,,,,230.743475,FAIL,wheels off ground
110,s01_lqr_pitch_step,g000013_c4,13,,3.9915489946050453,0.758420898276856,0.002798909919594091,14.049651421527951,,,,,,,,,,3.2604,6.4753,1.3239,0.1,0.0,0.006712,0.0,5.0,0.188,,,,,,225.98515,FAIL,wheels off ground
111,s01_lqr_pitch_step,g000013_c5,13,,10.0,1.4626720116885612,0.0008624480114994527,10.5022054205294,,,,,,,,,,3.9551,6.5104,1.4517,0.1,0.0,0.006583,0.0,5.0,0.182,,,,,,223.902825,FAIL,wheels off ground
112,s01_lqr_pitch_step,g000013_c6,13,,1.274352279692259,4.437301827863713,0.0002443252203093352,49.76635746219123,,,,,,,,,,3.7242,6.2091,1.0293,0.1,0.0,0.008118,0.0,5.0,0.194,,,,,,234.030075,FAIL,wheels off ground
113,s01_lqr_pitch_step,g000013_c7,13,,0.31052122060202464,10.0,0.0009752645666890682,136.12447635259485,,,,,,,,,,3.6193,6.1733,1.0329,0.1,0.0,0.007726,0.0,5.0,0.194,,,,,,233.7712,FAIL,wheels off ground
114,s01_lqr_pitch_step,g000014_c0,14,,2.3595581778641503,6.391949861436243,0.0002813559359786531,3.6461377980326395,,,,,,,,,,4.2645,13.3465,26.2089,0.1,7.9206,0.010617,0.0,5.0,3.764,,,,,,835.9118,FAIL,wheels off ground
115,s01_lqr_pitch_step,g000014_c1,14,,0.9992191425634187,4.533902744803668,0.00021570585360690175,10.098746850470313,,,,,,,,,,2.1391,6.6283,20.7101,0.1,7.6273,0.010502,0.0,5.0,3.068,,,,,,672.13515,FAIL,wheels off ground
116,s01_lqr_pitch_step,g000014_c2,14,,2.9241670026141553,3.950559382614967,0.0007818678610991799,6.377032897212655,,,,,,,,,,2.3815,5.0,3.4144,0.1,0.0,0.008553,0.0,5.0,0.404,,,,,,244.464425,FAIL,wheels off ground
117,s01_lqr_pitch_step,g000014_c3,14,,6.554370550562249,1.4675194789125356,0.0005753191976791764,22.55666767989068,,,,,,,,,,3.6848,6.4665,1.2586,0.1,0.0,0.007598,0.0,5.0,0.19,,,,,,225.551075,FAIL,wheels off ground
118,s01_lqr_pitch_step,g000014_c4,14,,2.888844110711776,2.7576175544262176,0.00033674305174575506,4.030092480585634,,,,,,,,,,2.0877,5.0,5.5158,0.1,0.0,0.009932,0.0,5.0,0.846,,,,,,343.278125,FAIL,wheels off ground
119,s01_lqr_pitch_step,g000014_c5,14,,2.523075405883741,10.0,0.0007500757837539275,14.839195724978682,,,,,,,,,,2.0038,5.0,6.1299,0.1,0.0,0.010283,0.0,5.0,0.89,,,,,,335.2794,FAIL,wheels off ground
120,s01_lqr_pitch_step,g000014_c6,14,,7.123176850847618,3.224413223476033,0.00038827539004567907,14.503482399705277,,,,,,,,,,3.4523,6.1586,1.0713,0.1,0.0,0.008591,0.0,5.0,0.194,,,,,,228.460375,FAIL,wheels off ground
121,s01_lqr_pitch_step,g000014_c7,14,,0.9792425625521097,0.4718232970126735,0.0005758204241805175,10.916829600236166,,,,,,,,,,4.0086,6.3406,1.603,0.1,0.0,0.006816,0.0,5.0,0.188,,,,,,220.938575,FAIL,wheels off ground
122,s01_lqr_pitch_step,g000015_c0,15,,8.766009009897333,4.219208291485487,0.0009418976027065133,8.153556632334647,,,,,,,,,,1.9565,5.2003,10.6344,0.1,9.4423,0.010352,0.0,5.0,1.48,,,,,,427.74855,FAIL,wheels off ground
123,s01_lqr_pitch_step,g000015_c1,15,,0.8212239249204686,1.4178471178737573,0.0003580577314387914,56.278779749184004,,,,,,,,,,4.038,6.1919,1.4581,0.1,0.0,0.006682,0.0,5.0,0.188,,,,,,220.8031,FAIL,wheels off ground
124,s01_lqr_pitch_step,g000015_c2,15,,1.8742841380708637,1.4007653189817637,0.0013803657165620974,8.670953581067682,,,,,,,,,,3.7138,6.5171,1.6084,0.1,0.0,0.006656,0.0,5.0,0.19,,,,,,223.999225,FAIL,wheels off ground
125,s01_lqr_pitch_step,g000015_c3,15,,2.5189900177238305,7.579850282162313,0.0003501266970086574,18.528894976823985,,,,,,,,,,3.263,5.6763,0.8813,0.1,0.0,0.008186,0.0,5.0,0.192,,,,,,234.535475,FAIL,wheels off ground
126,s01_lqr_pitch_step,g000015_c4,15,,0.4952886554243325,1.4253902992807475,0.00021545308360139173,38.25073335946833,,,,,,,,,,4.0909,6.2599,2.0249,0.1,0.0,0.007615,0.0,5.0,0.242,,,,,,227.707675,FAIL,wheels off ground
127,s01_lqr_pitch_step,g000015_c5,15,,2.015381888926109,4.357247583649786,0.00028827995570561215,40.61638431957736,,,,,,,,,,3.6811,6.3036,1.0387,0.1,0.0,0.007699,0.0,5.0,0.192,,,,,,235.6278,FAIL,wheels off ground
128,s01_lqr_pitch_step,g000015_c6,15,,2.0220261593601396,3.3383215662385406,0.0007133403783878493,11.14922564330145,,,,,,,,,,3.3948,6.1416,1.007,0.1,0.0,0.007072,0.0,5.0,0.186,,,,,,230.810775,FAIL,wheels off ground
129,s01_lqr_pitch_step,g000015_c7,15,,2.7381369813433567,0.9652354868451153,0.0015594908316014604,7.863371345214084,,,,,,,,,,3.45,6.7194,1.5178,0.1,0.0,0.007,0.0,5.0,0.194,,,,,,230.620625,FAIL,wheels off ground
130,s01_lqr_pitch_step,g000016_c0,16,,2.2249666880683097,2.4328282901809306,0.0007594316173026364,27.658089819018876,,,,,,,,,,3.6995,6.5108,1.2737,0.1,0.0,0.007264,0.0,5.0,0.192,,,,,,229.970925,FAIL,wheels off ground
131,s01_lqr_pitch_step,g000016_c1,16,,1.9909551413713842,4.939901244972416,0.00012974289715346108,24.074648734693568,,,,,,,,,,3.5655,6.0946,0.9905,0.1,0.0,0.008252,0.0,5.0,0.194,,,,,,230.01155,FAIL,wheels off ground
132,s01_lqr_pitch_step,g000016_c2,16,,1.6773524789153755,2.973230671204087,0.0007306281655520175,26.610305776606488,,,,,,,,,,3.5832,6.3512,1.0614,0.1,0.0,0.007365,0.0,5.0,0.19,,,,,,231.601875,FAIL,wheels off ground
133,s01_lqr_pitch_step,g000016_c3,16,,1.4684403365391636,1.1560588838265693,0.0015148834729931918,16.163899830989305,,,,,,,,,,3.4166,6.4572,1.5462,0.1,0.0,0.006781,0.0,5.0,0.188,,,,,,220.20375,FAIL,wheels off ground
134,s01_lqr_pitch_step,g000016_c4,16,,0.7164054006744208,1.4610709285985504,0.0002024130401101903,26.162597383333228,,,,,,,,,,3.6737,6.3253,2.11,0.1,0.0,0.007639,0.0,5.0,0.252,,,,,,226.080925,FAIL,wheels off ground
135,s01_lqr_pitch_step,g000016_c5,16,,1.6063497595230347,0.67321225408498,0.0009164835733331105,10.669961496027259,,,,,,,,,,3.4691,6.5266,1.2857,0.1,0.0,0.00747,0.0,5.0,0.186,,,,,,229.202675,FAIL,wheels off ground
136,s01_lqr_pitch_step,g000016_c6,16,,0.8752121394038509,3.3411718797607373,0.0007051170818538014,21.888319000481705,,,,,,,,,,3.9667,6.4607,1.4253,0.1,0.0,0.006492,0.0,5.0,0.186,,,,,,224.0488,FAIL,wheels off ground
137,s01_lqr_pitch_step,g000016_c7,16,,2.191260153999555,1.480554443606392,0.0012482237442711555,30.857375397226864,,,,,,,,,,4.2277,6.3512,1.5695,0.1,0.0,0.006885,0.0,5.0,0.186,,,,,,221.867225,FAIL,wheels off ground
138,s01_lqr_pitch_step,g000017_c0,17,,2.412056476820892,3.0725231018874806,0.0005696871028570935,19.2960281988662,,,,,,,,,,3.9368,6.488,1.416,0.1,0.0,0.006643,0.0,5.0,0.184,,,,,,223.342775,FAIL,wheels off ground
139,s01_lqr_pitch_step,g000017_c1,17,,2.897784139677286,3.950845005625703,0.0004198333985425707,20.6435817979394,,,,,,,,,,3.169,6.0815,1.3053,0.1,0.0,0.009399,0.0,5.0,0.246,,,,,,237.7363,FAIL,wheels off ground
140,s01_lqr_pitch_step,g000017_c2,17,,1.2179578396658017,2.3818303342476645,0.0005054491627230391,21.41726329274602,,,,,,,,,,3.7685,6.3533,1.2671,0.1,0.0,0.006514,0.0,5.0,0.188,,,,,,225.13755,FAIL,wheels off ground
141,s01_lqr_pitch_step,g000017_c3,17,,2.1624515521491934,4.188225604633404,0.0006386796287586044,12.77632485122569,,,,,,,,,,3.5615,6.1407,1.1532,0.1,0.0,0.006628,0.0,5.0,0.184,,,,,,226.892,FAIL,wheels off ground
142,s01_lqr_pitch_step,g000017_c4,17,,1.9525694618970806,2.0059756675606426,0.001928139246211908,20.518848283003805,,,,,,,,,,3.4397,6.6084,1.3462,0.1,0.0,0.007519,0.0,5.0,0.192,,,,,,230.05565,FAIL,wheels off ground
143,s01_lqr_pitch_step,g000017_c5,17,,1.1331107850774367,2.1661768808251893,0.0005025407890542851,27.19835667196233,,,,,,,,,,3.5668,6.2541,1.0488,0.1,0.0,0.007831,0.0,5.0,0.194,,,,,,234.2203,FAIL,wheels off ground
144,s01_lqr_pitch_step,g000017_c6,17,,1.0936615393179883,1.9014493931938878,0.0005389210263404022,20.811200974903645,,,,,,,,,,3.5118,6.2575,1.0539,0.1,0.0,0.00767,0.0,5.0,0.194,,,,,,232.536825,FAIL,wheels off ground
145,s01_lqr_pitch_step,g000017_c7,17,,1.679101269845732,1.5542667102819652,0.0005669107042720428,17.096025225395813,,,,,,,,,,3.5227,6.3263,1.0619,0.1,0.0,0.007339,0.0,5.0,0.192,,,,,,231.0298,FAIL,wheels off ground
146,s01_lqr_pitch_step,g000018_c0,18,,1.2685063451857685,1.0509717552420035,0.0004124694551978791,11.747950018547415,,,,,,,,,,3.4908,6.2958,1.0605,0.1,0.0,0.007501,0.0,5.0,0.194,,,,,,231.36755,FAIL,wheels off ground
147,s01_lqr_pitch_step,g000018_c1,18,,1.5087155338789022,3.6259070805670257,0.0006303548248061766,17.89113354361781,,,,,,,,,,3.1148,6.1182,1.3497,0.1,0.0,0.009304,0.0,5.0,0.248,,,,,,246.566625,FAIL,wheels off ground
148,s01_lqr_pitch_step,g000018_c2,18,,1.9646824417771527,1.5038966476282811,0.0006017138878827539,12.044208719358855,,,,,,,,,,4.1927,6.4168,1.4392,0.1,0.0,0.006333,0.0,5.0,0.186,,,,,,225.447775,FAIL,wheels off ground
149,s01_lqr_pitch_step,g000018_c3,18,,1.3056162849586679,5.181415882740169,0.0004806224729647433,19.63555972015461,,,,,,,,,,3.4681,6.1527,0.9789,0.1,0.0,0.008288,0.0,5.0,0.19,,,,,,230.19165,FAIL,wheels off ground
150,s01_lqr_pitch_step,g000018_c4,18,,1.1040705352003763,2.463508586451861,0.0008395936347646738,15.595776341674524,,,,,,,,,,3.8521,6.5184,1.4778,0.1,0.0,0.006738,0.0,5.0,0.186,,,,,,223.02695,FAIL,wheels off ground
151,s01_lqr_pitch_step,g000018_c5,18,,1.3909111979718545,4.349194547978772,0.0005380551390860772,21.69604137048777,,,,,,,,,,3.488,6.1205,1.0221,0.1,0.0,0.008235,0.0,5.0,0.196,,,,,,234.611475,FAIL,wheels off ground
152,s01_lqr_pitch_step,g000018_c6,18,,1.2441221330563896,2.164692911185569,0.0007799929534400518,26.786000332236867,,,,,,,,,,3.6685,6.4746,1.2469,0.1,0.0,0.00752,0.0,5.0,0.19,,,,,,226.12715,FAIL,wheels off ground
153,s01_lqr_pitch_step,g000018_c7,18,,1.9937840887832445,2.556940163116392,0.0005469430676069029,15.865201368537283,,,,,,,,,,3.9389,6.519,1.441,0.1,0.0,0.006663,0.0,5.0,0.184,,,,,,222.86095,FAIL,wheels off ground
154,s01_lqr_pitch_step,g000019_c0,19,,1.2164930975541506,2.2374559707292963,0.0007518979586954675,10.309388662592994,,,,,,,,,,3.5916,6.6533,1.2233,0.1,0.0,0.007677,0.0,5.0,0.188,,,,,,228.1887,FAIL,wheels off ground
155,s01_lqr_pitch_step,g000019_c1,19,,1.1118883801029553,2.8040933487542943,0.0002799864112624581,9.453470035633202,,,,,,,,,,3.4985,6.1482,0.976,0.1,0.0,0.007941,0.0,5.0,0.188,,,,,,236.0637,FAIL,wheels off ground
156,s01_lqr_pitch_step,g000019_c2,19,,1.0445476325110719,2.7145836417249294,0.000868790663514568,15.395161146083282,,,,,,,,,,4.0467,6.5571,1.5064,0.1,0.0,0.006872,0.0,5.0,0.186,,,,,,223.383975,FAIL,wheels off ground
157,s01_lqr_pitch_step,g000019_c3,19,,1.3730662982328248,2.3025125243022586,0.00042704112716182086,16.679883770870774,,,,,,,,,,3.8963,6.4505,1.3313,0.1,0.0,0.00666,0.0,5.0,0.184,,,,,,223.4044,FAIL,wheels off ground
158,s01_lqr_pitch_step,g000019_c4,19,,1.0252573863485845,2.650781701659705,0.0005309287741533613,14.974914624582317,,,,,,,,,,4.2346,6.5466,1.4687,0.1,0.0,0.006822,0.0,5.0,0.184,,,,,,223.36185,FAIL,wheels off ground
159,s01_lqr_pitch_step,g000019_c5,19,,1.3508139183471697,3.0098258282596144,0.001089653061972301,21.546990681464,,,,,,,,,,4.2895,6.4611,1.4578,0.1,0.0,0.006516,0.0,5.0,0.186,,,,,,225.2261,FAIL,wheels off ground
160,s01_lqr_pitch_step,g000019_c6,19,,1.5656929761307838,1.8938896275066943,0.0004345986891138999,10.45815304578782,,,,,,,,,,4.0097,6.5725,2.1502,0.1,0.0,0.00759,0.0,5.0,0.25,,,,,,226.628925,FAIL,wheels off ground
161,s01_lqr_pitch_step,g000019_c7,19,,1.7164331986886325,1.6024818845678963,0.00044456996151644336,28.6017900711323,,,,,,,,,,4.4436,6.3254,1.5128,0.1,0.0,0.006779,0.0,5.0,0.184,,,,,,221.91375,FAIL,wheels off ground
162,s01_lqr_pitch_step,g000020_c0,20,,1.518073664122295,2.6270242640409074,0.0005520318095007151,20.468909365805402,,,,,,,,,,3.6684,6.3691,1.1767,0.1,0.0,0.006825,0.0,5.0,0.19,,,,,,226.568325,FAIL,wheels off ground
163,s01_lqr_pitch_step,g000020_c1,20,,1.746721788929594,2.130593779515775,0.0008043161582735345,12.980223543524795,,,,,,,,,,3.9247,6.547,1.4857,0.1,0.0,0.006726,0.0,5.0,0.184,,,,,,223.00535,FAIL,wheels off ground
164,s01_lqr_pitch_step,g000020_c2,20,,1.8246025710025935,2.2937130581702467,0.0008157659019475699,22.14615452070929,,,,,,,,,,3.5142,6.3248,1.0695,0.1,0.0,0.007254,0.0,5.0,0.192,,,,,,230.034725,FAIL,wheels off ground
165,s01_lqr_pitch_step,g000020_c3,20,,1.3032588438393393,3.187914334715662,0.0007081351535197005,16.478453279718064,,,,,,,,,,3.7296,6.601,1.1601,0.1,0.0,0.007098,0.0,5.0,0.184,,,,,,228.081,FAIL,wheels off ground
166,s01_lqr_pitch_step,g000020_c4,20,,1.6114526052423344,3.0454179603859615,0.0006444907634728397,18.88948598500951,,,,,,,,,,3.8943,6.5034,1.4169,0.1,0.0,0.006686,0.0,5.0,0.184,,,,,,223.25455,FAIL,wheels off ground
167,s01_lqr_pitch_step,g000020_c5,20,,1.3226245258058127,2.540217783332386,0.000616476208558759,31.184752720471508,,,,,,,,,,3.5406,6.2453,1.0501,0.1,0.0,0.007739,0.0,5.0,0.194,,,,,,233.490375,FAIL,wheels off ground
168,s01_lqr_pitch_step,g000020_c6,20,,2.5054725654569836,1.7842752151119827,0.0006129200955863821,22.001255789751664,,,,,,,,,,3.5173,6.2821,1.0505,0.1,0.0,0.00747,0.0,5.0,0.194,,,,,,231.6776,FAIL,wheels off ground
169,s01_lqr_pitch_step,g000020_c7,20,,1.4106014048513147,2.1173739874711592,0.0008525712304575703,11.98578246064402,,,,,,,,,,2.3892,6.5648,7.0222,0.1,0.0,0.00991,0.0,5.0,0.94,,,,,,323.902075,FAIL,wheels off ground
170,s01_lqr_pitch_step,g000021_c0,21,,1.2972799046040127,2.698404505648546,0.0004764792886292964,13.202126114883974,,,,,,,,,,3.4042,6.1195,1.0196,0.1,0.0,0.008015,0.0,5.0,0.196,,,,,,235.94825,FAIL,wheels off ground
171,s01_lqr_pitch_step,g000021_c1,21,,1.475329685677607,3.027299020633823,0.0005496326433464294,14.219883832915398,,,,,,,,,,3.43,6.1373,1.0274,0.1,0.0,0.008293,0.0,5.0,0.196,,,,,,234.87295,FAIL,wheels off ground
172,s01_lqr_pitch_step,g000021_c2,21,,1.3641676658520436,2.4747686896917407,0.0006550499883812698,19.002978336423887,,,,,,,,,,3.8094,6.391,1.4263,0.1,0.0,0.006309,0.0,5.0,0.188,,,,,,224.71985,FAIL,wheels off ground
173,s01_lqr_pitch_step,g000021_c3,21,,1.9446670470744674,1.509991137717858,0.00048596414766291415,21.973027648517796,,,,,,,,,,3.7478,6.4291,1.2173,0.1,0.0,0.007363,0.0,5.0,0.188,,,,,,229.2501,FAIL,wheels off ground
174,s01_lqr_pitch_step,g000021_c4,21,,1.2642794214001416,2.5269300975638918,0.000948600933778228,17.732206900855708,,,,,,,,,,4.2769,6.4662,1.4668,0.1,0.0,0.006533,0.0,5.0,0.186,,,,,,225.108,FAIL,wheels off ground
175,s01_lqr_pitch_step,g000021_c5,21,,1.3979999388552322,2.820224710207187,0.0005060539988329712,15.49538994720819,,,,,,,,,,3.6461,6.5479,1.9927,0.1,0.0,0.007677,0.0,5.0,0.244,,,,,,229.832,FAIL,wheels off ground
176,s01_lqr_pitch_step,g000021_c6,21,,1.050370087384213,2.9957157663512013,0.0004473879488580721,18.13677068467295,,,,,,,,,,3.8824,6.4899,1.3222,0.1,0.0,0.006921,0.0,5.0,0.186,,,,,,223.206725,FAIL,wheels off ground
177,s01_lqr_pitch_step,g000021_c7,21,,1.4486881231594548,2.3871507459294117,0.00042487939375781186,17.681781222820423,,,,,,,,,,4.1202,6.4322,1.3952,0.1,0.0,0.006395,0.0,5.0,0.184,,,,,,224.109475,FAIL,wheels off ground
178,s01_lqr_pitch_step,g000022_c0,22,,1.2425375803847212,3.0516960212561517,0.0005478066605750002,19.626215143603496,,,,,,,,,,3.9517,6.4919,1.4185,0.1,0.0,0.006646,0.0,5.0,0.184,,,,,,223.23545,FAIL,wheels off ground
179,s01_lqr_pitch_step,g000022_c1,22,,1.6940176763444288,2.737235302941807,0.0004470421599113729,15.865495774283211,,,,,,,,,,3.5598,6.5482,3.5075,0.1,0.0,0.008442,0.0,5.0,0.392,,,,,,237.22315,FAIL,wheels off ground
180,s01_lqr_pitch_step,g000022_c2,22,,1.7539210598375525,3.223311875856168,0.00046196898663343635,17.994471139453275,,,,,,,,,,3.695,6.5549,2.0443,0.1,0.0,0.007701,0.0,5.0,0.244,,,,,,228.760325,FAIL,wheels off ground
181,s01_lqr_pitch_step,g000022_c3,22,,1.499803098263293,2.4354592705459903,0.0006104376882042414,14.640971392691897,,,,,,,,,,3.9702,6.5087,1.4393,0.1,0.0,0.006645,0.0,5.0,0.184,,,,,,223.142325,FAIL,wheels off ground
182,s01_lqr_pitch_step,g000022_c4,22,,1.2025040254094306,1.9362872796820634,0.0005869551946661529,18.494731605625265,,,,,,,,,,3.5381,6.336,1.0602,0.1,0.0,0.007328,0.0,5.0,0.192,,,,,,231.16875,FAIL,wheels off ground
183,s01_lqr_pitch_step,g000022_c5,22,,1.7110637738343695,2.747469887523429,0.0007260979564489629,14.93993324524219,,,,,,,,,,3.6887,6.6005,1.2753,0.1,0.0,0.006975,0.0,5.0,0.188,,,,,,223.47395,FAIL,wheels off ground
184,s01_lqr_pitch_step,g000022_c6,22,,1.3426466612876542,2.736781274770034,0.0004740894424503697,16.699981701271177,,,,,,,,,,3.4282,6.4977,1.8257,0.1,0.0,0.007767,0.0,5.0,0.24,,,,,,230.582375,FAIL,wheels off ground
185,s01_lqr_pitch_step,g000022_c7,22,,2.217784186844097,3.026539265705934,0.0005177686712210379,15.85952628673462,,,,,,,,,,3.7912,6.5897,1.2498,0.1,0.0,0.007001,0.0,5.0,0.188,,,,,,223.4066,FAIL,wheels off ground
186,s01_lqr_pitch_step,g000023_c0,23,,1.5683367918110895,2.418299250719646,0.000517925166472,17.38153455891016,,,,,,,,,,4.0664,6.443,1.4028,0.1,0.0,0.006409,0.0,5.0,0.184,,,,,,224.0188,FAIL,wheels off ground
187,s01_lqr_pitch_step,g000023_c1,23,,1.6146204436390659,2.018782975164906,0.0004594437913868771,18.71865114383485,,,,,,,,,,3.7619,6.3572,1.2691,0.1,0.0,0.00651,0.0,5.0,0.188,,,,,,225.176725,FAIL,wheels off ground
188,s01_lqr_pitch_step,g000023_c2,23,,1.525475049510356,2.7615231278658574,0.0005156163542310227,21.566458508841272,,,,,,,,,,4.6528,6.6269,1.4216,0.1,0.0,0.00637,0.0,5.0,0.186,,,,,,226.864175,FAIL,wheels off ground
189,s01_lqr_pitch_step,g000023_c3,23,,1.448317747917085,1.9791353740342597,0.0004665170803330129,16.660144681417243,,,,,,,,,,3.8436,6.3769,1.4053,0.1,0.0,0.006314,0.0,5.0,0.188,,,,,,224.815325,FAIL,wheels off ground
190,s01_lqr_pitch_step,g000023_c4,23,,1.4980937630717155,1.904795834562332,0.0005579922185507792,19.17575153469275,,,,,,,,,,3.2083,6.3045,1.2446,0.1,0.0,0.008666,0.0,5.0,0.236,,,,,,244.379175,FAIL,wheels off ground
191,s01_lqr_pitch_step,g000023_c5,23,,1.690969177061277,1.604556280494252,0.0005621784740502639,15.48042308601606,,,,,,,,,,3.5207,6.3423,1.0824,0.1,0.0,0.007194,0.0,5.0,0.192,,,,,,229.55495,FAIL,wheels off ground
192,s01_lqr_pitch_step,g000023_c6,23,,1.2709598067453836,2.8092117839529083,0.0005222709176906842,19.780303955414,,,,,,,,,,3.9058,6.4463,1.345,0.1,0.0,0.006618,0.0,5.0,0.184,,,,,,223.402975,FAIL,wheels off ground
193,s01_lqr_pitch_step,g000023_c7,23,,1.7402511011436668,2.524685260160209,0.0005578394343635551,12.25272752352377,,,,,,,,,,3.3797,6.1298,1.0072,0.1,0.0,0.007816,0.0,5.0,0.194,,,,,,234.6258,FAIL,wheels off ground
194,s01_lqr_pitch_step,g000024_c0,24,,1.5924589567162004,2.4111727171108415,0.0005297138729090946,17.545611249826,,,,,,,,,,4.48,6.426,1.4282,0.1,0.0,0.006405,0.0,5.0,0.186,,,,,,226.067025,FAIL,wheels off ground
195,s01_lqr_pitch_step,g000024_c1,24,,1.563052459685091,2.6275593710309644,0.0006046293566007272,16.477099982257112,,,,,,,,,,3.9721,6.519,1.4563,0.1,0.0,0.006669,0.0,5.0,0.184,,,,,,222.6826,FAIL,wheels off ground
196,s01_lqr_pitch_step,g000024_c2,24,,1.7647626115622705,2.5530867810499425,0.0005418550380656609,20.32370828802134,,,,,,,,,,3.7669,6.3791,1.293,0.1,0.0,0.00651,0.0,5.0,0.188,,,,,,224.751,FAIL,wheels off ground
197,s01_lqr_pitch_step,g000024_c3,24,,1.7295477818019143,2.3000200432173417,0.0005850607451942169,17.52826103963996,,,,,,,,,,3.721,6.3892,1.3106,0.1,0.0,0.006525,0.0,5.0,0.188,,,,,,224.52125,FAIL,wheels off ground
198,s01_lqr_pitch_step,g000024_c4,24,,1.7285852746061403,2.5218263504405014,0.0005213324305430367,19.74289015276511,,,,,,,,,,4.5768,6.4035,1.4164,0.1,0.0,0.006366,0.0,5.0,0.186,,,,,,226.69985,FAIL,wheels off ground
199,s01_lqr_pitch_step,g000024_c5,24,,1.38718370080383,2.728144153050175,0.0006863133835723486,18.088097104301667,,,,,,,,,,3.921,6.4829,1.3857,0.1,0.0,0.006481,0.0,5.0,0.182,,,,,,223.743375,FAIL,wheels off ground
200,s01_lqr_pitch_step,g000024_c6,24,,1.7842539280459795,2.2360341098200696,0.0005980317776136684,19.675922308744237,,,,,,,,,,3.6956,6.3558,1.2552,0.1,0.0,0.006489,0.0,5.0,0.188,,,,,,225.62605,FAIL,wheels off ground
201,s01_lqr_pitch_step,g000024_c7,24,,1.4099886425290475,2.477308375084299,0.0006261523616891591,19.3997518894562,,,,,,,,,,4.2403,6.406,1.4175,0.1,0.0,0.00629,0.0,5.0,0.186,,,,,,225.473825,FAIL,wheels off ground
202,s01_lqr_pitch_step,g000025_c0,25,,1.723386691345432,2.272198087948319,0.0005558185379777217,14.383337551347456,,,,,,,,,,3.8072,6.4865,1.3619,0.1,0.0,0.00675,0.0,5.0,0.184,,,,,,222.925175,FAIL,wheels off ground
203,s01_lqr_pitch_step,g000025_c1,25,,1.5803388721355465,2.192516253132763,0.0005372253129938858,16.068452003853956,,,,,,,,,,4.5021,6.4205,1.4298,0.1,0.0,0.006406,0.0,5.0,0.186,,,,,,226.28955,FAIL,wheels off ground
204,s01_lqr_pitch_step,g000025_c2,25,,1.7651643227464346,2.4296527434982043,0.0006687329562307743,15.834113266361504,,,,,,,,,,3.9696,6.4907,1.4366,0.1,0.0,0.006621,0.0,5.0,0.184,,,,,,223.2163,FAIL,wheels off ground
205,s01_lqr_pitch_step,g000025_c3,25,,1.533165167362162,2.395395393193096,0.0006071292767425887,15.599570064930466,,,,,,,,,,3.9606,6.4962,1.4278,0.1,0.0,0.006614,0.0,5.0,0.184,,,,,,223.417075,FAIL,wheels off ground
206,s01_lqr_pitch_step,g000025_c4,25,,1.4876965643337445,2.0899860543160913,0.0005424457333068066,16.135392792339506,,,,,,,,,,4.4044,6.4283,1.4325,0.1,0.0,0.00643,0.0,5.0,0.186,,,,,,225.667725,FAIL,wheels off ground
207,s01_lqr_pitch_step,g000025_c5,25,,1.6620131270902108,2.0263391085021936,0.0005531243656158687,16.704072777454257,,,,,,,,,,3.8152,6.3886,1.4197,0.1,0.0,0.00631,0.0,5.0,0.188,,,,,,224.782175,FAIL,wheels off ground
208,s01_lqr_pitch_step,g000025_c6,25,,1.8490344685290152,2.0960598292452173,0.0005593535017020502,14.080973552713383,,,,,,,,,,4.1357,6.4697,1.4198,0.1,0.0,0.006495,0.0,5.0,0.184,,,,,,224.25675,FAIL,wheels off ground
209,s01_lqr_pitch_step,g000025_c7,25,,1.3976237754913274,2.147681624963799,0.0005843473373799885,16.154126924530296,,,,,,,,,,4.4312,6.4252,1.4337,0.1,0.0,0.006424,0.0,5.0,0.186,,,,,,225.877775,FAIL,wheels off ground
210,s01_lqr_pitch_step,g000026_c0,26,,1.5069963368608508,2.5252521158578487,0.0005686602118481957,17.8873933258738,,,,,,,,,,4.5317,6.4204,1.4306,0.1,0.0,0.006394,0.0,5.0,0.186,,,,,,226.39595,FAIL,wheels off ground
211,s01_lqr_pitch_step,g000026_c1,26,,1.548442794235837,2.421435922629634,0.0005296193356636304,19.517572770288808,,,,,,,,,,3.8138,6.3868,1.3195,0.1,0.0,0.006475,0.0,5.0,0.186,,,,,,224.172125,FAIL,wheels off ground
212,s01_lqr_pitch_step,g000026_c2,26,,1.5380130557457206,2.5320043241445522,0.0005126697116198083,19.127687330431854,,,,,,,,,,4.0221,6.4089,1.4144,0.1,0.0,0.006318,0.0,5.0,0.186,,,,,,224.3928,FAIL,wheels off ground
213,s01_lqr_pitch_step,g000026_c3,26,,1.530494171053171,2.2082675952464643,0.0005233812869872999,18.077919771240335,,,,,,,,,,4.4654,6.4161,1.4222,0.1,0.0,0.006397,0.0,5.0,0.186,,,,,,226.05335,FAIL,wheels off ground
214,s01_lqr_pitch_step,g000026_c4,26,,1.435887067313104,2.485998358893231,0.0004660088845886001,19.125898922512935,,,,,,,,,,4.6345,6.5412,1.4205,0.1,0.0,0.006368,0.0,5.0,0.186,,,,,,226.8152,FAIL,wheels off ground
215,s01_lqr_pitch_step,g000026_c5,26,,1.4507365416612195,2.5244938507674517,0.0006139121844114837,15.863963402037188,,,,,,,,,,4.0177,6.5024,1.4412,0.1,0.0,0.006634,0.0,5.0,0.184,,,,,,223.07695,FAIL,wheels off ground
216,s01_lqr_pitch_step,g000026_c6,26,,1.4793114746912004,2.1502420085214857,0.0005524959492310241,17.897627457568316,,,,,,,,,,3.6379,6.3689,1.1783,0.1,0.0,0.006842,0.0,5.0,0.19,,,,,,226.540825,FAIL,wheels off ground
217,s01_lqr_pitch_step,g000026_c7,26,,1.5281374226589863,2.28620377737038,0.0005548151226562442,16.13380564213275,,,,,,,,,,4.0066,6.4507,1.4379,0.1,0.0,0.006495,0.0,5.0,0.186,,,,,,223.724175,FAIL,wheels off ground
218,s01_lqr_pitch_step,g000027_c0,27,,1.4362792472562744,2.2496899594376756,0.0005068859158101758,17.52525784948338,,,,,,,,,,4.6209,6.6367,1.4316,0.1,0.0,0.006396,0.0,5.0,0.186,,,,,,226.7973,FAIL,wheels off ground
219,s01_lqr_pitch_step,g000027_c1,27,,1.340544880252001,2.4632494165633623,0.0006137198274726713,17.996685760358666,,,,,,,,,,4.4698,6.4235,1.4259,0.1,0.0,0.0064,0.0,5.0,0.186,,,,,,226.218975,FAIL,wheels off ground
220,s01_lqr_pitch_step,g000027_c2,27,,1.3062999738975962,2.302477305713706,0.0005596975612477294,17.938338149562433,,,,,,,,,,4.233,6.4004,1.4137,0.1,0.0,0.006282,0.0,5.0,0.186,,,,,,225.490575,FAIL,wheels off ground
221,s01_lqr_pitch_step,g000027_c3,27,,1.5280825193838035,2.6907988714480933,0.0006157905231371474,18.737441952094265,,,,,,,,,,4.0405,6.4432,1.4061,0.1,0.0,0.006423,0.0,5.0,0.184,,,,,,223.915575,FAIL,wheels off ground
222,s01_lqr_pitch_step,g000027_c4,27,,1.4291022523137484,2.515116163771898,0.0005481651980103929,18.302859340090695,,,,,,,,,,4.5398,6.4199,1.4238,0.1,0.0,0.006383,0.0,5.0,0.186,,,,,,226.487925,FAIL,wheels off ground
223,s01_lqr_pitch_step,g000027_c5,27,,1.446816204134768,2.2081266976259575,0.0005132599913285946,17.831982991793076,,,,,,,,,,4.5651,6.4072,1.4213,0.1,0.0,0.006386,0.0,5.0,0.186,,,,,,226.623825,FAIL,wheels off ground
224,s01_lqr_pitch_step,g000027_c6,27,,1.4104697169712097,2.5322702280392475,0.0005934915360111038,15.11775478243286,,,,,,,,,,3.831,6.5128,1.4416,0.1,0.0,0.006785,0.0,5.0,0.186,,,,,,223.179875,FAIL,wheels off ground
225,s01_lqr_pitch_step,g000027_c7,27,,1.4349617630567661,2.437118551726454,0.0005593780432680158,16.84436177352665,,,,,,,,,,4.0024,6.4595,1.4331,0.1,0.0,0.006493,0.0,5.0,0.186,,,,,,223.8252,FAIL,wheels off ground
226,s01_lqr_pitch_step,g000028_c0,28,,1.5252534374206341,2.3739975977927728,0.0005476004655020602,16.973746555001394,,,,,,,,,,3.9902,6.4473,1.411,0.1,0.0,0.006446,0.0,5.0,0.184,,,,,,223.71315,FAIL,wheels off ground
227,s01_lqr_pitch_step,g000028_c1,28,,1.5955331724437636,2.4398069280715595,0.0005396984093562171,17.20719458882064,,,,,,,,,,4.3828,6.4403,1.3996,0.1,0.0,0.006377,0.0,5.0,0.184,,,,,,225.5946,FAIL,wheels off ground
228,s01_lqr_pitch_step,g000028_c2,28,,1.510891011744293,2.572736965591959,0.0005475984994422013,16.97757884319628,,,,,,,,,,3.9571,6.4761,1.3887,0.1,0.0,0.006444,0.0,5.0,0.182,,,,,,223.601675,FAIL,wheels off ground
229,s01_lqr_pitch_step,g000028_c3,28,,1.583781617919223,2.3585244729112427,0.0005886579164447372,16.01371255553228,,,,,,,,,,4.2847,6.4546,1.4168,0.1,0.0,0.00644,0.0,5.0,0.184,,,,,,224.857975,FAIL,wheels off ground
230,s01_lqr_pitch_step,g000028_c4,28,,1.516052795408289,2.3129881380105566,0.0005295418429587944,17.21402719839917,,,,,,,,,,4.4324,6.4272,1.4261,0.1,0.0,0.006409,0.0,5.0,0.186,,,,,,225.839225,FAIL,wheels off ground
231,s01_lqr_pitch_step,g000028_c5,28,,1.5058570570701824,2.1953376274376275,0.0005578117942522808,17.174236460759047,,,,,,,,,,4.5684,6.4796,1.4355,0.1,0.0,0.006409,0.0,5.0,0.186,,,,,,226.600575,FAIL,wheels off ground
232,s01_lqr_pitch_step,g000028_c6,28,,1.403881521341353,2.3588199477989473,0.0005687356194160757,16.90136998652947,,,,,,,,,,4.3072,6.4478,1.4098,0.1,0.0,0.006418,0.0,5.0,0.184,,,,,,225.05435,FAIL,wheels off ground
233,s01_lqr_pitch_step,g000028_c7,28,,1.5361893934962245,2.3982578732976974,0.0005494892283676045,17.51951152850064,,,,,,,,,,3.9768,6.45,1.4314,0.1,0.0,0.006494,0.0,5.0,0.186,,,,,,223.835975,FAIL,wheels off ground
234,s01_lqr_pitch_step,g000029_c0,29,,1.4693948085580562,2.216244329587745,0.0005536729498041333,17.16010322529884,,,,,,,,,,3.9799,6.4052,1.4162,0.1,0.0,0.006323,0.0,5.0,0.186,,,,,,224.430675,FAIL,wheels off ground
235,s01_lqr_pitch_step,g000029_c1,29,,1.5563115130640397,2.450055010984383,0.0005486705012198344,17.363310871543685,,,,,,,,,,4.0464,6.4434,1.4362,0.1,0.0,0.006462,0.0,5.0,0.186,,,,,,223.841,FAIL,wheels off ground
236,s01_lqr_pitch_step,g000029_c2,29,,1.4239152492714942,2.286631493660445,0.0005345461036273492,16.946066629844545,,,,,,,,,,4.4102,6.4317,1.4291,0.1,0.0,0.006428,0.0,5.0,0.186,,,,,,225.608775,FAIL,wheels off ground
237,s01_lqr_pitch_step,g000029_c3,29,,1.5278454294403072,2.2898713761089575,0.0005263986246241723,16.156758387324583,,,,,,,,,,4.3167,6.443,1.4048,0.1,0.0,0.006408,0.0,5.0,0.184,,,,,,225.16375,FAIL,wheels off ground
238,s01_lqr_pitch_step,g000029_c4,29,,1.4889386331573027,2.3582312069714004,0.0005709106104190678,16.803223609620645,,,,,,,,,,4.3657,6.4346,1.4311,0.1,0.0,0.006433,0.0,5.0,0.186,,,,,,225.4466,FAIL,wheels off ground
239,s01_lqr_pitch_step,g000029_c5,29,,1.3964614691331019,2.439550435126924,0.0005627124710617598,17.95137273441951,,,,,,,,,,4.1063,6.4369,1.4026,0.1,0.0,0.006414,0.0,5.0,0.184,,,,,,224.040425,FAIL,wheels off ground
240,s01_lqr_pitch_step,g000029_c6,29,,1.4622107607928572,2.547118670496664,0.0005744566102149935,18.44643095863539,,,,,,,,,,4.5386,6.4259,1.4261,0.1,0.0,0.006392,0.0,5.0,0.186,,,,,,226.479775,FAIL,wheels off ground
241,s01_lqr_pitch_step,g000029_c7,29,,1.486219058693525,2.511457705807744,0.0005391472705553086,16.287814273145987,,,,,,,,,,4.0633,6.4797,1.3871,0.1,0.0,0.006513,0.0,5.0,0.182,,,,,,223.779,FAIL,wheels off ground
242,s01_lqr_pitch_step,g000030_c0,30,,1.4987824950136734,2.2997567260062564,0.0005898976266505065,17.086604952378366,,,,,,,,,,4.3675,6.4289,1.4349,0.1,0.0,0.006441,0.0,5.0,0.186,,,,,,225.404025,FAIL,wheels off ground
243,s01_lqr_pitch_step,g000030_c1,30,,1.4673153553751714,2.4059473346437805,0.0005543450738956401,17.006902290321047,,,,,,,,,,4.4012,6.4341,1.4325,0.1,0.0,0.006433,0.0,5.0,0.186,,,,,,225.51675,FAIL,wheels off ground
244,s01_lqr_pitch_step,g000030_c2,30,,1.4023543194060755,2.40445120080552,0.0006104722856689642,17.273714169468704,,,,,,,,,,4.2342,6.4524,1.4153,0.1,0.0,0.006443,0.0,5.0,0.184,,,,,,224.641575,FAIL,wheels off ground
245,s01_lqr_pitch_step,g000030_c3,30,,1.5006414839841706,2.2914983277015706,0.0005477456015368646,15.349382000751675,,,,,,,,,,3.9326,6.4822,1.392,0.1,0.0,0.006471,0.0,5.0,0.182,,,,,,223.561825,FAIL,wheels off ground
246,s01_lqr_pitch_step,g000030_c4,30,,1.5065217259953332,2.3793175950510155,0.0005417552389418353,16.804352350709987,,,,,,,,,,4.5708,6.4486,1.4367,0.1,0.0,0.006406,0.0,5.0,0.186,,,,,,226.56695,FAIL,wheels off ground
247,s01_lqr_pitch_step,g000030_c5,30,,1.4120212336692848,2.2863011701579867,0.0005855809740680546,17.192798702177797,,,,,,,,,,4.3669,6.4326,1.4069,0.1,0.0,0.0064,0.0,5.0,0.184,,,,,,225.477075,FAIL,wheels off ground
248,s01_lqr_pitch_step,g000030_c6,30,,1.4477596584382724,2.288125560463763,0.0005514050524373406,17.304304920927787,,,,,,,,,,4.0229,6.4372,1.433,0.1,0.0,0.00648,0.0,5.0,0.186,,,,,,223.81525,FAIL,wheels off ground
249,s01_lqr_pitch_step,g000030_c7,30,,1.5546681026855809,2.331431130835144,0.0005475371118827728,17.739101904929612,,,,,,,,,,4.1051,6.4335,1.4001,0.1,0.0,0.006407,0.0,5.0,0.184,,,,,,224.11715,FAIL,wheels off ground
250,s01_lqr_pitch_step,g000031_c0,31,,1.4381520819439257,2.2405657990725265,0.0005578014556862348,16.62759425132696,,,,,,,,,,3.841,6.3983,1.4363,0.1,0.0,0.006297,0.0,5.0,0.188,,,,,,224.7038,FAIL,wheels off ground
251,s01_lqr_pitch_step,g000031_c1,31,,1.4087062575510478,2.2968042603764265,0.0005474501972038879,17.52040839212694,,,,,,,,,,3.941,6.4086,1.4103,0.1,0.0,0.006317,0.0,5.0,0.186,,,,,,224.534025,FAIL,wheels off ground
252,s01_lqr_pitch_step,g000031_c2,31,,1.4711358575345461,2.3923162487394793,0.0005715935184360128,16.951272676612128,,,,,,,,,,3.9296,6.4665,1.4114,0.1,0.0,0.006495,0.0,5.0,0.184,,,,,,223.693525,FAIL,wheels off ground
253,s01_lqr_pitch_step,g000031_c3,31,,1.3941256788936438,2.3066839877011924,0.0005671164160744304,17.222703112054127,,,,,,,,,,4.5684,6.4914,1.4323,0.1,0.0,0.006395,0.0,5.0,0.186,,,,,,226.75435,FAIL,wheels off ground
254,s01_lqr_pitch_step,g000031_c4,31,,1.4123039024072235,2.3415422636670167,0.0005667989095421706,17.105958994436484,,,,,,,,,,4.4545,6.4292,1.4318,0.1,0.0,0.006417,0.0,5.0,0.186,,,,,,225.869775,FAIL,wheels off ground
255,s01_lqr_pitch_step,g000031_c5,31,,1.4786112734759667,2.37762169857684,0.0005418653940945208,16.88840529754218,,,,,,,,,,3.9499,6.4602,1.4015,0.1,0.0,0.006479,0.0,5.0,0.184,,,,,,223.94255,FAIL,wheels off ground
256,s01_lqr_pitch_step,g000031_c6,31,,1.4434082975584415,2.3497140665152783,0.000566169056253146,16.892893876453872,,,,,,,,,,3.9201,6.4206,1.4154,0.1,0.0,0.006334,0.0,5.0,0.186,,,,,,224.42395,FAIL,wheels off ground
257,s01_lqr_pitch_step,g000031_c7,31,,1.4406334994819006,2.3199251278534647,0.0005412137578211743,17.65859627360838,,,,,,,,,,4.1894,6.4166,1.4236,0.1,0.0,0.00642,0.0,5.0,0.186,,,,,,224.48915,FAIL,wheels off ground
258,s01_lqr_pitch_step,g000032_c0,32,,1.4917677159680818,2.354511467001236,0.0005740805562296196,16.90237600154195,,,,,,,,,,3.8596,6.473,1.3916,0.1,0.0,0.00669,0.0,5.0,0.184,,,,,,223.0621,FAIL,wheels off ground
259,s01_lqr_pitch_step,g000032_c1,32,,1.4608399946684876,2.4037533481616737,0.0005822384148153461,16.608797517999477,,,,,,,,,,4.3186,6.4433,1.4144,0.1,0.0,0.006421,0.0,5.0,0.184,,,,,,225.080075,FAIL,wheels off ground
260,s01_lqr_pitch_step,g000032_c2,32,,1.4585520494970443,2.3935762404171097,0.0005365883003426049,17.33578457241987,,,,,,,,,,4.112,6.4365,1.4,0.1,0.0,0.006405,0.0,5.0,0.184,,,,,,224.15365,FAIL,wheels off ground
261,s01_lqr_pitch_step,g000032_c3,32,,1.5299504835853,2.3803539471511446,0.0005828745357233361,17.080841154398843,,,,,,,,,,4.4064,6.4397,1.4152,0.1,0.0,0.006404,0.0,5.0,0.184,,,,,,225.539875,FAIL,wheels off ground
262,s01_lqr_pitch_step,g000032_c4,32,,1.4830747201895487,2.348662332637778,0.0005656686648303255,16.934193573344004,,,,,,,,,,4.3854,6.4333,1.4303,0.1,0.0,0.006425,0.0,5.0,0.186,,,,,,225.573225,FAIL,wheels off ground
263,s01_lqr_pitch_step,g000032_c5,32,,1.5744818684455348,2.347881956461214,0.0005497156412782901,17.967963929500804,,,,,,,,,,3.8379,6.393,1.4186,0.1,0.0,0.006316,0.0,5.0,0.188,,,,,,224.69885,FAIL,wheels off ground
264,s01_lqr_pitch_step,g000032_c6,32,,1.5304076288389898,2.4326558591768217,0.0005389338857550309,17.35703515602481,,,,,,,,,,3.8568,6.4635,1.343,0.1,0.0,0.006712,0.0,5.0,0.184,,,,,,223.199075,FAIL,wheels off ground
265,s01_lqr_pitch_step,g000032_c7,32,,1.4594254103526265,2.3752671600033026,0.0005613048719181165,17.455962732852317,,,,,,,,,,4.5525,6.4194,1.4262,0.1,0.0,0.006389,0.0,5.0,0.186,,,,,,226.69775,FAIL,wheels off ground
266,s01_lqr_pitch_step,g000033_c0,33,,1.4452626364859387,2.3785331647045336,0.000542896900773893,17.209102397588122,,,,,,,,,,4.5069,6.4172,1.422,0.1,0.0,0.006387,0.0,5.0,0.186,,,,,,226.39855,FAIL,wheels off ground
267,s01_lqr_pitch_step,g000033_c1,33,,1.5063059956810363,2.3273974624134905,0.0005545200619451234,17.18244227040717,,,,,,,,,,4.3229,6.4396,1.4044,0.1,0.0,0.006405,0.0,5.0,0.184,,,,,,225.202975,FAIL,wheels off ground
268,s01_lqr_pitch_step,g000033_c2,33,,1.4604425216693186,2.3023321797610894,0.000563901869843705,17.321411060776228,,,,,,,,,,3.9959,6.4076,1.4217,0.1,0.0,0.006333,0.0,5.0,0.186,,,,,,224.285725,FAIL,wheels off ground
269,s01_lqr_pitch_step,g000033_c3,33,,1.479411072385417,2.3915137649281233,0.0005909369020457573,17.57854385714394,,,,,,,,,,3.955,6.4449,1.4345,0.1,0.0,0.006504,0.0,5.0,0.186,,,,,,223.758375,FAIL,wheels off ground
270,s01_lqr_pitch_step,g000033_c4,33,,1.4664654435331606,2.350613437352086,0.0005470714943582636,17.13960517530934,,,,,,,,,,4.0189,6.4495,1.433,0.1,0.0,0.006479,0.0,5.0,0.186,,,,,,223.84195,FAIL,wheels off ground
271,s01_lqr_pitch_step,g000033_c5,33,,1.4825358995514089,2.4813995716290167,0.0005484929042334546,17.50270656889603,,,,,,,,,,4.0119,6.4532,1.4262,0.1,0.0,0.006484,0.0,5.0,0.186,,,,,,223.9564,FAIL,wheels off ground
272,s01_lqr_pitch_step,g000033_c6,33,,1.4524209251700093,2.307941452271816,0.0005484138686220053,17.194299518530283,,,,,,,,,,4.5148,6.421,1.4268,0.1,0.0,0.006395,0.0,5.0,0.186,,,,,,226.373975,FAIL,wheels off ground
273,s01_lqr_pitch_step,g000033_c7,33,,1.4878180063311264,2.4100389481789293,0.0005486279603796317,16.70758670441597,,,,,,,,,,4.3208,6.4499,1.4139,0.1,0.0,0.006415,0.0,5.0,0.184,,,,,,224.991275,FAIL,wheels off ground
274,s01_lqr_pitch_step,g000034_c0,34,,1.4754988585989053,2.4622135462429164,0.0005477973908997066,16.76204445693642,,,,,,,,,,4.029,6.4453,1.4314,0.1,0.0,0.006463,0.0,5.0,0.186,,,,,,223.9498,FAIL,wheels off ground
275,s01_lqr_pitch_step,g000034_c1,34,,1.4423298036657826,2.377571433863427,0.0005765644253357273,17.61618572754721,,,,,,,,,,4.4554,6.4243,1.4318,0.1,0.0,0.006412,0.0,5.0,0.186,,,,,,226.011075,FAIL,wheels off ground
276,s01_lqr_pitch_step,g000034_c2,34,,1.5059650480744962,2.3733740262681575,0.0005549470587773869,17.074659790290895,,,,,,,,,,4.4694,6.421,1.4247,0.1,0.0,0.006398,0.0,5.0,0.186,,,,,,226.1471,FAIL,wheels off ground
277,s01_lqr_pitch_step,g000034_c3,34,,1.4581203977319754,2.3318621464983087,0.0005459446173999707,16.974005076894876,,,,,,,,,,3.9915,6.4498,1.4272,0.1,0.0,0.006494,0.0,5.0,0.186,,,,,,223.905325,FAIL,wheels off ground
278,s01_lqr_pitch_step,g000034_c4,34,,1.4669605631255955,2.3184515388335263,0.0005723125618185965,16.954689519770394,,,,,,,,,,4.3948,6.4362,1.4361,0.1,0.0,0.006442,0.0,5.0,0.186,,,,,,225.464925,FAIL,wheels off ground
279,s01_lqr_pitch_step,g000034_c5,34,,1.4855064416300594,2.3919056053849537,0.0005687278462843775,17.3021012666606,,,,,,,,,,4.2269,6.4098,1.4214,0.1,0.0,0.006301,0.0,5.0,0.186,,,,,,225.278075,FAIL,wheels off ground
280,s01_lqr_pitch_step,g000034_c6,34,,1.521072321304456,2.3449089579263283,0.0005540242534782127,17.449992821593916,,,,,,,,,,4.3428,6.4428,1.4104,0.1,0.0,0.006415,0.0,5.0,0.184,,,,,,225.102475,FAIL,wheels off ground
281,s01_lqr_pitch_step,g000034_c7,34,,1.4767711063017392,2.362984339222176,0.0005729680459370427,17.73501256686412,,,,,,,,,,3.8563,6.3976,1.4093,0.1,0.0,0.006267,0.0,5.0,0.186,,,,,,224.545425,FAIL,wheels off ground
282,s01_lqr_pitch_step,g000035_c0,35,,1.5218267856678023,2.342068408836371,0.0005710131596824012,17.296450552718532,,,,,,,,,,3.9787,6.4503,1.4088,0.1,0.0,0.006464,0.0,5.0,0.184,,,,,,223.7289,FAIL,wheels off ground
