run_id,scenario,label,gen,timestamp,Q_PITCH,Q_PITCH_RATE,Q_VEL,R,KP_V,KI_V,KFF_V,KP_YAW,KI_YAW,LEG_K_S,LEG_B_S,LEG_K_ROLL,LEG_D_ROLL,rms_pitch_deg,max_pitch_deg,wheel_travel_m,wheel_liftoff_s,vel_track_rms_ms,hip_track_rms_rad,hip_cmd_rate_rms,settle_time_s,survived_s,fitness_balance,fitness_disturbance,fitness_drive_slow,fitness_drive_med,fitness_obstacle,fitness,status,fail_reason
1,s03_vel_pi_disturbance,evo_seed,0,,,,,,0.074557528,0.012976266,0.34145032,,,,,,,0.3264,0.6913,0.0091,0.0,0.0,0.008799,0.0,12.0,0.036,,,,,,201.246338,FAIL,vel error exceeded
2,s03_vel_pi_disturbance,g000000_c0,0,,,,,,0.049999999999999996,0.06215416942976478,0.1,,,,,,,0.2973,0.6598,0.0088,0.0,0.0,0.00873,0.0,12.0,0.036,,,,,,201.321815,FAIL,vel error exceeded
3,s03_vel_pi_disturbance,g000000_c1,0,,,,,,0.049999999999999996,0.02744633421167213,1.2,,,,,,,0.292,0.654,0.0086,0.0,0.0,0.008649,0.0,12.0,0.036,,,,,,201.38095,FAIL,vel error exceeded
4,s03_vel_pi_disturbance,g000000_c2,0,,,,,,0.049999999999999996,0.025801054115596418,0.1,,,,,,,0.295,0.6493,0.0089,0.0,0.0,0.00878,0.0,12.0,0.036,,,,,,201.292223,FAIL,vel error exceeded
5,s03_vel_pi_disturbance,g000000_c3,0,,,,,,0.049999999999999996,0.01,0.1,,,,,,,0.2925,0.6499,0.0088,0.0,0.0,0.008704,0.0,12.0,0.036,,,,,,201.347125,FAIL,vel error exceeded
6,s03_vel_pi_disturbance,g000000_c4,0,,,,,,0.049999999999999996,0.08193603738970587,0.8795255130236527,,,,,,,0.2947,0.6542,0.0089,0.0,0.0,0.008664,0.0,12.0,0.036,,,,,,201.350795,FAIL,vel error exceeded
7,s03_vel_pi_disturbance,g000000_c5,0,,,,,,0.15,0.1,0.18434763736621004,,,,,,,0.4276,0.9116,0.0083,0.0,0.0,0.009071,0.0,12.0,0.036,,,,,,200.986398,FAIL,vel error exceeded
8,s03_vel_pi_disturbance,g000000_c6,0,,,,,,0.049999999999999996,0.061827505382752126,1.2,,,,,,,0.2968,0.6609,0.0089,0.0,0.0,0.008647,0.0,12.0,0.036,,,,,,201.358808,FAIL,vel error exceeded
9,s03_vel_pi_disturbance,g000000_c7,0,,,,,,0.15,0.01,0.1,,,,,,,0.4186,0.8882,0.008,0.0,0.0,0.009123,0.0,12.0,0.036,,,,,,200.974545,FAIL,vel error exceeded
10,s03_vel_pi_disturbance,g000001_c0,1,,,,,,0.15,0.03575472805516452,0.1,,,,,,,0.4155,0.8902,0.0081,0.0,0.0,0.008973,0.0,12.0,0.036,,,,,,201.042915,FAIL,vel error exceeded
11,s03_vel_pi_disturbance,g000001_c1,1,,,,,,0.15,0.01,0.3487165480819676,,,,,,,0.4341,0.9246,0.0083,0.0,0.0,0.009032,0.0,12.0,0.036,,,,,,200.981355,FAIL,vel error exceeded
12,s03_vel_pi_disturbance,g000001_c2,1,,,,,,0.15,0.1,1.2,,,,,,,0.4277,0.9145,0.0082,0.0,0.0,0.009047,0.0,12.0,0.036,,,,,,200.981667,FAIL,vel error exceeded
13,s03_vel_pi_disturbance,g000001_c3,1,,,,,,0.15,0.1,0.28211074910769707,,,,,,,0.4287,0.921,0.0086,0.0,0.0,0.00883,0.0,12.0,0.036,,,,,,201.092602,FAIL,vel error exceeded
14,s03_vel_pi_disturbance,g000001_c4,1,,,,,,0.15,0.07395913827669064,0.1,,,,,,,0.4304,0.9163,0.0083,0.0,0.0,0.00905,0.0,12.0,0.036,,,,,,200.981998,FAIL,vel error exceeded
15,s03_vel_pi_disturbance,g000001_c5,1,,,,,,0.07585671593013664,0.01,0.1,,,,,,,0.3323,0.7022,0.0093,0.0,0.0,0.008759,0.0,12.0,0.036,,,,,,201.255825,FAIL,vel error exceeded
16,s03_vel_pi_disturbance,g000001_c6,1,,,,,,0.0639104133596123,0.01,0.1,,,,,,,0.3126,0.6786,0.0091,0.0,0.0,0.008656,0.0,12.0,0.036,,,,,,201.330655,FAIL,vel error exceeded
17,s03_vel_pi_disturbance,g000001_c7,1,,,,,,0.049999999999999996,0.01,0.8771822266761959,,,,,,,0.2969,0.6595,0.0089,0.0,0.0,0.008693,0.0,12.0,0.036,,,,,,201.333188,FAIL,vel error exceeded
18,s03_vel_pi_disturbance,g000002_c0,2,,,,,,0.15,0.1,1.2,,,,,,,0.4205,0.893,0.0082,0.0,0.0,0.009087,0.0,12.0,0.036,,,,,,200.98929,FAIL,vel error exceeded
19,s03_vel_pi_disturbance,g000002_c1,2,,,,,,0.05399304202937459,0.06151722050503178,1.2,,,,,,,0.3022,0.6742,0.0088,0.0,0.0,0.008613,0.0,12.0,0.036,,,,,,201.37705,FAIL,vel error exceeded
20,s03_vel_pi_disturbance,g000002_c2,2,,,,,,0.15,0.1,0.2761144783587638,,,,,,,0.4236,0.905,0.008,0.0,0.0,0.009055,0.0,12.0,0.036,,,,,,200.985128,FAIL,vel error exceeded
21,s03_vel_pi_disturbance,g000002_c3,2,,,,,,0.15,0.01,0.3323925812521545,,,,,,,0.4262,0.9136,0.0081,0.0,0.0,0.008994,0.0,12.0,0.036,,,,,,201.003465,FAIL,vel error exceeded
22,s03_vel_pi_disturbance,g000002_c4,2,,,,,,0.049999999999999996,0.035004258120085674,0.5555499482341959,,,,,,,0.2947,0.66,0.0087,0.0,0.0,0.008625,0.0,12.0,0.036,,,,,,201.389508,FAIL,vel error exceeded
23,s03_vel_pi_disturbance,g000002_c5,2,,,,,,0.051338348512690424,0.1,0.5405539309578434,,,,,,,0.298,0.661,0.0088,0.0,0.0,0.008726,0.0,12.0,0.036,,,,,,201.322975,FAIL,vel error exceeded
24,s03_vel_pi_disturbance,g000002_c6,2,,,,,,0.049999999999999996,0.06670419587069436,0.8841987629531487,,,,,,,0.2951,0.6596,0.0087,0.0,0.0,0.008687,0.0,12.0,0.036,,,,,,201.345207,FAIL,vel error exceeded
25,s03_vel_pi_disturbance,g000002_c7,2,,,,,,0.049999999999999996,0.1,0.19504728020419584,,,,,,,0.2972,0.6621,0.0089,0.0,0.0,0.008663,0.0,12.0,0.036,,,,,,201.35888,FAIL,vel error exceeded
26,s03_vel_pi_disturbance,g000003_c0,3,,,,,,0.15,0.019865254704347853,1.2,,,,,,,0.4242,0.9043,0.0082,0.0,0.0,0.009008,0.0,12.0,0.036,,,,,,201.013207,FAIL,vel error exceeded
27,s03_vel_pi_disturbance,g000003_c1,3,,,,,,0.049999999999999996,0.01,1.2,,,,,,,0.2963,0.6619,0.0088,0.0,0.0,0.008645,0.0,12.0,0.036,,,,,,201.37269,FAIL,vel error exceeded
28,s03_vel_pi_disturbance,g000003_c2,3,,,,,,0.06052049823139124,0.01,0.17460863194900228,,,,,,,0.3135,0.688,0.009,0.0,0.0,0.008677,0.0,12.0,0.036,,,,,,201.309847,FAIL,vel error exceeded
29,s03_vel_pi_disturbance,g000003_c3,3,,,,,,0.15,0.01,1.2,,,,,,,0.4259,0.9108,0.0082,0.0,0.0,0.008995,0.0,12.0,0.036,,,,,,201.009848,FAIL,vel error exceeded
30,s03_vel_pi_disturbance,g000003_c4,3,,,,,,0.049999999999999996,0.1,0.1,,,,,,,0.2986,0.6686,0.0087,0.0,0.0,0.008615,0.0,12.0,0.036,,,,,,201.388485,FAIL,vel error exceeded
31,s03_vel_pi_disturbance,g000003_c5,3,,,,,,0.1266894857420943,0.01,0.13706974964541804,,,,,,,0.3973,0.8416,0.0082,0.0,0.0,0.009034,0.0,12.0,0.036,,,,,,201.033787,FAIL,vel error exceeded
32,s03_vel_pi_disturbance,g000003_c6,3,,,,,,0.0887344283813671,0.09208769508223015,1.2,,,,,,,0.3494,0.7347,0.0088,0.0,0.0,0.008943,0.0,12.0,0.036,,,,,,201.172708,FAIL,vel error exceeded
33,s03_vel_pi_disturbance,g000003_c7,3,,,,,,0.049999999999999996,0.01,0.1,,,,,,,0.2935,0.6569,0.0088,0.0,0.0,0.008601,0.0,12.0,0.036,,,,,,201.404793,FAIL,vel error exceeded
34,s03_vel_pi_disturbance,g000004_c0,4,,,,,,0.049999999999999996,0.01,0.1,,,,,,,0.2974,0.661,0.0086,0.0,0.0,0.008768,0.0,12.0,0.036,,,,,,201.29841,FAIL,vel error exceeded
35,s03_vel_pi_disturbance,g000004_c1,4,,,,,,0.049999999999999996,0.01,0.31453190456503416,,,,,,,0.2936,0.6527,0.0087,0.0,0.0,0.008708,0.0,12.0,0.036,,,,,,201.337187,FAIL,vel error exceeded
36,s03_vel_pi_disturbance,g000004_c2,4,,,,,,0.08080509251738148,0.01,1.2,,,,,,,0.3366,0.7119,0.0091,0.0,0.0,0.008778,0.0,12.0,0.036,,,,,,201.241275,FAIL,vel error exceeded
37,s03_vel_pi_disturbance,g000004_c3,4,,,,,,0.049999999999999996,0.1,1.2,,,,,,,0.3013,0.6627,0.0091,0.0,0.0,0.008787,0.0,12.0,0.036,,,,,,201.278228,FAIL,vel error exceeded
38,s03_vel_pi_disturbance,g000004_c4,4,,,,,,0.06332732690195737,0.013415085928825383,1.2,,,,,,,0.3091,0.6742,0.009,0.0,0.0,0.008683,0.0,12.0,0.036,,,,,,201.329743,FAIL,vel error exceeded
39,s03_vel_pi_disturbance,g000004_c5,4,,,,,,0.06338757648198401,0.01,1.2,,,,,,,0.3136,0.6781,0.0091,0.0,0.0,0.008755,0.0,12.0,0.036,,,,,,201.278022,FAIL,vel error exceeded
40,s03_vel_pi_disturbance,g000004_c6,4,,,,,,0.049999999999999996,0.03134439750173029,0.2479009225583152,,,,,,,0.2974,0.6671,0.0088,0.0,0.0,0.008595,0.0,12.0,0.036,,,,,,201.39743,FAIL,vel error exceeded
41,s03_vel_pi_disturbance,g000004_c7,4,,,,,,0.049999999999999996,0.012053005285981725,0.1,,,,,,,0.2976,0.6602,0.0089,0.0,0.0,0.008695,0.0,12.0,0.036,,,,,,201.33249,FAIL,vel error exceeded
42,s03_vel_pi_disturbance,g000005_c0,5,,,,,,0.049999999999999996,0.01,0.1,,,,,,,0.2973,0.661,0.0087,0.0,0.0,0.008747,0.0,12.0,0.036,,,,,,201.315022,FAIL,vel error exceeded
43,s03_vel_pi_disturbance,g000005_c1,5,,,,,,0.049999999999999996,0.01,1.2,,,,,,,0.298,0.6604,0.0087,0.0,0.0,0.00877,0.0,12.0,0.036,,,,,,201.298755,FAIL,vel error exceeded
44,s03_vel_pi_disturbance,g000005_c2,5,,,,,,0.12918178357657215,0.051958025373614235,1.2,,,,,,,0.4003,0.8446,0.008,0.0,0.0,0.009118,0.0,12.0,0.036,,,,,,200.98636,FAIL,vel error exceeded
45,s03_vel_pi_disturbance,g000005_c3,5,,,,,,0.15,0.01,1.2,,,,,,,0.4189,0.8927,0.0081,0.0,0.0,0.009031,0.0,12.0,0.036,,,,,,201.018235,FAIL,vel error exceeded
46,s03_vel_pi_disturbance,g000005_c4,5,,,,,,0.049999999999999996,0.01,0.1,,,,,,,0.2941,0.6579,0.0088,0.0,0.0,0.00866,0.0,12.0,0.036,,,,,,201.35781,FAIL,vel error exceeded
47,s03_vel_pi_disturbance,g000005_c5,5,,,,,,0.049999999999999996,0.014731175241166296,0.1,,,,,,,0.2924,0.6448,0.0089,0.0,0.0,0.008701,0.0,12.0,0.036,,,,,,201.342745,FAIL,vel error exceeded
48,s03_vel_pi_disturbance,g000005_c6,5,,,,,,0.049999999999999996,0.01,0.38626409111075666,,,,,,,0.2967,0.6618,0.0087,0.0,0.0,0.008706,0.0,12.0,0.036,,,,,,201.32536,FAIL,vel error exceeded
49,s03_vel_pi_disturbance,g000005_c7,5,,,,,,0.15,0.01,0.1,,,,,,,0.4227,0.9011,0.0081,0.0,0.0,0.009062,0.0,12.0,0.036,,,,,,200.990875,FAIL,vel error exceeded
50,s03_vel_pi_disturbance,g000006_c0,6,,,,,,0.15,0.019422601594118204,1.2,,,,,,,0.4152,0.8808,0.0078,0.0,0.0,0.009217,0.0,12.0,0.036,,,,,,200.935445,FAIL,vel error exceeded
51,s03_vel_pi_disturbance,g000006_c1,6,,,,,,0.15,0.01,0.1,,,,,,,0.428,0.9095,0.0083,0.0,0.0,0.009067,0.0,12.0,0.036,,,,,,200.976385,FAIL,vel error exceeded
52,s03_vel_pi_disturbance,g000006_c2,6,,,,,,0.15,0.1,0.1347196287324156,,,,,,,0.4298,0.9153,0.0084,0.0,0.0,0.008981,0.0,12.0,0.036,,,,,,201.01918,FAIL,vel error exceeded
53,s03_vel_pi_disturbance,g000006_c3,6,,,,,,0.049999999999999996,0.1,0.1798736789278243,,,,,,,0.2985,0.6715,0.0087,0.0,0.0,0.008608,0.0,12.0,0.036,,,,,,201.385093,FAIL,vel error exceeded
54,s03_vel_pi_disturbance,g000006_c4,6,,,,,,0.15,0.1,0.9060071034493663,,,,,,,0.4301,0.9201,0.0082,0.0,0.0,0.009054,0.0,12.0,0.036,,,,,,200.978553,FAIL,vel error exceeded
55,s03_vel_pi_disturbance,g000006_c5,6,,,,,,0.06772200627499192,0.1,0.10604574366956929,,,,,,,0.3244,0.6929,0.0094,0.0,0.0,0.008715,0.0,12.0,0.036,,,,,,201.286012,FAIL,vel error exceeded
56,s03_vel_pi_disturbance,g000006_c6,6,,,,,,0.049999999999999996,0.025308945997769703,1.2,,,,,,,0.2973,0.6581,0.0091,0.0,0.0,0.008665,0.0,12.0,0.036,,,,,,201.347708,FAIL,vel error exceeded
57,s03_vel_pi_disturbance,g000006_c7,6,,,,,,0.15,0.01,0.32263134781658626,,,,,,,0.4274,0.9138,0.0083,0.0,0.0,0.008943,0.0,12.0,0.036,,,,,,201.035487,FAIL,vel error exceeded
58,s03_vel_pi_disturbance,g000007_c0,7,,,,,,0.15,0.03873879080374539,0.7424434900088015,,,,,,,0.4221,0.8949,0.0082,0.0,0.0,0.009088,0.0,12.0,0.036,,,,,,200.98955,FAIL,vel error exceeded
59,s03_vel_pi_disturbance,g000007_c1,7,,,,,,0.049999999999999996,0.1,0.757097602735379,,,,,,,0.2992,0.6685,0.0088,0.0,0.0,0.008643,0.0,12.0,0.036,,,,,,201.36023,FAIL,vel error exceeded
60,s03_vel_pi_disturbance,g000007_c2,7,,,,,,0.15,0.01,0.1,,,,,,,0.423,0.9011,0.008,0.0,0.0,0.009088,0.0,12.0,0.036,,,,,,200.972782,FAIL,vel error exceeded
61,s03_vel_pi_disturbance,g000007_c3,7,,,,,,0.049999999999999996,0.01,0.7407897491325265,,,,,,,0.2932,0.6551,0.0087,0.0,0.0,0.008682,0.0,12.0,0.036,,,,,,201.352763,FAIL,vel error exceeded
62,s03_vel_pi_disturbance,g000007_c4,7,,,,,,0.15,0.01,1.2,,,,,,,0.418,0.892,0.0077,0.0,0.0,0.009164,0.0,12.0,0.036,,,,,,200.9426,FAIL,vel error exceeded
63,s03_vel_pi_disturbance,g000007_c5,7,,,,,,0.15,0.0710168309163724,0.19444640714299194,,,,,,,0.4218,0.8963,0.0081,0.0,0.0,0.009122,0.0,12.0,0.036,,,,,,200.96342,FAIL,vel error exceeded
64,s03_vel_pi_disturbance,g000007_c6,7,,,,,,0.07440963346346488,0.1,0.39025904967695785,,,,,,,0.3218,0.6859,0.0091,0.0,0.0,0.008748,0.0,12.0,0.036,,,,,,201.285615,FAIL,vel error exceeded
65,s03_vel_pi_disturbance,g000007_c7,7,,,,,,0.15,0.02678667244962645,0.553391296671103,,,,,,,0.4188,0.8919,0.008,0.0,0.0,0.009073,0.0,12.0,0.036,,,,,,200.989802,FAIL,vel error exceeded
66,s03_vel_pi_disturbance,g000008_c0,8,,,,,,0.15,0.01,1.0101545559518208,,,,,,,0.428,0.916,0.0082,0.0,0.0,0.008982,0.0,12.0,0.036,,,,,,201.00877,FAIL,vel error exceeded
67,s03_vel_pi_disturbance,g000008_c1,8,,,,,,0.15,0.01,0.9820985852902923,,,,,,,0.4255,0.904,0.0082,0.0,0.0,0.009126,0.0,12.0,0.036,,,,,,200.96108,FAIL,vel error exceeded
68,s03_vel_pi_disturbance,g000008_c2,8,,,,,,0.15,0.03937640407111945,1.2,,,,,,,0.4238,0.8994,0.008,0.0,0.0,0.009125,0.0,12.0,0.036,,,,,,200.95153,FAIL,vel error exceeded
69,s03_vel_pi_disturbance,g000008_c3,8,,,,,,0.1251644978163968,0.1,0.1,,,,,,,0.4077,0.8613,0.0083,0.0,0.0,0.009072,0.0,12.0,0.036,,,,,,200.989947,FAIL,vel error exceeded
70,s03_vel_pi_disturbance,g000008_c4,8,,,,,,0.049999999999999996,0.038550974026499166,0.1,,,,,,,0.295,0.6607,0.0086,0.0,0.0,0.008657,0.0,12.0,0.036,,,,,,201.370565,FAIL,vel error exceeded
71,s03_vel_pi_disturbance,g000008_c5,8,,,,,,0.049999999999999996,0.1,1.2,,,,,,,0.2948,0.6565,0.0089,0.0,0.0,0.008655,0.0,12.0,0.036,,,,,,201.359987,FAIL,vel error exceeded
72,s03_vel_pi_disturbance,g000008_c6,8,,,,,,0.15,0.07933400791453908,1.2,,,,,,,0.4179,0.8959,0.0083,0.0,0.0,0.008923,0.0,12.0,0.036,,,,,,201.065745,FAIL,vel error exceeded
73,s03_vel_pi_disturbance,g000008_c7,8,,,,,,0.07226522188559255,0.01,0.1293443125264619,,,,,,,0.3228,0.687,0.0091,0.0,0.0,0.008772,0.0,12.0,0.036,,,,,,201.259547,FAIL,vel error exceeded
74,s03_vel_pi_disturbance,g000009_c0,9,,,,,,0.15,0.05217240541503638,1.2,,,,,,,0.4204,0.8924,0.0082,0.0,0.0,0.00903,0.0,12.0,0.036,,,,,,201.020215,FAIL,vel error exceeded
75,s03_vel_pi_disturbance,g000009_c1,9,,,,,,0.15,0.1,0.10110497330547456,,,,,,,0.4171,0.8844,0.0079,0.0,0.0,0.009174,0.0,12.0,0.036,,,,,,200.95243,FAIL,vel error exceeded
76,s03_vel_pi_disturbance,g000009_c2,9,,,,,,0.049999999999999996,0.01,0.3325142971926953,,,,,,,0.2968,0.657,0.0087,0.0,0.0,0.008765,0.0,12.0,0.036,,,,,,201.29962,FAIL,vel error exceeded
77,s03_vel_pi_disturbance,g000009_c3,9,,,,,,0.049999999999999996,0.06763943509266424,0.14019587720983326,,,,,,,0.2965,0.6604,0.0089,0.0,0.0,0.008674,0.0,12.0,0.036,,,,,,201.354915,FAIL,vel error exceeded
78,s03_vel_pi_disturbance,g000009_c4,9,,,,,,0.049999999999999996,0.05985064996323392,0.9326262989067714,,,,,,,0.295,0.66,0.0088,0.0,0.0,0.008618,0.0,12.0,0.036,,,,,,201.38535,FAIL,vel error exceeded
79,s03_vel_pi_disturbance,g000009_c5,9,,,,,,0.13824905384371458,0.012969484283947693,1.2,,,,,,,0.4203,0.8949,0.0082,0.0,0.0,0.009001,0.0,12.0,0.036,,,,,,201.013258,FAIL,vel error exceeded
80,s03_vel_pi_disturbance,g000009_c6,9,,,,,,0.15,0.01,0.1,,,,,,,0.4246,0.9025,0.0081,0.0,0.0,0.009096,0.0,12.0,0.036,,,,,,200.96889,FAIL,vel error exceeded
81,s03_vel_pi_disturbance,g000009_c7,9,,,,,,0.12939357753235586,0.01,0.16662030670302244,,,,,,,0.4063,0.8594,0.0083,0.0,0.0,0.009016,0.0,12.0,0.036,,,,,,201.026995,FAIL,vel error exceeded
82,s03_vel_pi_disturbance,g000010_c0,10,,,,,,0.049999999999999996,0.03276947827345341,0.1,,,,,,,0.296,0.6602,0.0088,0.0,0.0,0.008668,0.0,12.0,0.036,,,,,,201.352335,FAIL,vel error exceeded
83,s03_vel_pi_disturbance,g000010_c1,10,,,,,,0.049999999999999996,0.01637009577737589,1.2,,,,,,,0.2997,0.6639,0.009,0.0,0.0,0.008696,0.0,12.0,0.036,,,,,,201.328638,FAIL,vel error exceeded
84,s03_vel_pi_disturbance,g000010_c2,10,,,,,,0.049999999999999996,0.01,1.2,,,,,,,0.2956,0.6571,0.0089,0.0,0.0,0.008673,0.0,12.0,0.036,,,,,,201.35048,FAIL,vel error exceeded
85,s03_vel_pi_disturbance,g000010_c3,10,,,,,,0.049999999999999996,0.1,0.1,,,,,,,0.2943,0.6593,0.0086,0.0,0.0,0.008665,0.0,12.0,0.036,,,,,,201.35549,FAIL,vel error exceeded
86,s03_vel_pi_disturbance,g000010_c4,10,,,,,,0.049999999999999996,0.01,0.704438434779313,,,,,,,0.2966,0.6654,0.0087,0.0,0.0,0.008634,0.0,12.0,0.036,,,,,,201.385825,FAIL,vel error exceeded
87,s03_vel_pi_disturbance,g000010_c5,10,,,,,,0.049999999999999996,0.1,0.18768415958921794,,,,,,,0.2977,0.6677,0.0088,0.0,0.0,0.008654,0.0,12.0,0.036,,,,,,201.354557,FAIL,vel error exceeded
88,s03_vel_pi_disturbance,g000010_c6,10,,,,,,0.049999999999999996,0.02242062826090399,0.1,,,,,,,0.2964,0.6633,0.0089,0.0,0.0,0.008589,0.0,12.0,0.036,,,,,,201.407502,FAIL,vel error exceeded
89,s03_vel_pi_disturbance,g000010_c7,10,,,,,,0.15,0.01,0.31779028590108055,,,,,,,0.4289,0.9195,0.0081,0.0,0.0,0.008998,0.0,12.0,0.036,,,,,,200.997862,FAIL,vel error exceeded
90,s03_vel_pi_disturbance,g000011_c0,11,,,,,,0.15,0.08771578741925445,0.20306518993886621,,,,,,,0.4226,0.8904,0.008,0.0,0.0,0.009292,0.0,12.0,0.036,,,,,,200.889515,FAIL,vel error exceeded
91,s03_vel_pi_disturbance,g000011_c1,11,,,,,,0.049999999999999996,0.01109085190553052,0.1,,,,,,,0.2963,0.6583,0.009,0.0,0.0,0.008666,0.0,12.0,0.036,,,,,,201.352123,FAIL,vel error exceeded
92,s03_vel_pi_disturbance,g000011_c2,11,,,,,,0.15,0.04389597194417374,1.2,,,,,,,0.4207,0.9001,0.0083,0.0,0.0,0.008952,0.0,12.0,0.036,,,,,,201.049405,FAIL,vel error exceeded
93,s03_vel_pi_disturbance,g000011_c3,11,,,,,,0.15,0.0245265790591616,0.19981150876949053,,,,,,,0.4204,0.8994,0.0083,0.0,0.0,0.008948,0.0,12.0,0.036,,,,,,201.049948,FAIL,vel error exceeded
94,s03_vel_pi_disturbance,g000011_c4,11,,,,,,0.049999999999999996,0.014655879390656943,1.2,,,,,,,0.2938,0.6575,0.0087,0.0,0.0,0.008629,0.0,12.0,0.036,,,,,,201.387288,FAIL,vel error exceeded
95,s03_vel_pi_disturbance,g000011_c5,11,,,,,,0.06406043096416635,0.014693532978776982,0.6071844426416948,,,,,,,0.3112,0.6761,0.009,0.0,0.0,0.008719,0.0,12.0,0.036,,,,,,201.293948,FAIL,vel error exceeded
96,s03_vel_pi_disturbance,g000011_c6,11,,,,,,0.15,0.1,1.2,,,,,,,0.4186,0.8927,0.0081,0.0,0.0,0.009005,0.0,12.0,0.036,,,,,,201.028503,FAIL,vel error exceeded
97,s03_vel_pi_disturbance,g000011_c7,11,,,,,,0.049999999999999996,0.01,0.33937737323080647,,,,,,,0.2931,0.6498,0.0088,0.0,0.0,0.008717,0.0,12.0,0.036,,,,,,201.33617,FAIL,vel error exceeded
98,s03_vel_pi_disturbance,g000012_c0,12,,,,,,0.15,0.010475151948463563,0.5667346205140062,,,,,,,0.4274,0.9091,0.0083,0.0,0.0,0.00902,0.0,12.0,0.036,,,,,,201.00176,FAIL,vel error exceeded
99,s03_vel_pi_disturbance,g000012_c1,12,,,,,,0.056038942817137,0.01,1.2,,,,,,,0.3036,0.6682,0.0088,0.0,0.0,0.008726,0.0,12.0,0.036,,,,,,201.31138,FAIL,vel error exceeded
100,s03_vel_pi_disturbance,g000012_c2,12,,,,,,0.15,0.01,0.3956710200120108,,,,,,,0.4196,0.8937,0.0082,0.0,0.0,0.009006,0.0,12.0,0.036,,,,,,201.019735,FAIL,vel error exceeded
101,s03_vel_pi_disturbance,g000012_c3,12,,,,,,0.15,0.04815526374498761,0.1,,,,,,,0.4219,0.9001,0.0081,0.0,0.0,0.009033,0.0,12.0,0.036,,,,,,201.001015,FAIL,vel error exceeded
102,s03_vel_pi_disturbance,g000012_c4,12,,,,,,0.1319815544468916,0.012658034918738154,0.3118816182119766,,,,,,,0.4129,0.8813,0.0084,0.0,0.0,0.008942,0.0,12.0,0.036,,,,,,201.038823,FAIL,vel error exceeded
103,s03_vel_pi_disturbance,g000012_c5,12,,,,,,0.15,0.011969845819718552,0.22542815949004946,,,,,,,0.4304,0.914,0.0085,0.0,0.0,0.009023,0.0,12.0,0.036,,,,,,201.00259,FAIL,vel error exceeded
104,s03_vel_pi_disturbance,g000012_c6,12,,,,,,0.15,0.01,1.2,,,,,,,0.4203,0.8963,0.0081,0.0,0.0,0.008995,0.0,12.0,0.036,,,,,,201.021635,FAIL,vel error exceeded
105,s03_vel_pi_disturbance,g000012_c7,12,,,,,,0.0809976338421687,0.01963421691968042,0.1,,,,,,,0.3339,0.7061,0.009,0.0,0.0,0.008799,0.0,12.0,0.036,,,,,,201.24388,FAIL,vel error exceeded
106,s03_vel_pi_disturbance,g000013_c0,13,,,,,,0.15,0.053598466852402965,0.18044458557476772,,,,,,,0.43,0.9196,0.0082,0.0,0.0,0.008964,0.0,12.0,0.036,,,,,,201.017065,FAIL,vel error exceeded
107,s03_vel_pi_disturbance,g000013_c1,13,,,,,,0.0660694616769348,0.015880772161345254,0.11433795876753712,,,,,,,0.3125,0.6724,0.009,0.0,0.0,0.008752,0.0,12.0,0.036,,,,,,201.282585,FAIL,vel error exceeded
108,s03_vel_pi_disturbance,g000013_c2,13,,,,,,0.05732950609138135,0.07194869113954055,0.1,,,,,,,0.3088,0.6769,0.009,0.0,0.0,0.008709,0.0,12.0,0.036,,,,,,201.30856,FAIL,vel error exceeded
109,s03_vel_pi_disturbance,g000013_c3,13,,,,,,0.07782559492426054,0.03770887507134366,0.3497814294947624,,,,,,,0.3285,0.6961,0.0089,0.0,0.0,0.008871,0.0,12.0,0.036,,,,,,201.223848,FAIL,vel error exceeded
110,s03_vel_pi_disturbance,g000013_c4,13,,,,,,0.049999999999999996,0.03399705618617725,0.7221673539006267,,,,,,,0.2971,0.6615,0.0088,0.0,0.0,0.00872,0.0,12.0,0.036,,,,,,201.326233,FAIL,vel error exceeded
111,s03_vel_pi_disturbance,g000013_c5,13,,,,,,0.15,0.01,0.1090482819819767,,,,,,,0.4299,0.9198,0.0083,0.0,0.0,0.008972,0.0,12.0,0.036,,,,,,201.016048,FAIL,vel error exceeded
112,s03_vel_pi_disturbance,g000013_c6,13,,,,,,0.15,0.05467810327963319,0.27339931161521397,,,,,,,0.4311,0.9203,0.0084,0.0,0.0,0.009006,0.0,12.0,0.036,,,,,,201.00549,FAIL,vel error exceeded
113,s03_vel_pi_disturbance,g000013_c7,13,,,,,,0.09744348646233483,0.01,0.7860521799184875,,,,,,,0.3595,0.7549,0.0088,0.0,0.0,0.008935,0.0,12.0,0.036,,,,,,201.15952,FAIL,vel error exceeded
114,s03_vel_pi_disturbance,g000014_c0,14,,,,,,0.049999999999999996,0.01,0.193703328335961,,,,,,,0.2926,0.6464,0.0089,0.0,0.0,0.008705,0.0,12.0,0.036,,,,,,201.346698,FAIL,vel error exceeded
115,s03_vel_pi_disturbance,g000014_c1,14,,,,,,0.049999999999999996,0.01,1.2,,,,,,,0.2963,0.6598,0.0088,0.0,0.0,0.00873,0.0,12.0,0.036,,,,,,201.3176,FAIL,vel error exceeded
116,s03_vel_pi_disturbance,g000014_c2,14,,,,,,0.11129333079109581,0.043394574901638575,0.539102001842759,,,,,,,0.3801,0.7963,0.0085,0.0,0.0,0.009064,0.0,12.0,0.036,,,,,,201.064815,FAIL,vel error exceeded
117,s03_vel_pi_disturbance,g000014_c3,14,,,,,,0.05244001305107203,0.012756562221108195,0.23626062892399072,,,,,,,0.2983,0.6574,0.0089,0.0,0.0,0.008726,0.0,12.0,0.036,,,,,,201.316255,FAIL,vel error exceeded
118,s03_vel_pi_disturbance,g000014_c4,14,,,,,,0.15,0.01,1.0193030637296503,,,,,,,0.4246,0.9095,0.0083,0.0,0.0,0.008915,0.0,12.0,0.036,,,,,,201.05216,FAIL,vel error exceeded
119,s03_vel_pi_disturbance,g000014_c5,14,,,,,,0.049999999999999996,0.033333875652108796,0.182107915140404,,,,,,,0.2965,0.6593,0.0088,0.0,0.0,0.00871,0.0,12.0,0.036,,,,,,201.329757,FAIL,vel error exceeded
120,s03_vel_pi_disturbance,g000014_c6,14,,,,,,0.08031364212972412,0.012676525995419997,0.3405423198379911,,,,,,,0.3332,0.7033,0.0089,0.0,0.0,0.008858,0.0,12.0,0.036,,,,,,201.22968,FAIL,vel error exceeded
121,s03_vel_pi_disturbance,g000014_c7,14,,,,,,0.15,0.03082042113197515,0.10200547516957956,,,,,,,0.4197,0.891,0.0081,0.0,0.0,0.009103,0.0,12.0,0.036,,,,,,200.984117,FAIL,vel error exceeded
122,s03_vel_pi_disturbance,g000015_c0,15,,,,,,0.15,0.01,0.34920317620382807,,,,,,,0.4234,0.8968,0.0081,0.0,0.0,0.009143,0.0,12.0,0.036,,,,,,200.957783,FAIL,vel error exceeded
123,s03_vel_pi_disturbance,g000015_c1,15,,,,,,0.049999999999999996,0.01,0.5625114162828082,,,,,,,0.2969,0.6614,0.0089,0.0,0.0,0.008663,0.0,12.0,0.036,,,,,,201.35086,FAIL,vel error exceeded
124,s03_vel_pi_disturbance,g000015_c2,15,,,,,,0.049999999999999996,0.01,0.23169300496903567,,,,,,,0.2958,0.6639,0.0087,0.0,0.0,0.008584,0.0,12.0,0.036,,,,,,201.400565,FAIL,vel error exceeded
125,s03_vel_pi_disturbance,g000015_c3,15,,,,,,0.15,0.08808287191315971,0.32777298896275114,,,,,,,0.4271,0.9122,0.0083,0.0,0.0,0.008966,0.0,12.0,0.036,,,,,,201.025688,FAIL,vel error exceeded
126,s03_vel_pi_disturbance,g000015_c4,15,,,,,,0.11474283116887185,0.012584143673581932,0.40050160514598726,,,,,,,0.3804,0.7954,0.0085,0.0,0.0,0.008979,0.0,12.0,0.036,,,,,,201.09517,FAIL,vel error exceeded
127,s03_vel_pi_disturbance,g000015_c5,15,,,,,,0.049999999999999996,0.01,0.6343872723687118,,,,,,,0.2934,0.6526,0.0088,0.0,0.0,0.008677,0.0,12.0,0.036,,,,,,201.354457,FAIL,vel error exceeded
128,s03_vel_pi_disturbance,g000015_c6,15,,,,,,0.049999999999999996,0.027309167978649147,0.13825256696825458,,,,,,,0.2951,0.6639,0.0086,0.0,0.0,0.008636,0.0,12.0,0.036,,,,,,201.38632,FAIL,vel error exceeded
129,s03_vel_pi_disturbance,g000015_c7,15,,,,,,0.05350618331126249,0.01,0.3164716316552553,,,,,,,0.3001,0.659,0.009,0.0,0.0,0.008757,0.0,12.0,0.036,,,,,,201.288765,FAIL,vel error exceeded
130,s03_vel_pi_disturbance,g000016_c0,16,,,,,,0.05832350206040651,0.03713191209942215,0.33464776286715825,,,,,,,0.3097,0.6842,0.0089,0.0,0.0,0.008664,0.0,12.0,0.036,,,,,,201.326803,FAIL,vel error exceeded
131,s03_vel_pi_disturbance,g000016_c1,16,,,,,,0.049999999999999996,0.011835606799328316,0.24148645011949585,,,,,,,0.2953,0.6525,0.009,0.0,0.0,0.008682,0.0,12.0,0.036,,,,,,201.34635,FAIL,vel error exceeded
132,s03_vel_pi_disturbance,g000016_c2,16,,,,,,0.09770847524957364,0.010660916546064611,0.375078281484921,,,,,,,0.3606,0.7558,0.0087,0.0,0.0,0.008951,0.0,12.0,0.036,,,,,,201.155777,FAIL,vel error exceeded
133,s03_vel_pi_disturbance,g000016_c3,16,,,,,,0.049999999999999996,0.012290006629113597,0.2733962925529877,,,,,,,0.2963,0.6572,0.009,0.0,0.0,0.008671,0.0,12.0,0.036,,,,,,201.349707,FAIL,vel error exceeded
134,s03_vel_pi_disturbance,g000016_c4,16,,,,,,0.13780976845988888,0.01,0.7861831713264318,,,,,,,0.4127,0.871,0.0078,0.0,0.0,0.009259,0.0,12.0,0.036,,,,,,200.904775,FAIL,vel error exceeded
135,s03_vel_pi_disturbance,g000016_c5,16,,,,,,0.049999999999999996,0.01,0.24764417604725783,,,,,,,0.2956,0.6518,0.0089,0.0,0.0,0.008731,0.0,12.0,0.036,,,,,,201.323007,FAIL,vel error exceeded
136,s03_vel_pi_disturbance,g000016_c6,16,,,,,,0.049999999999999996,0.035420404008855266,1.2,,,,,,,0.2956,0.6631,0.0086,0.0,0.0,0.008632,0.0,12.0,0.036,,,,,,201.38373,FAIL,vel error exceeded
137,s03_vel_pi_disturbance,g000016_c7,16,,,,,,0.049999999999999996,0.01,0.21696076020260358,,,,,,,0.2948,0.657,0.0089,0.0,0.0,0.008665,0.0,12.0,0.036,,,,,,201.355793,FAIL,vel error exceeded
138,s03_vel_pi_disturbance,g000017_c0,17,,,,,,0.09109785538521498,0.014083946323697338,0.7248132861471738,,,,,,,0.3512,0.74,0.009,0.0,0.0,0.008822,0.0,12.0,0.036,,,,,,201.218515,FAIL,vel error exceeded
139,s03_vel_pi_disturbance,g000017_c1,17,,,,,,0.049999999999999996,0.011116473107651906,0.23302501409371615,,,,,,,0.2978,0.6603,0.009,0.0,0.0,0.008678,0.0,12.0,0.036,,,,,,201.348985,FAIL,vel error exceeded
140,s03_vel_pi_disturbance,g000017_c2,17,,,,,,0.10558155793513224,0.018619042035711516,0.3281899266824138,,,,,,,0.3757,0.7864,0.0088,0.0,0.0,0.008932,0.0,12.0,0.036,,,,,,201.11813,FAIL,vel error exceeded
141,s03_vel_pi_disturbance,g000017_c3,17,,,,,,0.0925309682010609,0.018015090286102323,0.13777253465680292,,,,,,,0.3547,0.7467,0.0089,0.0,0.0,0.008918,0.0,12.0,0.036,,,,,,201.173225,FAIL,vel error exceeded
142,s03_vel_pi_disturbance,g000017_c4,17,,,,,,0.07744953387343605,0.01564992627176127,0.30660793586555407,,,,,,,0.3331,0.7045,0.0093,0.0,0.0,0.008766,0.0,12.0,0.036,,,,,,201.25599,FAIL,vel error exceeded
143,s03_vel_pi_disturbance,g000017_c5,17,,,,,,0.12897399082348115,0.013529162955150912,0.24742917959399674,,,,,,,0.4107,0.8695,0.0083,0.0,0.0,0.009048,0.0,12.0,0.036,,,,,,200.996033,FAIL,vel error exceeded
144,s03_vel_pi_disturbance,g000017_c6,17,,,,,,0.15,0.01,0.4527521840336489,,,,,,,0.4163,0.884,0.0079,0.0,0.0,0.009138,0.0,12.0,0.036,,,,,,200.96345,FAIL,vel error exceeded
145,s03_vel_pi_disturbance,g000017_c7,17,,,,,,0.06889653571717327,0.012282245497155016,0.5501769063103401,,,,,,,0.3181,0.6838,0.009,0.0,0.0,0.008793,0.0,12.0,0.036,,,,,,201.25588,FAIL,vel error exceeded
146,s03_vel_pi_disturbance,g000018_c0,18,,,,,,0.06300628489524428,0.013753855237837414,0.4619413966573533,,,,,,,0.3121,0.6786,0.009,0.0,0.0,0.008782,0.0,12.0,0.036,,,,,,201.263348,FAIL,vel error exceeded
147,s03_vel_pi_disturbance,g000018_c1,18,,,,,,0.0729252647940039,0.012648832451208323,0.17694487022995345,,,,,,,0.325,0.6908,0.0091,0.0,0.0,0.008806,0.0,12.0,0.036,,,,,,201.240023,FAIL,vel error exceeded
148,s03_vel_pi_disturbance,g000018_c2,18,,,,,,0.06997525769764486,0.013419050212739052,0.41266990613112525,,,,,,,0.317,0.6813,0.009,0.0,0.0,0.008761,0.0,12.0,0.036,,,,,,201.279545,FAIL,vel error exceeded
149,s03_vel_pi_disturbance,g000018_c3,18,,,,,,0.15,0.02212662109194967,0.28009327345453644,,,,,,,0.422,0.9011,0.008,0.0,0.0,0.009051,0.0,12.0,0.036,,,,,,200.985193,FAIL,vel error exceeded
150,s03_vel_pi_disturbance,g000018_c4,18,,,,,,0.049999999999999996,0.01945878356850872,0.5338254817344394,,,,,,,0.2937,0.6532,0.0088,0.0,0.0,0.008659,0.0,12.0,0.036,,,,,,201.352677,FAIL,vel error exceeded
151,s03_vel_pi_disturbance,g000018_c5,18,,,,,,0.10955002290541867,0.012177311615272905,0.4633299870440178,,,,,,,0.3748,0.7901,0.0087,0.0,0.0,0.008909,0.0,12.0,0.036,,,,,,201.137092,FAIL,vel error exceeded
152,s03_vel_pi_disturbance,g000018_c6,18,,,,,,0.09700386721225948,0.023926408596785444,0.49053907846333933,,,,,,,0.3575,0.7522,0.0088,0.0,0.0,0.008913,0.0,12.0,0.036,,,,,,201.170648,FAIL,vel error exceeded
153,s03_vel_pi_disturbance,g000018_c7,18,,,,,,0.049999999999999996,0.01840651364134876,0.23305358006524626,,,,,,,0.2999,0.66,0.009,0.0,0.0,0.008743,0.0,12.0,0.036,,,,,,201.307208,FAIL,vel error exceeded
154,s03_vel_pi_disturbance,g000019_c0,19,,,,,,0.08436467197433749,0.01014088973553313,0.1661463282827382,,,,,,,0.3362,0.713,0.0092,0.0,0.0,0.008693,0.0,12.0,0.036,,,,,,201.30191,FAIL,vel error exceeded
155,s03_vel_pi_disturbance,g000019_c1,19,,,,,,0.08273017934982667,0.0199704152696352,0.33475312465097534,,,,,,,0.3363,0.7113,0.0089,0.0,0.0,0.008828,0.0,12.0,0.036,,,,,,201.230437,FAIL,vel error exceeded
156,s03_vel_pi_disturbance,g000019_c2,19,,,,,,0.07277278525675016,0.01313162674167059,0.46819909057311193,,,,,,,0.3218,0.6842,0.0091,0.0,0.0,0.008758,0.0,12.0,0.036,,,,,,201.271755,FAIL,vel error exceeded
157,s03_vel_pi_disturbance,g000019_c3,19,,,,,,0.05889899260982406,0.015028536588661798,0.25299988489722025,,,,,,,0.3068,0.6788,0.009,0.0,0.0,0.008592,0.0,12.0,0.036,,,,,,201.379425,FAIL,vel error exceeded
158,s03_vel_pi_disturbance,g000019_c4,19,,,,,,0.07236568890783356,0.013523342392497402,0.5232540188818124,,,,,,,0.3232,0.6897,0.0092,0.0,0.0,0.008744,0.0,12.0,0.036,,,,,,201.277242,FAIL,vel error exceeded
159,s03_vel_pi_disturbance,g000019_c5,19,,,,,,0.10446781276297944,0.012118807141848383,0.38922858746953803,,,,,,,0.3693,0.7731,0.0085,0.0,0.0,0.009036,0.0,12.0,0.036,,,,,,201.092553,FAIL,vel error exceeded
160,s03_vel_pi_disturbance,g000019_c6,19,,,,,,0.1074146360164273,0.01916740701756905,0.4074887193236319,,,,,,,0.3691,0.7751,0.0084,0.0,0.0,0.009006,0.0,12.0,0.036,,,,,,201.108025,FAIL,vel error exceeded
161,s03_vel_pi_disturbance,g000019_c7,19,,,,,,0.09337065968064186,0.011225479035281538,0.43947495114621804,,,,,,,0.3509,0.7407,0.0088,0.0,0.0,0.008899,0.0,12.0,0.036,,,,,,201.196783,FAIL,vel error exceeded
162,s03_vel_pi_disturbance,g000020_c0,20,,,,,,0.049999999999999996,0.018017273335601963,0.2645482471616559,,,,,,,0.2962,0.6619,0.0087,0.0,0.0,0.008627,0.0,12.0,0.036,,,,,,201.377518,FAIL,vel error exceeded
163,s03_vel_pi_disturbance,g000020_c1,20,,,,,,0.06395195302689252,0.013716142080716576,0.40709626338635646,,,,,,,0.3117,0.6749,0.009,0.0,0.0,0.008791,0.0,12.0,0.036,,,,,,201.268825,FAIL,vel error exceeded
164,s03_vel_pi_disturbance,g000020_c2,20,,,,,,0.0913608588111165,0.010086710634834007,0.20901947619895905,,,,,,,0.3501,0.7394,0.009,0.0,0.0,0.008825,0.0,12.0,0.036,,,,,,201.226573,FAIL,vel error exceeded
165,s03_vel_pi_disturbance,g000020_c3,20,,,,,,0.0770476103058184,0.012371566632511242,0.3343061035684708,,,,,,,0.3271,0.6948,0.0091,0.0,0.0,0.008736,0.0,12.0,0.036,,,,,,201.27652,FAIL,vel error exceeded
166,s03_vel_pi_disturbance,g000020_c4,20,,,,,,0.08202125825949319,0.010129218949180781,0.4260410333509209,,,,,,,0.3344,0.7068,0.009,0.0,0.0,0.008797,0.0,12.0,0.036,,,,,,201.252825,FAIL,vel error exceeded
167,s03_vel_pi_disturbance,g000020_c5,20,,,,,,0.08594682634784183,0.015624888258058849,0.34014805269098586,,,,,,,0.3429,0.7221,0.0088,0.0,0.0,0.008919,0.0,12.0,0.036,,,,,,201.182967,FAIL,vel error exceeded
168,s03_vel_pi_disturbance,g000020_c6,20,,,,,,0.07393986171937439,0.013999569946529473,0.3077246020916883,,,,,,,0.3186,0.6814,0.0088,0.0,0.0,0.008844,0.0,12.0,0.036,,,,,,201.238805,FAIL,vel error exceeded
169,s03_vel_pi_disturbance,g000020_c7,20,,,,,,0.09412682432628902,0.019888099634089888,0.30347138056853323,,,,,,,0.3555,0.7489,0.0089,0.0,0.0,0.008853,0.0,12.0,0.036,,,,,,201.20436,FAIL,vel error exceeded
170,s03_vel_pi_disturbance,g000021_c0,21,,,,,,0.0713104617250587,0.013830241358973577,0.3776174761092789,,,,,,,0.319,0.6809,0.0091,0.0,0.0,0.008741,0.0,12.0,0.036,,,,,,201.278842,FAIL,vel error exceeded
171,s03_vel_pi_disturbance,g000021_c1,21,,,,,,0.081138150870401,0.011809071139042051,0.31826185108285326,,,,,,,0.3319,0.7061,0.0092,0.0,0.0,0.008665,0.0,12.0,0.036,,,,,,201.312915,FAIL,vel error exceeded
172,s03_vel_pi_disturbance,g000021_c2,21,,,,,,0.07062206234356035,0.0123038161457246,0.20705006031216178,,,,,,,0.3216,0.6868,0.0092,0.0,0.0,0.008794,0.0,12.0,0.036,,,,,,201.2575,FAIL,vel error exceeded
173,s03_vel_pi_disturbance,g000021_c3,21,,,,,,0.1091276323690335,0.012929875498247779,0.39218053872817604,,,,,,,0.3721,0.7793,0.0083,0.0,0.0,0.009062,0.0,12.0,0.036,,,,,,201.065217,FAIL,vel error exceeded
174,s03_vel_pi_disturbance,g000021_c4,21,,,,,,0.07948597624492312,0.01,0.32738550973756764,,,,,,,0.332,0.7014,0.009,0.0,0.0,0.008842,0.0,12.0,0.036,,,,,,201.230447,FAIL,vel error exceeded
175,s03_vel_pi_disturbance,g000021_c5,21,,,,,,0.08185233677242788,0.010713648749204894,0.4174025610594776,,,,,,,0.3344,0.7083,0.0091,0.0,0.0,0.008763,0.0,12.0,0.036,,,,,,201.262698,FAIL,vel error exceeded
176,s03_vel_pi_disturbance,g000021_c6,21,,,,,,0.13861459943906043,0.011198564087671357,0.5330519231338964,,,,,,,0.4147,0.8758,0.0078,0.0,0.0,0.009232,0.0,12.0,0.036,,,,,,200.909738,FAIL,vel error exceeded
177,s03_vel_pi_disturbance,g000021_c7,21,,,,,,0.06252334218088114,0.01,0.3456702063903412,,,,,,,0.3085,0.672,0.0089,0.0,0.0,0.008722,0.0,12.0,0.036,,,,,,201.31083,FAIL,vel error exceeded
178,s03_vel_pi_disturbance,g000022_c0,22,,,,,,0.06405548929548478,0.016917890866448602,0.4858481825973901,,,,,,,0.3137,0.6746,0.0091,0.0,0.0,0.008768,0.0,12.0,0.036,,,,,,201.2692,FAIL,vel error exceeded
179,s03_vel_pi_disturbance,g000022_c1,22,,,,,,0.07083606050762921,0.015703365633828518,0.34727916210921245,,,,,,,0.3256,0.6963,0.0092,0.0,0.0,0.008807,0.0,12.0,0.036,,,,,,201.230687,FAIL,vel error exceeded
180,s03_vel_pi_disturbance,g000022_c2,22,,,,,,0.08263457226758561,0.013055701864950208,0.3507765923188231,,,,,,,0.3333,0.7066,0.0091,0.0,0.0,0.00875,0.0,12.0,0.036,,,,,,201.27253,FAIL,vel error exceeded
181,s03_vel_pi_disturbance,g000022_c3,22,,,,,,0.06605423635257088,0.012500976237105214,0.3585975739053685,,,,,,,0.3155,0.6853,0.0091,0.0,0.0,0.008716,0.0,12.0,0.036,,,,,,201.296085,FAIL,vel error exceeded
182,s03_vel_pi_disturbance,g000022_c4,22,,,,,,0.08418461422808614,0.012656864295584658,0.2546532230229225,,,,,,,0.3378,0.714,0.0089,0.0,0.0,0.008837,0.0,12.0,0.036,,,,,,201.227395,FAIL,vel error exceeded
183,s03_vel_pi_disturbance,g000022_c5,22,,,,,,0.0976239105830747,0.01,0.4896901130088301,,,,,,,0.3541,0.7446,0.0084,0.0,0.0,0.009026,0.0,12.0,0.036,,,,,,201.127383,FAIL,vel error exceeded
184,s03_vel_pi_disturbance,g000022_c6,22,,,,,,0.06420527880236251,0.010363744437955286,0.29866239617714024,,,,,,,0.3152,0.691,0.009,0.0,0.0,0.008662,0.0,12.0,0.036,,,,,,201.318723,FAIL,vel error exceeded
185,s03_vel_pi_disturbance,g000022_c7,22,,,,,,0.06779868390029262,0.015929513944342277,0.2172912087311376,,,,,,,0.3132,0.673,0.0091,0.0,0.0,0.008662,0.0,12.0,0.036,,,,,,201.329285,FAIL,vel error exceeded
186,s03_vel_pi_disturbance,g000023_c0,23,,,,,,0.07391552013253652,0.012070498095972366,0.28324543259536494,,,,,,,0.3262,0.6921,0.0093,0.0,0.0,0.008701,0.0,12.0,0.036,,,,,,201.293847,FAIL,vel error exceeded
187,s03_vel_pi_disturbance,g000023_c1,23,,,,,,0.07878013517341463,0.012420652965643863,0.4031685463233909,,,,,,,0.3297,0.6994,0.0089,0.0,0.0,0.008833,0.0,12.0,0.036,,,,,,201.229627,FAIL,vel error exceeded
188,s03_vel_pi_disturbance,g000023_c2,23,,,,,,0.06320008116376549,0.011114162605885604,0.40776614934236916,,,,,,,0.3104,0.6759,0.009,0.0,0.0,0.008669,0.0,12.0,0.036,,,,,,201.325597,FAIL,vel error exceeded
189,s03_vel_pi_disturbance,g000023_c3,23,,,,,,0.08635151719917639,0.012094587255137299,0.3068114032625371,,,,,,,0.3408,0.7218,0.009,0.0,0.0,0.008777,0.0,12.0,0.036,,,,,,201.260025,FAIL,vel error exceeded
190,s03_vel_pi_disturbance,g000023_c4,23,,,,,,0.050275609838331764,0.015590834163389397,0.40424014681922965,,,,,,,0.2958,0.659,0.0087,0.0,0.0,0.008712,0.0,12.0,0.036,,,,,,201.333665,FAIL,vel error exceeded
191,s03_vel_pi_disturbance,g000023_c5,23,,,,,,0.09058631988073848,0.013098103002536504,0.35516431889837463,,,,,,,0.3491,0.7377,0.0091,0.0,0.0,0.008772,0.0,12.0,0.036,,,,,,201.24662,FAIL,vel error exceeded
192,s03_vel_pi_disturbance,g000023_c6,23,,,,,,0.07549316912314953,0.012913991837597593,0.32728270267055004,,,,,,,0.328,0.6961,0.0092,0.0,0.0,0.008782,0.0,12.0,0.036,,,,,,201.253627,FAIL,vel error exceeded
193,s03_vel_pi_disturbance,g000023_c7,23,,,,,,0.06218217785229484,0.015300897710793996,0.3385383307444879,,,,,,,0.3162,0.6892,0.0092,0.0,0.0,0.008666,0.0,12.0,0.036,,,,,,201.32249,FAIL,vel error exceeded
194,s03_vel_pi_disturbance,g000024_c0,24,,,,,,0.06899138861735328,0.016115430967770072,0.3360806118942821,,,,,,,0.3227,0.6913,0.0092,0.0,0.0,0.00877,0.0,12.0,0.036,,,,,,201.258447,FAIL,vel error exceeded
195,s03_vel_pi_disturbance,g000024_c1,24,,,,,,0.09382954920019393,0.01108637676097123,0.3110195463197966,,,,,,,0.3544,0.7465,0.0089,0.0,0.0,0.008854,0.0,12.0,0.036,,,,,,201.201118,FAIL,vel error exceeded
196,s03_vel_pi_disturbance,g000024_c2,24,,,,,,0.06686064055044848,0.01473528314112603,0.3404899830828304,,,,,,,0.3168,0.6845,0.0092,0.0,0.0,0.008714,0.0,12.0,0.036,,,,,,201.29159,FAIL,vel error exceeded
197,s03_vel_pi_disturbance,g000024_c3,24,,,,,,0.09339896814802845,0.01155878421752881,0.35604407032807833,,,,,,,0.3568,0.7485,0.009,0.0,0.0,0.008886,0.0,12.0,0.036,,,,,,201.187365,FAIL,vel error exceeded
198,s03_vel_pi_disturbance,g000024_c4,24,,,,,,0.060607468392245074,0.011124146031248082,0.3531555936129166,,,,,,,0.3078,0.6742,0.0091,0.0,0.0,0.008656,0.0,12.0,0.036,,,,,,201.337617,FAIL,vel error exceeded
199,s03_vel_pi_disturbance,g000024_c5,24,,,,,,0.07450143582367885,0.011701459798511863,0.3245791435255218,,,,,,,0.3229,0.6872,0.0092,0.0,0.0,0.008699,0.0,12.0,0.036,,,,,,201.297503,FAIL,vel error exceeded
200,s03_vel_pi_disturbance,g000024_c6,24,,,,,,0.076670290420246,0.01133906542116352,0.3807810307675449,,,,,,,0.3295,0.6958,0.009,0.0,0.0,0.008843,0.0,12.0,0.036,,,,,,201.224052,FAIL,vel error exceeded
201,s03_vel_pi_disturbance,g000024_c7,24,,,,,,0.07993398154978171,0.012148162894765262,0.3481964964404393,,,,,,,0.3326,0.705,0.0091,0.0,0.0,0.008772,0.0,12.0,0.036,,,,,,201.269248,FAIL,vel error exceeded
202,s03_vel_pi_disturbance,g000025_c0,25,,,,,,0.06873201639788874,0.012872478669229687,0.30738418573289505,,,,,,,0.3161,0.6786,0.0091,0.0,0.0,0.008723,0.0,12.0,0.036,,,,,,201.293547,FAIL,vel error exceeded
203,s03_vel_pi_disturbance,g000025_c1,25,,,,,,0.07326878017622493,0.01135597585060212,0.39886446424375244,,,,,,,0.3223,0.6878,0.0092,0.0,0.0,0.008713,0.0,12.0,0.036,,,,,,201.298372,FAIL,vel error exceeded
204,s03_vel_pi_disturbance,g000025_c2,25,,,,,,0.07579267662896738,0.01641106336393087,0.2839728375483359,,,,,,,0.3224,0.6853,0.0088,0.0,0.0,0.00889,0.0,12.0,0.036,,,,,,201.21939,FAIL,vel error exceeded
205,s03_vel_pi_disturbance,g000025_c3,25,,,,,,0.07281379086856184,0.012074336688721002,0.3503207599334234,,,,,,,0.3182,0.6785,0.0089,0.0,0.0,0.008824,0.0,12.0,0.036,,,,,,201.24618,FAIL,vel error exceeded
206,s03_vel_pi_disturbance,g000025_c4,25,,,,,,0.08385578237031086,0.015724296842375817,0.3239098364709252,,,,,,,0.335,0.7112,0.0091,0.0,0.0,0.008761,0.0,12.0,0.036,,,,,,201.272552,FAIL,vel error exceeded
207,s03_vel_pi_disturbance,g000025_c5,25,,,,,,0.07934043314086696,0.01491859757909151,0.3330746072115834,,,,,,,0.3318,0.703,0.0089,0.0,0.0,0.00887,0.0,12.0,0.036,,,,,,201.217563,FAIL,vel error exceeded
208,s03_vel_pi_disturbance,g000025_c6,25,,,,,,0.06708182291250779,0.013280263716071395,0.3613398251473267,,,,,,,0.3127,0.6766,0.0091,0.0,0.0,0.008685,0.0,12.0,0.036,,,,,,201.321147,FAIL,vel error exceeded
209,s03_vel_pi_disturbance,g000025_c7,25,,,,,,0.07688853660306882,0.012537296561077821,0.3457100957130042,,,,,,,0.3263,0.6928,0.0089,0.0,0.0,0.008832,0.0,12.0,0.036,,,,,,201.245452,FAIL,vel error exceeded
210,s03_vel_pi_disturbance,g000026_c0,26,,,,,,0.07428702446482932,0.011082414703891258,0.39674973954297227,,,,,,,0.3264,0.6908,0.0091,0.0,0.0,0.008809,0.0,12.0,0.036,,,,,,201.247533,FAIL,vel error exceeded
211,s03_vel_pi_disturbance,g000026_c1,26,,,,,,0.07755781497485498,0.015368033679512514,0.3228164706879961,,,,,,,0.3308,0.6982,0.0089,0.0,0.0,0.008898,0.0,12.0,0.036,,,,,,201.20549,FAIL,vel error exceeded
212,s03_vel_pi_disturbance,g000026_c2,26,,,,,,0.07394141414069687,0.012606116604016752,0.36520471219061124,,,,,,,0.3208,0.6827,0.009,0.0,0.0,0.008798,0.0,12.0,0.036,,,,,,201.265565,FAIL,vel error exceeded
213,s03_vel_pi_disturbance,g000026_c3,26,,,,,,0.08337239085415223,0.013416568292135108,0.34065126041486066,,,,,,,0.3399,0.7188,0.0092,0.0,0.0,0.00875,0.0,12.0,0.036,,,,,,201.25802,FAIL,vel error exceeded
214,s03_vel_pi_disturbance,g000026_c4,26,,,,,,0.08042111582225596,0.013222300605486332,0.346453901535448,,,,,,,0.3316,0.704,0.0091,0.0,0.0,0.008701,0.0,12.0,0.036,,,,,,201.301367,FAIL,vel error exceeded
215,s03_vel_pi_disturbance,g000026_c5,26,,,,,,0.06586891148881045,0.013104855735005591,0.36726685094359834,,,,,,,0.3163,0.6821,0.0093,0.0,0.0,0.008646,0.0,12.0,0.036,,,,,,201.327127,FAIL,vel error exceeded
216,s03_vel_pi_disturbance,g000026_c6,26,,,,,,0.07663280839022876,0.014009027709785269,0.35315316846557054,,,,,,,0.3266,0.6941,0.0091,0.0,0.0,0.008744,0.0,12.0,0.036,,,,,,201.278343,FAIL,vel error exceeded
217,s03_vel_pi_disturbance,g000026_c7,26,,,,,,0.08037013651571659,0.012343732443623301,0.3278092863554881,,,,,,,0.3294,0.6993,0.009,0.0,0.0,0.008752,0.0,12.0,0.036,,,,,,201.281383,FAIL,vel error exceeded
218,s03_vel_pi_disturbance,g000027_c0,27,,,,,,0.07356661137434886,0.01392108646297232,0.340130262143337,,,,,,,0.3254,0.6915,0.0093,0.0,0.0,0.008714,0.0,12.0,0.036,,,,,,201.28328,FAIL,vel error exceeded
219,s03_vel_pi_disturbance,g000027_c1,27,,,,,,0.07324956297514404,0.013520705177808129,0.31006717431484776,,,,,,,0.3181,0.6776,0.0091,0.0,0.0,0.008735,0.0,12.0,0.036,,,,,,201.296815,FAIL,vel error exceeded
220,s03_vel_pi_disturbance,g000027_c2,27,,,,,,0.07439673013871376,0.01190594182458675,0.35795167042911474,,,,,,,0.3251,0.6918,0.009,0.0,0.0,0.008855,0.0,12.0,0.036,,,,,,201.223592,FAIL,vel error exceeded
221,s03_vel_pi_disturbance,g000027_c3,27,,,,,,0.07603468648240959,0.01362371559205221,0.3438302344161247,,,,,,,0.3259,0.6928,0.009,0.0,0.0,0.008807,0.0,12.0,0.036,,,,,,201.259457,FAIL,vel error exceeded
222,s03_vel_pi_disturbance,g000027_c4,27,,,,,,0.07672238489708982,0.013291691338131876,0.35159416082731304,,,,,,,0.3228,0.6859,0.0088,0.0,0.0,0.008833,0.0,12.0,0.036,,,,,,201.24118,FAIL,vel error exceeded
223,s03_vel_pi_disturbance,g000027_c5,27,,,,,,0.07546878572756241,0.012825459460401282,0.36920423896895166,,,,,,,0.3292,0.6992,0.0091,0.0,0.0,0.008819,0.0,12.0,0.036,,,,,,201.230672,FAIL,vel error exceeded
224,s03_vel_pi_disturbance,g000027_c6,27,,,,,,0.07516612877056704,0.011796245157001973,0.31841515593935316,,,,,,,0.3258,0.6907,0.009,0.0,0.0,0.00881,0.0,12.0,0.036,,,,,,201.245105,FAIL,vel error exceeded
225,s03_vel_pi_disturbance,g000027_c7,27,,,,,,0.06799228710262013,0.012763995476896935,0.3412607521259823,,,,,,,0.3192,0.6883,0.0092,0.0,0.0,0.008667,0.0,12.0,0.036,,,,,,201.32281,FAIL,vel error exceeded
226,s03_vel_pi_disturbance,g000028_c0,28,,,,,,0.07435397860671075,0.013264118264648916,0.30648555421225243,,,,,,,0.3236,0.6884,0.0091,0.0,0.0,0.008783,0.0,12.0,0.036,,,,,,201.263702,FAIL,vel error exceeded
227,s03_vel_pi_disturbance,g000028_c1,28,,,,,,0.07466336816708023,0.012965223805159813,0.3341158088569383,,,,,,,0.3279,0.7013,0.0092,0.0,0.0,0.0087,0.0,12.0,0.036,,,,,,201.29252,FAIL,vel error exceeded
228,s03_vel_pi_disturbance,g000028_c2,28,,,,,,0.07339619321756562,0.012998948951901814,0.3480543282263692,,,,,,,0.3262,0.6921,0.0092,0.0,0.0,0.008756,0.0,12.0,0.036,,,,,,201.264387,FAIL,vel error exceeded
229,s03_vel_pi_disturbance,g000028_c3,28,,,,,,0.07199090538564917,0.01316981605553333,0.334258092601787,,,,,,,0.3216,0.6848,0.0089,0.0,0.0,0.008859,0.0,12.0,0.036,,,,,,201.227602,FAIL,vel error exceeded
230,s03_vel_pi_disturbance,g000028_c4,28,,,,,,0.06890848215138788,0.013336201969055987,0.3378456767878446,,,,,,,0.3167,0.6784,0.0091,0.0,0.0,0.008727,0.0,12.0,0.036,,,,,,201.290018,FAIL,vel error exceeded
231,s03_vel_pi_disturbance,g000028_c5,28,,,,,,0.06728496082751548,0.013722953469393232,0.34161464717272677,,,,,,,0.315,0.6741,0.0092,0.0,0.0,0.008712,0.0,12.0,0.036,,,,,,201.295797,FAIL,vel error exceeded
232,s03_vel_pi_disturbance,g000028_c6,28,,,,,,0.0786235906971475,0.012855035794527687,0.3069816011455501,,,,,,,0.3247,0.69,0.0091,0.0,0.0,0.008698,0.0,12.0,0.036,,,,,,201.309947,FAIL,vel error exceeded
233,s03_vel_pi_disturbance,g000028_c7,28,,,,,,0.07055546837205881,0.011294953147777816,0.3376231973966277,,,,,,,0.317,0.6837,0.0089,0.0,0.0,0.008801,0.0,12.0,0.036,,,,,,201.255995,FAIL,vel error exceeded
234,s03_vel_pi_disturbance,g000029_c0,29,,,,,,0.07238355874362523,0.01361590859177976,0.31504001802953285,,,,,,,0.3221,0.6898,0.0092,0.0,0.0,0.008739,0.0,12.0,0.036,,,,,,201.285118,FAIL,vel error exceeded
235,s03_vel_pi_disturbance,g000029_c1,29,,,,,,0.07168191936901083,0.013466703904857403,0.32627141786296227,,,,,,,0.3207,0.6854,0.0092,0.0,0.0,0.008677,0.0,12.0,0.036,,,,,,201.316043,FAIL,vel error exceeded
236,s03_vel_pi_disturbance,g000029_c2,29,,,,,,0.07533584428899116,0.014349727344246978,0.32208260276292616,,,,,,,0.3285,0.6976,0.0092,0.0,0.0,0.008783,0.0,12.0,0.036,,,,,,201.254597,FAIL,vel error exceeded
237,s03_vel_pi_disturbance,g000029_c3,29,,,,,,0.07608611675763377,0.01213620225335546,0.34584281313890525,,,,,,,0.3226,0.6866,0.0088,0.0,0.0,0.008833,0.0,12.0,0.036,,,,,,201.244587,FAIL,vel error exceeded
238,s03_vel_pi_disturbance,g000029_c4,29,,,,,,0.0700703077220829,0.012798872403409907,0.3391569963632908,,,,,,,0.3181,0.6782,0.0093,0.0,0.0,0.008656,0.0,12.0,0.036,,,,,,201.324578,FAIL,vel error exceeded
239,s03_vel_pi_disturbance,g000029_c5,29,,,,,,0.07568533180708759,0.011800136003178587,0.3279198529374327,,,,,,,0.3302,0.6968,0.0092,0.0,0.0,0.008773,0.0,12.0,0.036,,,,,,201.260852,FAIL,vel error exceeded
240,s03_vel_pi_disturbance,g000029_c6,29,,,,,,0.07382091474864291,0.013265000059950342,0.33611330826497354,,,,,,,0.3233,0.6872,0.0091,0.0,0.0,0.008786,0.0,12.0,0.036,,,,,,201.26309,FAIL,vel error exceeded
241,s03_vel_pi_disturbance,g000029_c7,29,,,,,,0.0719450045461463,0.013045342875742345,0.36044047557400327,,,,,,,0.3193,0.683,0.009,0.0,0.0,0.008792,0.0,12.0,0.036,,,,,,201.258753,FAIL,vel error exceeded
242,s03_vel_pi_disturbance,g000030_c0,30,,,,,,0.07599707089172059,0.013212816634549316,0.3388319338474988,,,,,,,0.3324,0.6996,0.0092,0.0,0.0,0.008803,0.0,12.0,0.036,,,,,,201.244855,FAIL,vel error exceeded
243,s03_vel_pi_disturbance,g000030_c1,30,,,,,,0.07835647451373888,0.013396623557891478,0.3527268624508788,,,,,,,0.3321,0.7005,0.0091,0.0,0.0,0.008826,0.0,12.0,0.036,,,,,,201.238612,FAIL,vel error exceeded
244,s03_vel_pi_disturbance,g000030_c2,30,,,,,,0.07350367298986454,0.01204722490527627,0.34924110552745125,,,,,,,0.3249,0.6908,0.0093,0.0,0.0,0.008675,0.0,12.0,0.036,,,,,,201.306003,FAIL,vel error exceeded
245,s03_vel_pi_disturbance,g000030_c3,30,,,,,,0.07566581281065264,0.013042648460179598,0.34410490397085036,,,,,,,0.3287,0.6955,0.0093,0.0,0.0,0.008747,0.0,12.0,0.036,,,,,,201.273538,FAIL,vel error exceeded
246,s03_vel_pi_disturbance,g000030_c4,30,,,,,,0.07312055521397985,0.013546903180213765,0.32662867469851425,,,,,,,0.3215,0.6867,0.009,0.0,0.0,0.008751,0.0,12.0,0.036,,,,,,201.280475,FAIL,vel error exceeded
247,s03_vel_pi_disturbance,g000030_c5,30,,,,,,0.0774072318901361,0.012232223126475653,0.3337511573684287,,,,,,,0.3256,0.69,0.0089,0.0,0.0,0.008815,0.0,12.0,0.036,,,,,,201.254807,FAIL,vel error exceeded
248,s03_vel_pi_disturbance,g000030_c6,30,,,,,,0.07036409271581558,0.012413721525955553,0.3615422750949155,,,,,,,0.3162,0.6746,0.009,0.0,0.0,0.00875,0.0,12.0,0.036,,,,,,201.282837,FAIL,vel error exceeded
249,s03_vel_pi_disturbance,g000030_c7,30,,,,,,0.07447863671483845,0.01292214901120281,0.3514512314803339,,,,,,,0.3242,0.6899,0.0091,0.0,0.0,0.008753,0.0,12.0,0.036,,,,,,201.27599,FAIL,vel error exceeded
250,s03_vel_pi_disturbance,g000031_c0,31,,,,,,0.07688187270955044,0.012418785862840507,0.34792637330404724,,,,,,,0.3285,0.6945,0.009,0.0,0.0,0.008834,0.0,12.0,0.036,,,,,,201.237707,FAIL,vel error exceeded
251,s03_vel_pi_disturbance,g000031_c1,31,,,,,,0.07369907249381269,0.012609744882258755,0.3310648546373411,,,,,,,0.3277,0.6929,0.0093,0.0,0.0,0.008743,0.0,12.0,0.036,,,,,,201.266983,FAIL,vel error exceeded
252,s03_vel_pi_disturbance,g000031_c2,31,,,,,,0.07495927375364764,0.012961220292867805,0.34723904547168155,,,,,,,0.3266,0.6946,0.0092,0.0,0.0,0.008748,0.0,12.0,0.036,,,,,,201.273085,FAIL,vel error exceeded
253,s03_vel_pi_disturbance,g000031_c3,31,,,,,,0.07733772462590313,0.012845875026500492,0.3496346244540801,,,,,,,0.3315,0.6978,0.0091,0.0,0.0,0.008822,0.0,12.0,0.036,,,,,,201.23626,FAIL,vel error exceeded
254,s03_vel_pi_disturbance,g000031_c4,31,,,,,,0.07449281771591364,0.012681911132432305,0.3562560906860459,,,,,,,0.3252,0.69,0.0092,0.0,0.0,0.008773,0.0,12.0,0.036,,,,,,201.258965,FAIL,vel error exceeded
255,s03_vel_pi_disturbance,g000031_c5,31,,,,,,0.07323299153572913,0.01306344133389491,0.32602745218706186,,,,,,,0.3234,0.6859,0.0091,0.0,0.0,0.008801,0.0,12.0,0.036,,,,,,201.24767,FAIL,vel error exceeded
256,s03_vel_pi_disturbance,g000031_c6,31,,,,,,0.07776322740703934,0.012981784572548902,0.348341336598266,,,,,,,0.3285,0.6964,0.0091,0.0,0.0,0.008739,0.0,12.0,0.036,,,,,,201.281165,FAIL,vel error exceeded
257,s03_vel_pi_disturbance,g000031_c7,31,,,,,,0.07088713845747814,0.012900413755636506,0.32569165706358866,,,,,,,0.323,0.6852,0.0093,0.0,0.0,0.008762,0.0,12.0,0.036,,,,,,201.267928,FAIL,vel error exceeded
258,s03_vel_pi_disturbance,g000032_c0,32,,,,,,0.07504193641633972,0.013437540548510008,0.33953084817831936,,,,,,,0.3281,0.6955,0.0092,0.0,0.0,0.008763,0.0,12.0,0.036,,,,,,201.262827,FAIL,vel error exceeded
259,s03_vel_pi_disturbance,g000032_c1,32,,,,,,0.07396944199269062,0.013201988876942837,0.3457085044336074,,,,,,,0.3237,0.6886,0.0092,0.0,0.0,0.008719,0.0,12.0,0.036,,,,,,201.290492,FAIL,vel error exceeded
260,s03_vel_pi_disturbance,g000032_c2,32,,,,,,0.0732640465498053,0.0129054273761027,0.33472117309097077,,,,,,,0.3241,0.6888,0.0092,0.0,0.0,0.008766,0.0,12.0,0.036,,,,,,201.26694,FAIL,vel error exceeded
261,s03_vel_pi_disturbance,g000032_c3,32,,,,,,0.07421269170385097,0.01314198772911339,0.34559375964118955,,,,,,,0.3228,0.6847,0.009,0.0,0.0,0.008826,0.0,12.0,0.036,,,,,,201.248388,FAIL,vel error exceeded
262,s03_vel_pi_disturbance,g000032_c4,32,,,,,,0.07252054939093289,0.01318293946489795,0.3431406486938501,,,,,,,0.3227,0.686,0.0093,0.0,0.0,0.008702,0.0,12.0,0.036,,,,,,201.310442,FAIL,vel error exceeded
263,s03_vel_pi_disturbance,g000032_c5,32,,,,,,0.07521808240864593,0.01320976654133393,0.34550080750800327,,,,,,,0.3248,0.6899,0.0091,0.0,0.0,0.008783,0.0,12.0,0.036,,,,,,201.261298,FAIL,vel error exceeded
264,s03_vel_pi_disturbance,g000032_c6,32,,,,,,0.07411422668266451,0.012697917230386125,0.35272325258504494,,,,,,,0.3234,0.6884,0.0093,0.0,0.0,0.008624,0.0,12.0,0.036,,,,,,201.333642,FAIL,vel error exceeded
265,s03_vel_pi_disturbance,g000032_c7,32,,,,,,0.07890166761606958,0.012668866798120055,0.3476314524411308,,,,,,,0.3294,0.6993,0.0091,0.0,0.0,0.008768,0.0,12.0,0.036,,,,,,201.264148,FAIL,vel error exceeded
266,s03_vel_pi_disturbance,g000033_c0,33,,,,,,0.07328544953861837,0.012535344554225336,0.3587225365086285,,,,,,,0.3243,0.687,0.009,0.0,0.0,0.008858,0.0,12.0,0.036,,,,,,201.223505,FAIL,vel error exceeded
267,s03_vel_pi_disturbance,g000033_c1,33,,,,,,0.07281247395130135,0.01352580749748275,0.34962250129068856,,,,,,,0.3255,0.694,0.009,0.0,0.0,0.008842,0.0,12.0,0.036,,,,,,201.223208,FAIL,vel error exceeded
268,s03_vel_pi_disturbance,g000033_c2,33,,,,,,0.07463091150737927,0.013124799095547571,0.3367703854881791,,,,,,,0.3222,0.6878,0.0091,0.0,0.0,0.008704,0.0,12.0,0.036,,,,,,201.297448,FAIL,vel error exceeded
269,s03_vel_pi_disturbance,g000033_c3,33,,,,,,0.07343171329736112,0.012839050179945855,0.33302846175481937,,,,,,,0.3227,0.6853,0.0091,0.0,0.0,0.008763,0.0,12.0,0.036,,,,,,201.273198,FAIL,vel error exceeded
270,s03_vel_pi_disturbance,g000033_c4,33,,,,,,0.07366656913442889,0.01288211055484999,0.3316592783543768,,,,,,,0.3228,0.6881,0.0091,0.0,0.0,0.008745,0.0,12.0,0.036,,,,,,201.27759,FAIL,vel error exceeded
271,s03_vel_pi_disturbance,g000033_c5,33,,,,,,0.07624362794278512,0.013180864077195483,0.3321284882395641,,,,,,,0.3284,0.6959,0.0091,0.0,0.0,0.008785,0.0,12.0,0.036,,,,,,201.255742,FAIL,vel error exceeded
272,s03_vel_pi_disturbance,g000033_c6,33,,,,,,0.07235370574571161,0.013039960940509724,0.3344289574640092,,,,,,,0.3206,0.6839,0.0091,0.0,0.0,0.00874,0.0,12.0,0.036,,,,,,201.280462,FAIL,vel error exceeded
273,s03_vel_pi_disturbance,g000033_c7,33,,,,,,0.07603321222327626,0.01298379668847353,0.33574696457192627,,,,,,,0.329,0.6964,0.0091,0.0,0.0,0.008805,0.0,12.0,0.036,,,,,,201.246342,FAIL,vel error exceeded
274,s03_vel_pi_disturbance,g000034_c0,34,,,,,,0.07108990957323788,0.01276732401496344,0.34175089730980845,,,,,,,0.3187,0.6793,0.009,0.0,0.0,0.008807,0.0,12.0,0.036,,,,,,201.25168,FAIL,vel error exceeded
275,s03_vel_pi_disturbance,g000034_c1,34,,,,,,0.0751656553901612,0.013471955886911345,0.35819959311773564,,,,,,,0.3213,0.6845,0.009,0.0,0.0,0.008781,0.0,12.0,0.036,,,,,,201.27075,FAIL,vel error exceeded
276,s03_vel_pi_disturbance,g000034_c2,34,,,,,,0.08005919774776865,0.013333026148667337,0.3328009781497972,,,,,,,0.3314,0.7011,0.009,0.0,0.0,0.008814,0.0,12.0,0.036,,,,,,201.250275,FAIL,vel error exceeded
277,s03_vel_pi_disturbance,g000034_c3,34,,,,,,0.07266101583004193,0.013195282352800028,0.3421562144296364,,,,,,,0.3279,0.7013,0.0092,0.0,0.0,0.008752,0.0,12.0,0.036,,,,,,201.261957,FAIL,vel error exceeded
278,s03_vel_pi_disturbance,g000034_c4,34,,,,,,0.07651759823450004,0.012736491372983346,0.3341758964520483,,,,,,,0.3201,0.6849,0.009,0.0,0.0,0.008678,0.0,12.0,0.036,,,,,,201.318332,FAIL,vel error exceeded
279,s03_vel_pi_disturbance,g000034_c5,34,,,,,,0.06890234863135238,0.013125587643751609,0.34175348115437904,,,,,,,0.3197,0.6871,0.0091,0.0,0.0,0.008812,0.0,12.0,0.036,,,,,,201.246123,FAIL,vel error exceeded
280,s03_vel_pi_disturbance,g000034_c6,34,,,,,,0.07383493690115868,0.013268196988899212,0.34682584939448796,,,,,,,0.323,0.686,0.009,0.0,0.0,0.008808,0.0,12.0,0.036,,,,,,201.250325,FAIL,vel error exceeded
281,s03_vel_pi_disturbance,g000034_c7,34,,,,,,0.07333139727403418,0.012787387782732123,0.33272418798083075,,,,,,,0.322,0.6915,0.009,0.0,0.0,0.008745,0.0,12.0,0.036,,,,,,201.276437,FAIL,vel error exceeded
282,s03_vel_pi_disturbance,g000035_c0,35,,,,,,0.07509500380174593,0.013092117237658936,0.334738470595993,,,,,,,0.3268,0.6931,0.0089,0.0,0.0,0.00888,0.0,12.0,0.036,,,,,,201.214067,FAIL,vel error exceeded
283,s03_vel_pi_disturbance,g000035_c1,35,,,,,,0.07604431849859924,0.012470360843935714,0.3399115808649277,,,,,,,0.3251,0.6894,0.0089,0.0,0.0,0.008833,0.0,12.0,0.036,,,,,,201.241087,FAIL,vel error exceeded
284,s03_vel_pi_disturbance,g000035_c2,35,,,,,,0.07457889225751206,0.013314203574534172,0.33636775813759157,,,,,,,0.3273,0.6939,0.009,0.0,0.0,0.008835,0.0,12.0,0.036,,,,,,201.230725,FAIL,vel error exceeded
285,s03_vel_pi_disturbance,g000035_c3,35,,,,,,0.0753231879734827,0.012907412780478451,0.3344128664005556,,,,,,,0.3237,0.6872,0.0087,0.0,0.0,0.008909,0.0,12.0,0.036,,,,,,201.201443,FAIL,vel error exceeded
286,s03_vel_pi_disturbance,g000035_c4,35,,,,,,0.07699593960929665,0.013276605993594396,0.34186675687877155,,,,,,,0.3274,0.6953,0.009,0.0,0.0,0.008818,0.0,12.0,0.036,,,,,,201.25007,FAIL,vel error exceeded
287,s03_vel_pi_disturbance,g000035_c5,35,,,,,,0.07559151729881523,0.012270729995563376,0.3437687901572141,,,,,,,0.3295,0.6963,0.0091,0.0,0.0,0.008816,0.0,12.0,0.036,,,,,,201.237265,FAIL,vel error exceeded
288,s03_vel_pi_disturbance,g000035_c6,35,,,,,,0.07500813168488356,0.013095337783122022,0.34591319573138973,,,,,,,0.3286,0.6971,0.0094,0.0,0.0,0.008671,0.0,12.0,0.036,,,,,,201.30038,FAIL,vel error exceeded
289,s03_vel_pi_disturbance,g000035_c7,35,,,,,,0.07354707342095784,0.012869791921113401,0.3333955063788923,,,,,,,0.3208,0.6828,0.0091,0.0,0.0,0.008741,0.0,12.0,0.036,,,,,,201.27985,FAIL,vel error exceeded
290,s03_vel_pi_disturbance,g000036_c0,36,,,,,,0.07790634189938538,0.01282264607637103,0.33977906668889407,,,,,,,0.331,0.7011,0.009,0.0,0.0,0.008829,0.0,12.0,0.036,,,,,,201.232345,FAIL,vel error exceeded
291,s03_vel_pi_disturbance,g000036_c1,36,,,,,,0.07698453338417824,0.01327398048513971,0.34874471961087944,,,,,,,0.3314,0.7006,0.0091,0.0,0.0,0.008811,0.0,12.0,0.036,,,,,,201.24076,FAIL,vel error exceeded
292,s03_vel_pi_disturbance,g000036_c2,36,,,,,,0.07473445107479548,0.013357648667628957,0.3506110787546044,,,,,,,0.3223,0.6854,0.0091,0.0,0.0,0.008756,0.0,12.0,0.036,,,,,,201.277337,FAIL,vel error exceeded
293,s03_vel_pi_disturbance,g000036_c3,36,,,,,,0.07374827615087817,0.012964493302261793,0.3325718823239439,,,,,,,0.329,0.6969,0.0093,0.0,0.0,0.008772,0.0,12.0,0.036,,,,,,201.25252,FAIL,vel error exceeded
294,s03_vel_pi_disturbance,g000036_c4,36,,,,,,0.07690514235387713,0.012905832182608904,0.33999322805817084,,,,,,,0.328,0.6966,0.009,0.0,0.0,0.008841,0.0,12.0,0.036,,,,,,201.233553,FAIL,vel error exceeded
295,s03_vel_pi_disturbance,g000036_c5,36,,,,,,0.07444079347538166,0.013110697686546283,0.33977267619711005,,,,,,,0.3251,0.6909,0.0091,0.0,0.0,0.008776,0.0,12.0,0.036,,,,,,201.25914,FAIL,vel error exceeded
296,s03_vel_pi_disturbance,g000036_c6,36,,,,,,0.07370154296350304,0.013219793064210155,0.34895529534731506,,,,,,,0.3222,0.6856,0.0089,0.0,0.0,0.008837,0.0,12.0,0.036,,,,,,201.24159,FAIL,vel error exceeded
297,s03_vel_pi_disturbance,g000036_c7,36,,,,,,0.07679740859778873,0.01255228537067706,0.3346084579901133,,,,,,,0.3287,0.6972,0.0091,0.0,0.0,0.008771,0.0,12.0,0.036,,,,,,201.270283,FAIL,vel error exceeded
298,s03_vel_pi_disturbance,g000037_c0,37,,,,,,0.07452377881268202,0.012899750057073833,0.35857223892714907,,,,,,,0.3232,0.6871,0.0092,0.0,0.0,0.008734,0.0,12.0,0.036,,,,,,201.29541,FAIL,vel error exceeded
299,s03_vel_pi_disturbance,g000037_c1,37,,,,,,0.07395138233747924,0.01285812341252957,0.3454522596999105,,,,,,,0.3202,0.6823,0.0091,0.0,0.0,0.008714,0.0,12.0,0.036,,,,,,201.300167,FAIL,vel error exceeded
300,s03_vel_pi_disturbance,g000037_c2,37,,,,,,0.07385045337010093,0.012850676106000724,0.34998056517054116,,,,,,,0.3246,0.689,0.0092,0.0,0.0,0.008748,0.0,12.0,0.036,,,,,,201.28284,FAIL,vel error exceeded
301,s03_vel_pi_disturbance,g000037_c3,37,,,,,,0.07276614701900223,0.012823369864024107,0.34194156428250805,,,,,,,0.3254,0.6906,0.0092,0.0,0.0,0.008771,0.0,12.0,0.036,,,,,,201.257152,FAIL,vel error exceeded
302,s03_vel_pi_disturbance,g000037_c4,37,,,,,,0.07575207641850236,0.012787640116982472,0.3319385553665766,,,,,,,0.3302,0.6974,0.009,0.0,0.0,0.008874,0.0,12.0,0.036,,,,,,201.208185,FAIL,vel error exceeded
303,s03_vel_pi_disturbance,g000037_c5,37,,,,,,0.07592086716357253,0.013161013045402613,0.3471186157499426,,,,,,,0.325,0.6904,0.009,0.0,0.0,0.00881,0.0,12.0,0.036,,,,,,201.250638,FAIL,vel error exceeded
304,s03_vel_pi_disturbance,g000037_c6,37,,,,,,0.07404147914469833,0.012904586645446959,0.3391992000491163,,,,,,,0.3204,0.6809,0.0089,0.0,0.0,0.0088,0.0,12.0,0.036,,,,,,201.260627,FAIL,vel error exceeded
305,s03_vel_pi_disturbance,g000037_c7,37,,,,,,0.07467708488906022,0.01247453331797584,0.3355119143068663,,,,,,,0.3306,0.6983,0.0091,0.0,0.0,0.008841,0.0,12.0,0.036,,,,,,201.217152,FAIL,vel error exceeded
306,s03_vel_pi_disturbance,g000038_c0,38,,,,,,0.07451279428244102,0.012905148757207255,0.3408547301640814,,,,,,,0.3225,0.685,0.0089,0.0,0.0,0.008854,0.0,12.0,0.036,,,,,,201.240483,FAIL,vel error exceeded
307,s03_vel_pi_disturbance,g000038_c1,38,,,,,,0.07375062113818756,0.013005692947468282,0.34641777915056865,,,,,,,0.3221,0.6862,0.009,0.0,0.0,0.008763,0.0,12.0,0.036,,,,,,201.273525,FAIL,vel error exceeded
