run_id,scenario,label,gen,timestamp,Q_PITCH,Q_PITCH_RATE,Q_VEL,R,KP_V,KI_V,KFF_V,KP_YAW,KI_YAW,LEG_K_S,LEG_B_S,LEG_K_ROLL,LEG_D_ROLL,rms_pitch_deg,max_pitch_deg,wheel_travel_m,wheel_liftoff_s,vel_track_rms_ms,hip_track_rms_rad,hip_cmd_rate_rms,settle_time_s,survived_s,fitness_balance,fitness_disturbance,fitness_drive_slow,fitness_drive_med,fitness_obstacle,fitness,status,fail_reason
1,s02_leg_height_gain_sched,evo_seed,0,,0.67758196,0.0011704126,1.0624819e-07,98.338915,,,,,,,,,,0.7024,5.4678,20.1068,0.05,1.9743,0.322949,0.5033,0.4,12.0,,,,,,5.98104,PASS,
2,s02_leg_height_gain_sched,g000000_c0,0,,0.058610985004302604,0.006118457177832261,1e-07,100.0,,,,,,,,,,0.6839,5.2531,20.1043,0.01,1.9799,0.322929,0.5033,0.388,12.0,,,,,,5.80592,PASS,
3,s02_leg_height_gain_sched,g000000_c1,0,,2.1215888089146087,0.0038607333375629206,4.27966514322214e-07,13.143770762351409,,,,,,,,,,0.709,5.3656,20.3967,0.074,1.9446,0.322875,0.5033,0.592,12.0,,,,,,6.07712,PASS,
4,s02_leg_height_gain_sched,g000000_c2,0,,2.676616978879256,0.001,1e-07,2.1519195452849273,,,,,,,,,,0.7113,5.5185,20.292,0.068,1.9498,0.32298,0.5033,0.416,12.0,,,,,,6.13305,PASS,
5,s02_leg_height_gain_sched,g000000_c3,0,,2.388524994401496,0.02362543706360389,8.147038987272668e-07,50.518533459326356,,,,,,,,,,0.704,5.4329,20.4429,0.066,1.9521,0.322947,0.5033,0.418,12.0,,,,,,6.06788,PASS,
6,s02_leg_height_gain_sched,g000000_c4,0,,0.0646653238401059,0.001,1e-07,100.0,,,,,,,,,,0.7078,5.4762,20.3182,0.064,1.9663,0.322986,0.5033,0.412,12.0,,,,,,5.91836,PASS,
7,s02_leg_height_gain_sched,g000000_c5,0,,0.8944434688619662,0.001,4.439438538296955e-07,51.19732949024665,,,,,,,,,,0.7299,5.7239,20.3037,0.068,1.9698,0.323003,0.5033,0.41,12.0,,,,,,6.19199,PASS,
8,s02_leg_height_gain_sched,g000000_c6,0,,0.03611697248478443,0.001,2.4370210222888903e-06,43.87321398336723,,,,,,,,,,0.706,5.4546,20.3462,0.064,1.9442,0.322965,0.5033,0.418,12.0,,,,,,6.05678,PASS,
9,s02_leg_height_gain_sched,g000000_c7,0,,0.08181219596150521,0.001,6.216609458650126e-07,3.9133854834526685,,,,,,,,,,0.7206,5.4591,20.2713,0.08,1.9261,0.322886,0.5033,0.606,12.0,,,,,,6.10191,PASS,
10,s02_leg_height_gain_sched,g000001_c0,1,,0.29350239805105593,0.052581708720987,6.083271093598829e-06,1.5248414920210422,,,,,,,,,,0.8166,5.9686,19.1307,0.11,1.8067,0.322827,0.5033,0.638,12.0,,,,,,6.29842,PASS,
11,s02_leg_height_gain_sched,g000001_c1,1,,0.35389495715124847,0.022883053056817686,1.656593020481475e-07,45.93308436646366,,,,,,,,,,0.7114,5.4815,20.2247,0.068,1.9644,0.322935,0.5033,0.412,12.0,,,,,,5.9782,PASS,
12,s02_leg_height_gain_sched,g000001_c2,1,,0.027551249463478294,0.2092531431735202,1e-07,100.0,,,,,,,,,,0.7225,5.5996,20.0815,0.072,1.9729,0.322919,0.5033,0.408,12.0,,,,,,5.99532,PASS,
13,s02_leg_height_gain_sched,g000001_c3,1,,0.011256910349027312,0.002568071762074396,1e-07,100.0,,,,,,,,,,0.7191,5.5824,20.0922,0.068,1.9741,0.322953,0.5033,0.406,12.0,,,,,,6.05008,PASS,
14,s02_leg_height_gain_sched,g000001_c4,1,,0.01,0.001,6.836045970153174e-07,100.0,,,,,,,,,,0.7189,5.6014,20.1031,0.066,1.9679,0.32293,0.5033,0.408,12.0,,,,,,6.0178,PASS,
15,s02_leg_height_gain_sched,g000001_c5,1,,0.028559187397924703,0.001,8.22477429632394e-07,100.0,,,,,,,,,,0.7083,5.4395,20.4934,0.068,1.9539,0.322925,0.5033,0.578,12.0,,,,,,6.05417,PASS,
16,s02_leg_height_gain_sched,g000001_c6,1,,0.01,0.001882657936175955,9.853697656497681e-07,23.931214532935442,,,,,,,,,,0.7114,5.3697,20.4233,0.078,1.9421,0.322896,0.5033,0.6,12.0,,,,,,6.06026,PASS,
17,s02_leg_height_gain_sched,g000001_c7,1,,0.48860155167660235,0.01613088253395387,1e-07,2.615042314814667,,,,,,,,,,0.7109,5.5206,20.1746,0.066,1.9531,0.322968,0.5033,0.412,12.0,,,,,,6.02837,PASS,
18,s02_leg_height_gain_sched,g000002_c0,2,,0.07419333317371489,0.27008108380220525,1e-07,2.334075980718186,,,,,,,,,,0.7532,5.9163,20.1891,0.08,1.9504,0.322987,0.5033,0.576,12.0,,,,,,6.45751,PASS,
19,s02_leg_height_gain_sched,g000002_c1,2,,0.01,0.03351809452243615,2.783742635276366e-06,100.0,,,,,,,,,,0.709,5.4922,20.3178,0.066,1.952,0.322942,0.5033,0.416,12.0,,,,,,5.92605,PASS,
20,s02_leg_height_gain_sched,g000002_c2,2,,8.19534582683999,0.03585602102839227,1e-07,100.0,,,,,,,,,,0.7119,5.3647,20.4956,0.078,1.9568,0.322877,0.5033,0.598,12.0,,,,,,6.09764,PASS,
21,s02_leg_height_gain_sched,g000002_c3,2,,0.3520044908420857,0.0026926046549189545,3.185411027361449e-07,100.0,,,,,,,,,,0.7092,5.3933,20.398,0.07,1.9593,0.322951,0.5033,0.574,12.0,,,,,,6.03364,PASS,
22,s02_leg_height_gain_sched,g000002_c4,2,,0.050672260062511694,0.012642773764100003,1e-07,100.0,,,,,,,,,,0.7276,5.6678,20.2522,0.07,1.9714,0.323001,0.5033,0.558,12.0,,,,,,6.14456,PASS,
23,s02_leg_height_gain_sched,g000002_c5,2,,0.15862799773214203,0.0013237565154534715,1e-07,100.0,,,,,,,,,,0.6894,5.3105,20.4131,0.06,1.9611,0.322938,0.5033,0.41,12.0,,,,,,5.97733,PASS,
24,s02_leg_height_gain_sched,g000002_c6,2,,0.029345324800717793,0.012029482925276993,1.151794216864561e-07,100.0,,,,,,,,,,0.719,5.5534,20.3497,0.07,1.9645,0.322949,0.5033,0.572,12.0,,,,,,6.04201,PASS,
25,s02_leg_height_gain_sched,g000002_c7,2,,0.38850283431535215,0.0013952459487151848,4.498895354092785e-07,1.1365899437803513,,,,,,,,,,0.738,5.5961,20.243,0.084,1.9034,0.32286,0.5033,0.628,12.0,,,,,,6.21637,PASS,
26,s02_leg_height_gain_sched,g000003_c0,3,,11.155242056738178,0.08660676854687702,1e-07,83.97005512143915,,,,,,,,,,0.7019,5.3997,20.4238,0.064,1.9612,0.322936,0.5033,0.414,12.0,,,,,,6.01766,PASS,
27,s02_leg_height_gain_sched,g000003_c1,3,,14.139610709779625,0.0032438625208363143,1e-07,23.158901453631994,,,,,,,,,,0.7111,5.3804,20.5477,0.076,1.9532,0.322927,0.5033,0.6,12.0,,,,,,6.19066,PASS,
28,s02_leg_height_gain_sched,g000003_c2,3,,0.43444433112181696,0.04638418913705503,2.1998902256594956e-07,100.0,,,,,,,,,,0.7218,5.4609,20.4888,0.08,1.9574,0.322915,0.5033,0.604,12.0,,,,,,6.19781,PASS,
29,s02_leg_height_gain_sched,g000003_c3,3,,0.026581767312174962,0.001,1e-07,11.837005285305775,,,,,,,,,,0.7109,5.4768,20.472,0.07,1.9556,0.32296,0.5033,0.576,12.0,,,,,,6.2006,PASS,
30,s02_leg_height_gain_sched,g000003_c4,3,,0.09986386326044602,0.07269818927220183,1.87348646102438e-07,100.0,,,,,,,,,,0.7251,5.5823,20.1423,0.07,1.9688,0.322939,0.5033,0.56,12.0,,,,,,6.06578,PASS,
31,s02_leg_height_gain_sched,g000003_c5,3,,0.01,0.07255590132955414,1e-07,100.0,,,,,,,,,,0.7118,5.4593,20.4179,0.072,1.9606,0.322941,0.5033,0.576,12.0,,,,,,6.12452,PASS,
32,s02_leg_height_gain_sched,g000003_c6,3,,1.7246013213222966,0.001696742851737716,1e-07,100.0,,,,,,,,,,0.7117,5.5078,20.0961,0.06,1.9735,0.32292,0.5033,0.404,12.0,,,,,,5.94469,PASS,
33,s02_leg_height_gain_sched,g000003_c7,3,,0.022952823741115663,0.019423627170136137,4.777124812329985e-07,2.615091819890402,,,,,,,,,,0.7147,5.5141,20.247,0.068,1.9267,0.322946,0.5033,0.578,12.0,,,,,,6.05144,PASS,
34,s02_leg_height_gain_sched,g000004_c0,4,,0.09671250509779647,0.001,1.0655170898056585e-07,100.0,,,,,,,,,,0.7161,5.5267,20.186,0.066,1.9676,0.322909,0.5033,0.412,12.0,,,,,,5.95817,PASS,
35,s02_leg_height_gain_sched,g000004_c1,4,,0.01,0.0016067177568378631,1.5882868667550644e-07,100.0,,,,,,,,,,0.7194,5.5163,20.229,0.072,1.9662,0.322952,0.5033,0.57,12.0,,,,,,6.02645,PASS,
36,s02_leg_height_gain_sched,g000004_c2,4,,0.07492655641454529,0.001,9.370215426092803e-07,56.32841327927112,,,,,,,,,,0.7037,5.4708,20.1378,0.062,1.9599,0.322938,0.5033,0.408,12.0,,,,,,5.9618,PASS,
37,s02_leg_height_gain_sched,g000004_c3,4,,0.01,0.001,1.5210560255087723e-07,40.107924383676185,,,,,,,,,,0.7019,5.4134,20.4871,0.062,1.9587,0.322988,0.5033,0.416,12.0,,,,,,5.94394,PASS,
38,s02_leg_height_gain_sched,g000004_c4,4,,14.177484043302902,0.026433103114918328,1.413867839434151e-07,11.474543285583989,,,,,,,,,,0.7246,5.5105,20.3702,0.082,1.9531,0.322903,0.5033,0.606,12.0,,,,,,6.21598,PASS,
39,s02_leg_height_gain_sched,g000004_c5,4,,0.01,0.4962243300626493,1e-07,100.0,,,,,,,,,,0.7104,5.5109,20.1737,0.066,1.9688,0.322947,0.5033,0.408,12.0,,,,,,5.97718,PASS,
40,s02_leg_height_gain_sched,g000004_c6,4,,0.01,0.005156166805660197,1e-07,100.0,,,,,,,,,,0.7196,5.602,20.128,0.068,1.9746,0.322924,0.5033,0.406,12.0,,,,,,6.01201,PASS,
41,s02_leg_height_gain_sched,g000004_c7,4,,0.01,0.1727795955263556,1e-07,100.0,,,,,,,,,,0.6992,5.3927,20.4318,0.062,1.9616,0.322974,0.5033,0.412,12.0,,,,,,5.95222,PASS,
42,s02_leg_height_gain_sched,g000005_c0,5,,0.7509757095196211,0.14025027362882317,5.647546056785612e-07,100.0,,,,,,,,,,0.7115,5.5529,20.1065,0.064,1.9678,0.322947,0.5033,0.406,12.0,,,,,,5.98019,PASS,
43,s02_leg_height_gain_sched,g000005_c1,5,,0.43244720968117467,0.00303821009215722,1e-07,100.0,,,,,,,,,,0.7117,5.3551,20.5945,0.076,1.9549,0.322899,0.5033,0.602,12.0,,,,,,6.1409,PASS,
44,s02_leg_height_gain_sched,g000005_c2,5,,0.02975147284885038,0.002305339512810339,1e-07,54.46279264873215,,,,,,,,,,0.7046,5.3684,20.3874,0.07,1.9603,0.322924,0.5033,0.416,12.0,,,,,,5.99665,PASS,
45,s02_leg_height_gain_sched,g000005_c3,5,,0.01,0.0013774643516176119,1.6795951516965368e-07,81.91873937062583,,,,,,,,,,0.7023,5.3429,20.4355,0.068,1.9589,0.322908,0.5033,0.418,12.0,,,,,,5.87559,PASS,
46,s02_leg_height_gain_sched,g000005_c4,5,,0.01582297100159622,0.004211135278024868,1e-07,7.255709993295012,,,,,,,,,,0.705,5.3498,20.4245,0.072,1.9515,0.322895,0.5033,0.58,12.0,,,,,,6.06296,PASS,
47,s02_leg_height_gain_sched,g000005_c5,5,,4.56558958757654,0.01280062605854215,2.74978644176789e-06,100.0,,,,,,,,,,0.7131,5.6349,20.1487,0.06,1.9642,0.322957,0.5033,0.404,12.0,,,,,,6.01466,PASS,
48,s02_leg_height_gain_sched,g000005_c6,5,,0.055588216163149996,0.001,1e-07,17.039273657203427,,,,,,,,,,0.7104,5.4888,20.2092,0.066,1.9639,0.322952,0.5033,0.412,12.0,,,,,,6.0388,PASS,
49,s02_leg_height_gain_sched,g000005_c7,5,,0.16898989746805892,0.003852760124965233,1e-07,3.271102916719947,,,,,,,,,,0.6929,5.3429,20.3436,0.06,1.9496,0.322944,0.5033,0.412,12.0,,,,,,5.9898,PASS,
50,s02_leg_height_gain_sched,g000006_c0,6,,0.07612066655512786,0.001,8.090375104124746e-07,100.0,,,,,,,,,,0.7133,5.5396,20.1117,0.066,1.9645,0.322936,0.5033,0.41,12.0,,,,,,5.95754,PASS,
51,s02_leg_height_gain_sched,g000006_c1,6,,0.01,0.24362668384540095,1.6434434750145343e-06,6.3297110558539424,,,,,,,,,,0.7149,5.593,20.057,0.066,1.9238,0.322964,0.5033,0.416,12.0,,,,,,6.11091,PASS,
52,s02_leg_height_gain_sched,g000006_c2,6,,0.01,0.0023227971876155088,1.183080945370046e-06,5.21084648572094,,,,,,,,,,0.7327,5.5544,20.3292,0.082,1.9163,0.322881,0.5033,0.624,12.0,,,,,,6.1095,PASS,
53,s02_leg_height_gain_sched,g000006_c3,6,,0.01512983222278927,0.007830431382210035,1e-07,100.0,,,,,,,,,,0.719,5.669,20.2979,0.062,1.9755,0.322971,0.5033,0.404,12.0,,,,,,5.9256,PASS,
54,s02_leg_height_gain_sched,g000006_c4,6,,0.025436160212728525,0.07220820634294976,1e-07,100.0,,,,,,,,,,0.7108,5.4398,20.3098,0.07,1.9642,0.322932,0.5033,0.416,12.0,,,,,,6.01427,PASS,
55,s02_leg_height_gain_sched,g000006_c5,6,,0.01,0.0011779409491641864,1e-07,94.65146661356655,,,,,,,,,,0.7112,5.4555,20.4207,0.07,1.9609,0.322934,0.5033,0.574,12.0,,,,,,6.04637,PASS,
56,s02_leg_height_gain_sched,g000006_c6,6,,0.01,0.005735483849300091,7.507856890755218e-07,30.40783900146032,,,,,,,,,,0.7201,5.5232,20.3193,0.076,1.9519,0.322933,0.5033,0.59,12.0,,,,,,6.16433,PASS,
57,s02_leg_height_gain_sched,g000006_c7,6,,0.13298781576495244,0.008386955410059007,1e-07,24.826497508283943,,,,,,,,,,0.7174,5.3912,20.557,0.08,1.9516,0.322869,0.5033,0.612,12.0,,,,,,6.10554,PASS,
58,s02_leg_height_gain_sched,g000007_c0,7,,2.380000045066397,0.001,3.1982376803187456e-07,51.866165399380996,,,,,,,,,,0.6949,5.3828,20.392,0.06,1.9585,0.322954,0.5033,0.41,12.0,,,,,,5.91888,PASS,
59,s02_leg_height_gain_sched,g000007_c1,7,,0.01,0.07382059226293786,1e-07,100.0,,,,,,,,,,0.7186,5.5481,20.3822,0.07,1.9651,0.322977,0.5033,0.566,12.0,,,,,,6.06558,PASS,
60,s02_leg_height_gain_sched,g000007_c2,7,,6.067732109353095,0.002341635710488255,4.815134755569063e-07,9.485268786411368,,,,,,,,,,0.7141,5.5033,20.3851,0.074,1.9434,0.322965,0.5033,0.584,12.0,,,,,,6.16799,PASS,
61,s02_leg_height_gain_sched,g000007_c3,7,,0.01,0.001,1e-07,100.0,,,,,,,,,,0.73,5.5944,20.1499,0.074,1.9691,0.322946,0.5033,0.576,12.0,,,,,,6.16355,PASS,
62,s02_leg_height_gain_sched,g000007_c4,7,,0.22925433819676497,0.1483069218444266,8.47416580520982e-06,70.11931219254456,,,,,,,,,,0.7289,5.6227,20.144,0.084,1.9383,0.322956,0.5033,0.592,12.0,,,,,,6.17256,PASS,
63,s02_leg_height_gain_sched,g000007_c5,7,,0.01,0.13213869559676072,1.1349199845829968e-07,100.0,,,,,,,,,,0.7106,5.3513,20.4891,0.076,1.9561,0.322901,0.5033,0.596,12.0,,,,,,6.07491,PASS,
64,s02_leg_height_gain_sched,g000007_c6,7,,0.11709823788843428,0.001,3.0188489921695265e-07,100.0,,,,,,,,,,0.7077,5.3748,20.5391,0.074,1.9544,0.322899,0.5033,0.592,12.0,,,,,,6.01654,PASS,
65,s02_leg_height_gain_sched,g000007_c7,7,,0.03184720094148882,0.001,6.179583586526269e-07,66.65420864908248,,,,,,,,,,0.6955,5.3391,20.404,0.062,1.9554,0.322953,0.5033,0.414,12.0,,,,,,5.96918,PASS,
66,s02_leg_height_gain_sched,g000008_c0,8,,0.01,0.3569525838905457,1e-07,5.357946542466131,,,,,,,,,,0.7182,5.5286,20.3555,0.07,1.9489,0.322966,0.5033,0.422,12.0,,,,,,6.15049,PASS,
67,s02_leg_height_gain_sched,g000008_c1,8,,0.6723055415703705,0.001,1.7420397826590383e-07,100.0,,,,,,,,,,0.7095,5.4519,20.2788,0.068,1.9642,0.32294,0.5033,0.414,12.0,,,,,,5.98586,PASS,
68,s02_leg_height_gain_sched,g000008_c2,8,,1.203393855575047,0.06584415936798807,1e-07,1.9048066965136794,,,,,,,,,,0.726,5.7183,20.0974,0.07,1.954,0.323044,0.5033,0.41,12.0,,,,,,6.28679,PASS,
69,s02_leg_height_gain_sched,g000008_c3,8,,0.010366114945779277,0.01901268046803612,1e-07,100.0,,,,,,,,,,0.6935,5.3153,20.4632,0.064,1.9597,0.322918,0.5033,0.414,12.0,,,,,,6.00045,PASS,
70,s02_leg_height_gain_sched,g000008_c4,8,,3.2832208073382394,0.0021017608970296015,1e-07,100.0,,,,,,,,,,0.6935,5.3456,20.4868,0.06,1.9596,0.322957,0.5033,0.414,12.0,,,,,,5.95401,PASS,
71,s02_leg_height_gain_sched,g000008_c5,8,,0.6454848091441197,1.566973171500077,1.4637523976781867e-07,76.11276440798193,,,,,,,,,,0.6958,5.3986,20.1067,0.032,1.9754,0.322912,0.5033,0.394,12.0,,,,,,5.88995,PASS,
72,s02_leg_height_gain_sched,g000008_c6,8,,3.199728704399428,0.02484925800024512,7.313855186865885e-07,100.0,,,,,,,,,,0.7193,5.5365,20.1529,0.07,1.964,0.322931,0.5033,0.414,12.0,,,,,,6.0134,PASS,
73,s02_leg_height_gain_sched,g000008_c7,8,,0.015379893716045511,0.06841678706168491,1e-07,100.0,,,,,,,,,,0.7139,5.5741,20.1978,0.058,1.9759,0.322951,0.5033,0.402,12.0,,,,,,5.95823,PASS,
74,s02_leg_height_gain_sched,g000009_c0,9,,0.4974694465351268,0.16017299903964277,1e-07,46.419120413748495,,,,,,,,,,0.7169,5.5225,20.1882,0.068,1.9672,0.322956,0.5033,0.412,12.0,,,,,,6.05582,PASS,
75,s02_leg_height_gain_sched,g000009_c1,9,,0.3874260461085446,0.0015476361768128092,4.169395402477957e-06,24.725830740871107,,,,,,,,,,0.7075,5.4451,20.1193,0.068,1.9308,0.32289,0.5033,0.418,12.0,,,,,,5.99176,PASS,
76,s02_leg_height_gain_sched,g000009_c2,9,,0.01,0.001,5.837265078393585e-07,100.0,,,,,,,,,,0.7089,5.4476,20.4025,0.07,1.9587,0.322984,0.5033,0.416,12.0,,,,,,6.14536,PASS,
77,s02_leg_height_gain_sched,g000009_c3,9,,4.967719747154563,0.0018010092136622323,1.1921449614710598e-07,100.0,,,,,,,,,,0.7064,5.3616,20.5572,0.07,1.956,0.322893,0.5033,0.588,12.0,,,,,,6.05733,PASS,
78,s02_leg_height_gain_sched,g000009_c4,9,,0.01,0.004377796387637411,1e-07,100.0,,,,,,,,,,0.7143,5.379,20.581,0.078,1.9549,0.3229,0.5033,0.606,12.0,,,,,,6.11552,PASS,
79,s02_leg_height_gain_sched,g000009_c5,9,,0.01,0.010288587818443145,1.0995565456147122e-06,9.719516455143951,,,,,,,,,,0.7149,5.5161,20.2115,0.072,1.9374,0.322961,0.5033,0.578,12.0,,,,,,6.12954,PASS,
80,s02_leg_height_gain_sched,g000009_c6,9,,0.13810755470437186,0.0013798063871718529,1e-07,24.590512589238354,,,,,,,,,,0.6892,5.3117,20.3977,0.058,1.959,0.322945,0.5033,0.41,12.0,,,,,,5.95141,PASS,
81,s02_leg_height_gain_sched,g000009_c7,9,,0.7050918333268521,0.01041543044466733,3.3170780972881534e-06,28.016116183071265,,,,,,,,,,0.7093,5.498,20.1469,0.064,1.9398,0.322967,0.5033,0.414,12.0,,,,,,5.92946,PASS,
82,s02_leg_height_gain_sched,g000010_c0,10,,0.01,0.0011162403228971774,5.139770596480114e-07,100.0,,,,,,,,,,0.715,5.3495,20.5199,0.08,1.9513,0.322857,0.5033,0.61,12.0,,,,,,6.17521,PASS,
83,s02_leg_height_gain_sched,g000010_c1,10,,0.25030779501157147,0.0077957133263244095,1e-07,100.0,,,,,,,,,,0.7133,5.4303,20.4865,0.074,1.9589,0.322925,0.5033,0.592,12.0,,,,,,6.13926,PASS,
84,s02_leg_height_gain_sched,g000010_c2,10,,0.04326863571377714,0.0023962660687422226,1.0870159430338037e-07,9.15097172605138,,,,,,,,,,0.7253,5.6326,20.1323,0.072,1.9637,0.32296,0.5033,0.56,12.0,,,,,,5.98329,PASS,
85,s02_leg_height_gain_sched,g000010_c3,10,,0.06868968657437699,0.09437147976311443,1.8994076013185116e-07,78.55192424432926,,,,,,,,,,0.7136,5.4535,20.5431,0.074,1.9557,0.322938,0.5033,0.594,12.0,,,,,,6.15467,PASS,
86,s02_leg_height_gain_sched,g000010_c4,10,,1.7796289883679324,0.0026485902043802073,1.167071740676029e-07,29.23442110027258,,,,,,,,,,0.7123,5.4812,20.4125,0.068,1.9605,0.322987,0.5033,0.562,12.0,,,,,,6.11144,PASS,
87,s02_leg_height_gain_sched,g000010_c5,10,,0.01,0.0013002527956742626,1e-07,45.7444363111513,,,,,,,,,,0.7117,5.3751,20.6372,0.076,1.9538,0.322929,0.5033,0.604,12.0,,,,,,6.20009,PASS,
88,s02_leg_height_gain_sched,g000010_c6,10,,0.025161808090859106,0.004634096941630718,1e-07,100.0,,,,,,,,,,0.7166,5.5115,20.225,0.07,1.9674,0.322945,0.5033,0.414,12.0,,,,,,5.92956,PASS,
89,s02_leg_height_gain_sched,g000010_c7,10,,0.04346733294113414,0.062206917574415606,1.9559906473799494e-06,25.3701611885142,,,,,,,,,,0.7132,5.621,20.0862,0.062,1.9515,0.322971,0.5033,0.408,12.0,,,,,,6.05932,PASS,
90,s02_leg_height_gain_sched,g000011_c0,11,,0.01,0.0016922862168174423,4.0653871981287e-07,22.72240479099088,,,,,,,,,,0.7183,5.4143,20.5013,0.08,1.9458,0.322878,0.5033,0.61,12.0,,,,,,6.05328,PASS,
91,s02_leg_height_gain_sched,g000011_c1,11,,0.07122025512725501,0.006584578467478792,4.0959591451405934e-07,56.44228038544736,,,,,,,,,,0.725,5.4295,20.6201,0.082,1.9486,0.322881,0.5033,0.626,12.0,,,,,,6.20324,PASS,
92,s02_leg_height_gain_sched,g000011_c2,11,,0.22562675054515272,0.09086452770620491,4.299728456409018e-07,85.0493966724803,,,,,,,,,,0.715,5.3852,20.5802,0.076,1.952,0.32292,0.5033,0.604,12.0,,,,,,6.1288,PASS,
93,s02_leg_height_gain_sched,g000011_c3,11,,1.8354606189565654,0.018273920085572465,1.7310973841334736e-07,100.0,,,,,,,,,,0.7145,5.3859,20.6506,0.078,1.9523,0.322902,0.5033,0.612,12.0,,,,,,6.15621,PASS,
94,s02_leg_height_gain_sched,g000011_c4,11,,0.013068716864197144,0.02839631467769862,3.0786263987790047e-07,100.0,,,,,,,,,,0.7086,5.3265,20.5269,0.078,1.954,0.322882,0.5033,0.598,12.0,,,,,,6.07979,PASS,
95,s02_leg_height_gain_sched,g000011_c5,11,,0.01,0.02080666133944805,1.7064752497032826e-07,71.41856446743398,,,,,,,,,,0.7183,5.6451,20.2706,0.062,1.9763,0.322939,0.5033,0.402,12.0,,,,,,6.07539,PASS,
96,s02_leg_height_gain_sched,g000011_c6,11,,0.2180540961103614,0.13384103154127794,4.832765656267315e-07,84.88201218424072,,,,,,,,,,0.713,5.5417,20.1435,0.068,1.9662,0.322933,0.5033,0.41,12.0,,,,,,5.9861,PASS,
97,s02_leg_height_gain_sched,g000011_c7,11,,0.1597777638386506,0.0317183270625562,2.2847303726706304e-07,100.0,,,,,,,,,,0.7092,5.4202,20.4177,0.07,1.96,0.322969,0.5033,0.572,12.0,,,,,,5.96869,PASS,
98,s02_leg_height_gain_sched,g000012_c0,12,,0.27687555316782797,0.00527175876943389,1e-07,54.12264749752016,,,,,,,,,,0.6954,5.3319,20.4506,0.062,1.9601,0.322959,0.5033,0.414,12.0,,,,,,6.03595,PASS,
99,s02_leg_height_gain_sched,g000012_c1,12,,0.41300004038799526,0.00918255333708148,1e-07,7.911483015003495,,,,,,,,,,0.6962,5.3425,20.3934,0.062,1.9543,0.322958,0.5033,0.414,12.0,,,,,,5.96206,PASS,
100,s02_leg_height_gain_sched,g000012_c2,12,,0.26041366550963835,0.0015284150308182893,1.3504118199784541e-06,100.0,,,,,,,,,,0.7085,5.3982,20.127,0.07,1.9623,0.322901,0.5033,0.41,12.0,,,,,,5.94554,PASS,
101,s02_leg_height_gain_sched,g000012_c3,12,,0.15857445697566558,0.010730334427951361,1e-07,32.94812532644263,,,,,,,,,,0.7185,5.4012,20.6474,0.078,1.9512,0.322904,0.5033,0.616,12.0,,,,,,6.15553,PASS,
102,s02_leg_height_gain_sched,g000012_c4,12,,0.05475083005127062,0.06632280110193914,2.5838225128431394e-07,90.11830994011645,,,,,,,,,,0.6996,5.4146,20.1142,0.054,1.9705,0.322923,0.5033,0.402,12.0,,,,,,5.92977,PASS,
103,s02_leg_height_gain_sched,g000012_c5,12,,0.021817607732915842,0.009201788336749405,1e-07,25.381673774695866,,,,,,,,,,0.7055,5.3797,20.3704,0.07,1.9587,0.322913,0.5033,0.416,12.0,,,,,,5.93907,PASS,
104,s02_leg_height_gain_sched,g000012_c6,12,,0.04176188390925701,0.001,3.842746934570961e-07,100.0,,,,,,,,,,0.7085,5.3928,20.6012,0.07,1.9533,0.322929,0.5033,0.594,12.0,,,,,,6.13331,PASS,
105,s02_leg_height_gain_sched,g000012_c7,12,,0.036449700401361716,0.01107393617225375,1e-07,100.0,,,,,,,,,,0.7205,5.4113,20.5617,0.084,1.9543,0.322865,0.5033,0.614,12.0,,,,,,6.09821,PASS,
106,s02_leg_height_gain_sched,g000013_c0,13,,0.12010465889708716,0.023206011274441576,1e-07,17.346078678323646,,,,,,,,,,0.7125,5.4679,20.3394,0.072,1.9594,0.322923,0.5033,0.572,12.0,,,,,,5.98713,PASS,
107,s02_leg_height_gain_sched,g000013_c1,13,,0.01679588633527184,0.004771745035000638,1e-07,100.0,,,,,,,,,,0.7115,5.4984,20.205,0.066,1.9685,0.322955,0.5033,0.41,12.0,,,,,,6.06244,PASS,
108,s02_leg_height_gain_sched,g000013_c2,13,,0.0688132097988177,0.012391915676743135,2.274829789393387e-07,24.695214713121945,,,,,,,,,,0.7089,5.4514,20.3423,0.068,1.9582,0.32296,0.5033,0.416,12.0,,,,,,5.99207,PASS,
109,s02_leg_height_gain_sched,g000013_c3,13,,0.15991075566178403,0.011395447969934852,2.1749618102060905e-07,14.775440321556468,,,,,,,,,,0.7129,5.4818,20.3599,0.072,1.9536,0.322939,0.5033,0.576,12.0,,,,,,6.13316,PASS,
110,s02_leg_height_gain_sched,g000013_c4,13,,0.06036463693861785,0.001,4.058776798127972e-07,92.95383299839479,,,,,,,,,,0.7313,5.6373,20.1284,0.074,1.9691,0.322927,0.5033,0.568,12.0,,,,,,6.08115,PASS,
111,s02_leg_height_gain_sched,g000013_c5,13,,0.04566055539810357,0.02027495405682297,1e-07,20.4878989634963,,,,,,,,,,0.7073,5.3397,20.4841,0.074,1.9543,0.322926,0.5033,0.588,12.0,,,,,,6.05644,PASS,
112,s02_leg_height_gain_sched,g000013_c6,13,,0.033528660954864016,0.004426865769599333,1e-07,100.0,,,,,,,,,,0.712,5.398,20.5241,0.076,1.9586,0.322942,0.5033,0.594,12.0,,,,,,6.14726,PASS,
113,s02_leg_height_gain_sched,g000013_c7,13,,0.05550233252039125,0.017564016518220024,1e-07,78.51758876332349,,,,,,,,,,0.7224,5.58,20.1368,0.07,1.97,0.322932,0.5033,0.412,12.0,,,,,,6.13057,PASS,
114,s02_leg_height_gain_sched,g000014_c0,14,,0.049416598501556074,0.004680292833323993,2.1078253036216832e-07,77.44719420516772,,,,,,,,,,0.7138,5.5473,20.1471,0.066,1.9681,0.322923,0.5033,0.408,12.0,,,,,,6.05294,PASS,
115,s02_leg_height_gain_sched,g000014_c1,14,,0.10146770476983692,0.005384007770846729,1e-07,100.0,,,,,,,,,,0.7097,5.3526,20.6059,0.076,1.9541,0.3229,0.5033,0.602,12.0,,,,,,6.10458,PASS,
116,s02_leg_height_gain_sched,g000014_c2,14,,0.16493529556922015,0.006664802333510162,1.0293615844159338e-07,100.0,,,,,,,,,,0.7041,5.3569,20.5614,0.07,1.9567,0.322892,0.5033,0.582,12.0,,,,,,6.06299,PASS,
117,s02_leg_height_gain_sched,g000014_c3,14,,0.07435163200022722,0.016651388993058097,1.447676815834951e-07,68.86888223756701,,,,,,,,,,0.7061,5.4498,20.2758,0.066,1.9635,0.322927,0.5033,0.412,12.0,,,,,,6.02091,PASS,
118,s02_leg_height_gain_sched,g000014_c4,14,,0.011968832977958544,0.007677303455656036,2.3664472668640564e-07,100.0,,,,,,,,,,0.7102,5.5003,20.2876,0.066,1.9648,0.322974,0.5033,0.412,12.0,,,,,,6.02483,PASS,
119,s02_leg_height_gain_sched,g000014_c5,14,,0.014639080742863915,0.00317362351763372,1.0894981871987831e-07,10.872181482320832,,,,,,,,,,0.7092,5.4487,20.5026,0.072,1.9519,0.322937,0.5033,0.582,12.0,,,,,,6.14293,PASS,
120,s02_leg_height_gain_sched,g000014_c6,14,,0.053701848839970666,0.012213066788692571,1e-07,100.0,,,,,,,,,,0.7219,5.6277,20.2379,0.062,1.976,0.322979,0.5033,0.404,12.0,,,,,,5.97831,PASS,
121,s02_leg_height_gain_sched,g000014_c7,14,,0.06547965952463235,0.009685493437238556,2.2141549741103023e-07,100.0,,,,,,,,,,0.6949,5.3335,20.4023,0.062,1.9605,0.322927,0.5033,0.412,12.0,,,,,,5.91585,PASS,
122,s02_leg_height_gain_sched,g000015_c0,15,,0.018503129350246707,0.015419050488544693,1e-07,51.273408258723634,,,,,,,,,,0.7304,5.6952,20.2364,0.072,1.97,0.322956,0.5033,0.568,12.0,,,,,,6.13126,PASS,
123,s02_leg_height_gain_sched,g000015_c1,15,,0.10824549157420238,0.006326948908045115,1e-07,100.0,,,,,,,,,,0.7128,5.3963,20.6378,0.074,1.9541,0.322897,0.5033,0.606,12.0,,,,,,6.18161,PASS,
124,s02_leg_height_gain_sched,g000015_c2,15,,0.013613766971003076,0.00952805172427019,1.8735664369649256e-07,54.251159706580665,,,,,,,,,,0.7038,5.4549,20.2282,0.064,1.9647,0.322948,0.5033,0.408,12.0,,,,,,5.98971,PASS,
125,s02_leg_height_gain_sched,g000015_c3,15,,0.08537969819167218,0.010302294619335533,2.076601809153585e-07,100.0,,,,,,,,,,0.707,5.4784,20.2937,0.064,1.9651,0.322945,0.5033,0.412,12.0,,,,,,5.99583,PASS,
126,s02_leg_height_gain_sched,g000015_c4,15,,0.030826972689048087,0.009510759087894746,1e-07,48.089412864893106,,,,,,,,,,0.6989,5.3564,20.3668,0.062,1.9609,0.322927,0.5033,0.412,12.0,,,,,,5.94749,PASS,
127,s02_leg_height_gain_sched,g000015_c5,15,,0.10803014696480012,0.005642787842533844,1e-07,100.0,,,,,,,,,,0.7218,5.5721,20.1439,0.068,1.9699,0.322935,0.5033,0.412,12.0,,,,,,6.03385,PASS,
128,s02_leg_height_gain_sched,g000015_c6,15,,0.10042605928057259,0.005631842824171417,1e-07,100.0,,,,,,,,,,0.7169,5.6172,20.2364,0.06,1.9778,0.322993,0.5033,0.4,12.0,,,,,,6.04607,PASS,
129,s02_leg_height_gain_sched,g000015_c7,15,,0.025995952215021434,0.017668550334615236,2.0288347945068664e-07,78.93388372486126,,,,,,,,,,0.7133,5.4021,20.6663,0.076,1.9519,0.322916,0.5033,0.606,12.0,,,,,,6.18353,PASS,
130,s02_leg_height_gain_sched,g000016_c0,16,,0.030698115129961873,0.007455122124422984,1.2829493013154748e-07,100.0,,,,,,,,,,0.7131,5.3381,20.5481,0.08,1.9547,0.322874,0.5033,0.604,12.0,,,,,,6.10786,PASS,
131,s02_leg_height_gain_sched,g000016_c1,16,,0.2007362967539272,0.006876051561304414,1.6856734613428557e-07,100.0,,,,,,,,,,0.7177,5.6256,20.2819,0.06,1.9772,0.322963,0.5033,0.402,12.0,,,,,,6.0379,PASS,
132,s02_leg_height_gain_sched,g000016_c2,16,,0.10401963483828403,0.009869577886837783,2.1870968804156543e-07,100.0,,,,,,,,,,0.6582,5.0038,20.0369,0.014,1.9775,0.322909,0.5033,0.38,12.0,,,,,,5.72532,PASS,
133,s02_leg_height_gain_sched,g000016_c3,16,,0.05547203337393618,0.0051225966680680576,1e-07,100.0,,,,,,,,,,0.723,5.6735,20.25,0.068,1.9719,0.322979,0.5033,0.41,12.0,,,,,,6.05227,PASS,
134,s02_leg_height_gain_sched,g000016_c4,16,,0.04634481920433853,0.0058232132803059874,1e-07,100.0,,,,,,,,,,0.7056,5.437,20.4137,0.066,1.9626,0.32296,0.5033,0.414,12.0,,,,,,6.0153,PASS,
135,s02_leg_height_gain_sched,g000016_c5,16,,0.049160713565563716,0.003419574667167679,1e-07,69.86445525757976,,,,,,,,,,0.7074,5.4624,20.4282,0.066,1.9625,0.322949,0.5033,0.414,12.0,,,,,,6.01741,PASS,
136,s02_leg_height_gain_sched,g000016_c6,16,,0.030006774179053897,0.003882972763256056,1.1716350378960627e-07,62.64159853629775,,,,,,,,,,0.7076,5.3696,20.5612,0.072,1.9554,0.322909,0.5033,0.59,12.0,,,,,,6.05711,PASS,
137,s02_leg_height_gain_sched,g000016_c7,16,,0.06078024951715397,0.008226761183164977,1.2097699531942049e-07,63.622421675137296,,,,,,,,,,0.7116,5.4104,20.6014,0.074,1.9553,0.322956,0.5033,0.598,12.0,,,,,,6.13605,PASS,
138,s02_leg_height_gain_sched,g000017_c0,17,,0.08256317395248854,0.017507811750332794,3.0578064113338124e-07,90.6730070037836,,,,,,,,,,0.7296,5.4603,20.5322,0.086,1.9532,0.32289,0.5033,0.624,12.0,,,,,,6.17549,PASS,
139,s02_leg_height_gain_sched,g000017_c1,17,,0.07931552325857588,0.020397112365102155,2.3442508430038244e-07,74.50908964866932,,,,,,,,,,0.7083,5.4146,20.3339,0.072,1.9604,0.322936,0.5033,0.416,12.0,,,,,,5.89856,PASS,
140,s02_leg_height_gain_sched,g000017_c2,17,,0.08281160270709086,0.002148656192197112,2.814626302549792e-07,100.0,,,,,,,,,,0.7218,5.6536,20.2335,0.066,1.9695,0.322971,0.5033,0.41,12.0,,,,,,6.02365,PASS,
141,s02_leg_height_gain_sched,g000017_c3,17,,0.07509157367691408,0.01770207611226507,5.447022210355535e-07,92.9000865293706,,,,,,,,,,0.7181,5.5997,20.2501,0.068,1.9653,0.323005,0.5033,0.412,12.0,,,,,,6.091,PASS,
142,s02_leg_height_gain_sched,g000017_c4,17,,0.07275213746228405,0.008095683003716185,2.7531394770576714e-07,100.0,,,,,,,,,,0.702,5.4054,20.3011,0.06,1.9625,0.322939,0.5033,0.41,12.0,,,,,,5.91967,PASS,
143,s02_leg_height_gain_sched,g000017_c5,17,,0.08862421600183641,0.018532906501880036,1.6861071180772512e-07,100.0,,,,,,,,,,0.7262,5.7074,20.3291,0.066,1.9732,0.322986,0.5033,0.41,12.0,,,,,,6.07435,PASS,
144,s02_leg_height_gain_sched,g000017_c6,17,,0.16293294107955086,0.006997280597106029,1.8101056412727328e-07,61.08772913703214,,,,,,,,,,0.7247,5.5831,20.132,0.072,1.9674,0.322904,0.5033,0.414,12.0,,,,,,6.05279,PASS,
145,s02_leg_height_gain_sched,g000017_c7,17,,0.07693707355865984,0.009249046089101086,3.797639392464864e-07,100.0,,,,,,,,,,0.7118,5.5059,20.172,0.064,1.9666,0.322943,0.5033,0.41,12.0,,,,,,6.02185,PASS,
146,s02_leg_height_gain_sched,g000018_c0,18,,0.10461664862246,0.007380207838444048,1.258920756398154e-07,100.0,,,,,,,,,,0.7229,5.6105,20.1618,0.07,1.9739,0.322944,0.5033,0.406,12.0,,,,,,6.00574,PASS,
147,s02_leg_height_gain_sched,g000018_c1,18,,0.06460023601652011,0.012522716371585536,3.078348610228867e-07,100.0,,,,,,,,,,0.7275,5.7462,20.4166,0.066,1.9748,0.32302,0.5033,0.406,12.0,,,,,,6.19454,PASS,
148,s02_leg_height_gain_sched,g000018_c2,18,,0.18424901276449066,0.005445281725840935,1.9291780715886743e-07,64.42385684229488,,,,,,,,,,0.7275,5.5851,20.1615,0.072,1.9672,0.322938,0.5033,0.57,12.0,,,,,,6.06045,PASS,
149,s02_leg_height_gain_sched,g000018_c3,18,,0.06801218098683699,0.006732826556335629,2.4043166301804735e-07,87.59303274140217,,,,,,,,,,0.6912,5.311,20.4388,0.06,1.9592,0.322959,0.5033,0.412,12.0,,,,,,5.95797,PASS,
150,s02_leg_height_gain_sched,g000018_c4,18,,0.1707991405065088,0.009730167307976883,1.3306899013351937e-07,100.0,,,,,,,,,,0.722,5.4316,20.5185,0.082,1.9549,0.322889,0.5033,0.612,12.0,,,,,,6.11253,PASS,
151,s02_leg_height_gain_sched,g000018_c5,18,,0.09754427601793093,0.014644647192887295,2.92128925107715e-07,61.15202997011552,,,,,,,,,,0.703,5.3358,20.2109,0.072,1.965,0.322939,0.5033,0.41,12.0,,,,,,5.88471,PASS,
152,s02_leg_height_gain_sched,g000018_c6,18,,0.08605112274234107,0.007560872102116576,3.2349427369185025e-07,100.0,,,,,,,,,,0.7297,5.5992,20.1234,0.074,1.9671,0.322923,0.5033,0.574,12.0,,,,,,6.08346,PASS,
153,s02_leg_height_gain_sched,g000018_c7,18,,0.12771408414249538,0.01072941639475968,2.062810601342574e-07,99.22726053236093,,,,,,,,,,0.71,5.3342,20.5265,0.078,1.9546,0.322913,0.5033,0.6,12.0,,,,,,6.13811,PASS,
154,s02_leg_height_gain_sched,g000019_c0,19,,0.10799030584013616,0.009896771107268476,1.2287058175942375e-07,96.56538109194055,,,,,,,,,,0.7105,5.4219,20.3421,0.072,1.9611,0.322896,0.5033,0.564,12.0,,,,,,5.97159,PASS,
155,s02_leg_height_gain_sched,g000019_c1,19,,0.07185415617512825,0.010118191094660878,1.9866704494929353e-07,96.12428493822749,,,,,,,,,,0.7117,5.5891,20.2159,0.056,1.9758,0.322934,0.5033,0.4,12.0,,,,,,5.98565,PASS,
156,s02_leg_height_gain_sched,g000019_c2,19,,0.08575532300078978,0.013130047615241605,1.8132729064586838e-07,97.82995741513722,,,,,,,,,,0.7092,5.4813,20.2336,0.066,1.9656,0.322951,0.5033,0.41,12.0,,,,,,5.91221,PASS,
157,s02_leg_height_gain_sched,g000019_c3,19,,0.06070051043105877,0.007522825969472394,2.456997525737277e-07,100.0,,,,,,,,,,0.7141,5.4325,20.4652,0.074,1.9573,0.322946,0.5033,0.592,12.0,,,,,,6.10822,PASS,
158,s02_leg_height_gain_sched,g000019_c4,19,,0.09800828921159398,0.005648656560899053,2.3209803167314515e-07,80.1276749065176,,,,,,,,,,0.7028,5.4147,20.5656,0.07,1.9563,0.322979,0.5033,0.42,12.0,,,,,,6.05104,PASS,
159,s02_leg_height_gain_sched,g000019_c5,19,,0.08508346289423313,0.014057424556539584,3.5963722904172666e-07,100.0,,,,,,,,,,0.7061,5.3946,20.6078,0.07,1.9538,0.322951,0.5033,0.584,12.0,,,,,,6.09439,PASS,
160,s02_leg_height_gain_sched,g000019_c6,19,,0.14754048293633149,0.01540944873041238,2.9403435766843395e-07,100.0,,,,,,,,,,0.7062,5.3541,20.465,0.074,1.9558,0.322884,0.5033,0.582,12.0,,,,,,6.06102,PASS,
161,s02_leg_height_gain_sched,g000019_c7,19,,0.11891460679524951,0.016354411313151886,3.210312975418119e-07,62.13544997931378,,,,,,,,,,0.7085,5.4907,20.1807,0.064,1.9645,0.322937,0.5033,0.41,12.0,,,,,,6.06272,PASS,
162,s02_leg_height_gain_sched,g000020_c0,20,,0.13070678479772876,0.008321824581570538,2.331054217767675e-07,100.0,,,,,,,,,,0.7139,5.3721,20.5762,0.076,1.9547,0.322939,0.5033,0.604,12.0,,,,,,6.18293,PASS,
163,s02_leg_height_gain_sched,g000020_c1,20,,0.09443262215729284,0.010838030012933021,2.5230315267969005e-07,100.0,,,,,,,,,,0.7129,5.5794,20.1816,0.062,1.9702,0.322989,0.5033,0.406,12.0,,,,,,5.9636,PASS,
164,s02_leg_height_gain_sched,g000020_c2,20,,0.1379950219990021,0.01234045545429846,3.744304541170217e-07,63.87943312834014,,,,,,,,,,0.6877,5.3212,20.4614,0.054,1.9571,0.322965,0.5033,0.41,12.0,,,,,,6.01349,PASS,
165,s02_leg_height_gain_sched,g000020_c3,20,,0.13417150578319714,0.010358589842505156,1.7918938420091737e-07,99.4980972399127,,,,,,,,,,0.7044,5.4671,20.2113,0.062,1.9672,0.322945,0.5033,0.408,12.0,,,,,,5.93112,PASS,
166,s02_leg_height_gain_sched,g000020_c4,20,,0.10345981355123358,0.014389777297083262,1.5421009206578917e-07,97.82279075712498,,,,,,,,,,0.7097,5.3313,20.5413,0.078,1.9555,0.322897,0.5033,0.6,12.0,,,,,,6.14336,PASS,
167,s02_leg_height_gain_sched,g000020_c5,20,,0.08429517518707304,0.007573574833288922,1.5829620805318294e-07,92.52514172408857,,,,,,,,,,0.72,5.6364,20.1728,0.066,1.9713,0.322933,0.5033,0.408,12.0,,,,,,5.85101,PASS,
168,s02_leg_height_gain_sched,g000020_c6,20,,0.10668405693240106,0.010672774039808031,2.237429215871801e-07,100.0,,,,,,,,,,0.712,5.4203,20.6083,0.076,1.954,0.322938,0.5033,0.6,12.0,,,,,,6.20206,PASS,
169,s02_leg_height_gain_sched,g000020_c7,20,,0.10143318271159969,0.008137520659302493,2.0480170018511286e-07,100.0,,,,,,,,,,0.7313,5.6371,20.1458,0.074,1.9704,0.322933,0.5033,0.568,12.0,,,,,,6.05741,PASS,
170,s02_leg_height_gain_sched,g000021_c0,21,,0.12246940206073804,0.009675260181117628,1.5785873764171704e-07,100.0,,,,,,,,,,0.7048,5.4323,20.2764,0.064,1.9647,0.322918,0.5033,0.41,12.0,,,,,,5.94614,PASS,
171,s02_leg_height_gain_sched,g000021_c1,21,,0.11170784422103956,0.009466441035104835,1.900025294207043e-07,98.86427589399385,,,,,,,,,,0.6998,5.4049,20.2909,0.064,1.9638,0.322941,0.5033,0.41,12.0,,,,,,5.95761,PASS,
172,s02_leg_height_gain_sched,g000021_c2,21,,0.09975780998607732,0.011808621298937404,1.7943976032358938e-07,90.99121509242383,,,,,,,,,,0.7055,5.4357,20.2812,0.066,1.9634,0.322946,0.5033,0.412,12.0,,,,,,5.94089,PASS,
173,s02_leg_height_gain_sched,g000021_c3,21,,0.080934952480553,0.010872787002799589,2.2898961063733443e-07,73.92636809227581,,,,,,,,,,0.6966,5.3271,20.4574,0.066,1.9576,0.322933,0.5033,0.416,12.0,,,,,,5.98705,PASS,
174,s02_leg_height_gain_sched,g000021_c4,21,,0.06371960306513148,0.008054208705144972,3.169635728767541e-07,78.32465181660305,,,,,,,,,,0.7265,5.5155,20.5213,0.082,1.9553,0.322935,0.5033,0.61,12.0,,,,,,6.23732,PASS,
175,s02_leg_height_gain_sched,g000021_c5,21,,0.10069605224118001,0.008327995724376654,2.3077723134293113e-07,100.0,,,,,,,,,,0.7057,5.4395,20.3483,0.066,1.9619,0.322937,0.5033,0.414,12.0,,,,,,5.9866,PASS,
176,s02_leg_height_gain_sched,g000021_c6,21,,0.1188424149785584,0.00991210272512649,2.122123666115392e-07,66.23110783511397,,,,,,,,,,0.6988,5.394,20.4104,0.062,1.96,0.322974,0.5033,0.412,12.0,,,,,,5.92195,PASS,
177,s02_leg_height_gain_sched,g000021_c7,21,,0.12552791871837843,0.007930728282029478,2.8480159913659167e-07,100.0,,,,,,,,,,0.7005,5.3901,20.3265,0.064,1.9613,0.322922,0.5033,0.412,12.0,,,,,,5.97889,PASS,
178,s02_leg_height_gain_sched,g000022_c0,22,,0.10355220970039865,0.012233081117187534,2.1430313595875003e-07,100.0,,,,,,,,,,0.6999,5.3757,20.6299,0.066,1.9555,0.322973,0.5033,0.42,12.0,,,,,,6.06679,PASS,
179,s02_leg_height_gain_sched,g000022_c1,22,,0.113393251455789,0.00786139817768021,1.9336819403252795e-07,100.0,,,,,,,,,,0.7002,5.3831,20.3425,0.064,1.9617,0.322938,0.5033,0.412,12.0,,,,,,5.93609,PASS,
180,s02_leg_height_gain_sched,g000022_c2,22,,0.1120426862112605,0.009603686808500931,2.204367451244358e-07,99.57452856742783,,,,,,,,,,0.7159,5.4009,20.5482,0.078,1.9553,0.322923,0.5033,0.604,12.0,,,,,,6.09805,PASS,
181,s02_leg_height_gain_sched,g000022_c3,22,,0.09499267139066203,0.00997109143792259,1.9367189297340697e-07,97.50188522526699,,,,,,,,,,0.7092,5.4402,20.5367,0.072,1.9567,0.32294,0.5033,0.582,12.0,,,,,,6.0831,PASS,
182,s02_leg_height_gain_sched,g000022_c4,22,,0.1313292625841129,0.008324713165471866,1.9577319440886585e-07,93.19110188824192,,,,,,,,,,0.7103,5.3957,20.6243,0.072,1.9529,0.322934,0.5033,0.6,12.0,,,,,,6.04702,PASS,
183,s02_leg_height_gain_sched,g000022_c5,22,,0.08968911188007048,0.010582020106814097,2.9795160775083525e-07,100.0,,,,,,,,,,0.7074,5.4232,20.5205,0.07,1.9569,0.322938,0.5033,0.578,12.0,,,,,,6.07941,PASS,
184,s02_leg_height_gain_sched,g000022_c6,22,,0.08948202531664122,0.010162470000657472,1.7818641713584522e-07,100.0,,,,,,,,,,0.7081,5.4167,20.543,0.068,1.9588,0.322985,0.5033,0.578,12.0,,,,,,6.05232,PASS,
185,s02_leg_height_gain_sched,g000022_c7,22,,0.10226330955446004,0.009016707331512512,2.0624619747372798e-07,100.0,,,,,,,,,,0.7124,5.4546,20.2812,0.072,1.9635,0.322942,0.5033,0.416,12.0,,,,,,5.96018,PASS,
186,s02_leg_height_gain_sched,g000023_c0,23,,0.10293360710553126,0.009837438265812511,2.7803582999134786e-07,100.0,,,,,,,,,,0.7293,5.6008,20.1318,0.074,1.9673,0.322917,0.5033,0.572,12.0,,,,,,6.10448,PASS,
187,s02_leg_height_gain_sched,g000023_c1,23,,0.1008515733934708,0.010279488630550554,2.541725617583888e-07,100.0,,,,,,,,,,0.7131,5.4199,20.4836,0.076,1.9558,0.322906,0.5033,0.592,12.0,,,,,,6.03187,PASS,
188,s02_leg_height_gain_sched,g000023_c2,23,,0.09070747111006836,0.009906423872801585,2.452806620382083e-07,100.0,,,,,,,,,,0.7092,5.4232,20.4075,0.07,1.9588,0.322925,0.5033,0.574,12.0,,,,,,5.96363,PASS,
189,s02_leg_height_gain_sched,g000023_c3,23,,0.09722922560162332,0.009874716472231548,1.973757069211187e-07,100.0,,,,,,,,,,0.7117,5.3709,20.5817,0.074,1.9545,0.322938,0.5033,0.6,12.0,,,,,,6.20621,PASS,
190,s02_leg_height_gain_sched,g000023_c4,23,,0.09721874838067864,0.009200968380768436,2.44303335821043e-07,100.0,,,,,,,,,,0.7132,5.4289,20.483,0.074,1.9571,0.322943,0.5033,0.59,12.0,,,,,,6.05745,PASS,
191,s02_leg_height_gain_sched,g000023_c5,23,,0.12342145113977544,0.010602961785868082,1.7466048516542865e-07,86.65515735492603,,,,,,,,,,0.7081,5.4202,20.4179,0.07,1.9597,0.322901,0.5033,0.562,12.0,,,,,,6.02666,PASS,
192,s02_leg_height_gain_sched,g000023_c6,23,,0.0808834062000221,0.007310779494325975,2.396434924564036e-07,88.13837278260351,,,,,,,,,,0.7062,5.3432,20.4553,0.072,1.9568,0.322909,0.5033,0.582,12.0,,,,,,5.96369,PASS,
193,s02_leg_height_gain_sched,g000023_c7,23,,0.10255120486214586,0.008538038280682112,2.198807901932674e-07,69.59902715646868,,,,,,,,,,0.7077,5.4376,20.4254,0.07,1.9601,0.322983,0.5033,0.416,12.0,,,,,,6.09371,PASS,
194,s02_leg_height_gain_sched,g000024_c0,24,,0.08825084470009176,0.007519652960090497,2.2913043911687513e-07,96.0941935440775,,,,,,,,,,0.7027,5.4368,20.1039,0.054,1.9713,0.322919,0.5033,0.402,12.0,,,,,,5.96227,PASS,
195,s02_leg_height_gain_sched,g000024_c1,24,,0.12927012206017338,0.010547299310920119,2.457332065786369e-07,100.0,,,,,,,,,,0.7221,5.491,20.2701,0.074,1.9629,0.32292,0.5033,0.582,12.0,,,,,,6.04803,PASS,
196,s02_leg_height_gain_sched,g000024_c2,24,,0.10796198798160037,0.008939105429370452,1.8471965879236854e-07,100.0,,,,,,,,,,0.6944,5.327,20.4246,0.062,1.9587,0.322896,0.5033,0.414,12.0,,,,,,6.00773,PASS,
197,s02_leg_height_gain_sched,g000024_c3,24,,0.1196560310868001,0.010538398013233514,2.3416593570998607e-07,96.64074300823836,,,,,,,,,,0.6979,5.3713,20.2771,0.062,1.9637,0.322919,0.5033,0.41,12.0,,,,,,5.98699,PASS,
198,s02_leg_height_gain_sched,g000024_c4,24,,0.12413084894575195,0.009145385780206157,2.0482036139166673e-07,89.99284400596255,,,,,,,,,,0.7033,5.4303,20.2613,0.062,1.9644,0.322944,0.5033,0.41,12.0,,,,,,6.02218,PASS,
199,s02_leg_height_gain_sched,g000024_c5,24,,0.13276192354664546,0.00946521332506212,2.1966614080578602e-07,93.41817879005367,,,,,,,,,,0.7112,5.3607,20.5793,0.076,1.9535,0.322897,0.5033,0.602,12.0,,,,,,6.11968,PASS,
200,s02_leg_height_gain_sched,g000024_c6,24,,0.10477284233718373,0.013229005317726297,2.459530709717131e-07,100.0,,,,,,,,,,0.6929,5.3925,20.1417,0.034,1.9766,0.322926,0.5033,0.394,12.0,,,,,,5.89596,PASS,
201,s02_leg_height_gain_sched,g000024_c7,24,,0.09355111020355854,0.010228049478978186,2.241353898117273e-07,100.0,,,,,,,,,,0.711,5.4956,20.2894,0.066,1.9639,0.322947,0.5033,0.414,12.0,,,,,,5.98358,PASS,
202,s02_leg_height_gain_sched,g000025_c0,25,,0.1346733014887311,0.011611542962659658,2.3734293910000516e-07,92.38776961089047,,,,,,,,,,0.7101,5.3281,20.5497,0.078,1.9551,0.322927,0.5033,0.6,12.0,,,,,,6.07799,PASS,
203,s02_leg_height_gain_sched,g000025_c1,25,,0.10705817551412286,0.010049416643099397,1.8016789340067844e-07,93.66966986900816,,,,,,,,,,0.7032,5.4666,20.299,0.06,1.9664,0.322991,0.5033,0.408,12.0,,,,,,6.09374,PASS,
204,s02_leg_height_gain_sched,g000025_c2,25,,0.09467097014549232,0.0107997483714761,2.0610421951838716e-07,98.94951319005857,,,,,,,,,,0.7064,5.447,20.3585,0.066,1.9619,0.32294,0.5033,0.414,12.0,,,,,,6.01252,PASS,
205,s02_leg_height_gain_sched,g000025_c3,25,,0.11440826103944497,0.0101360230677465,2.0031058776552348e-07,100.0,,,,,,,,,,0.6883,5.3121,20.4938,0.056,1.9607,0.322999,0.5033,0.41,12.0,,,,,,6.09073,PASS,
206,s02_leg_height_gain_sched,g000025_c4,25,,0.1050689090881618,0.0098941586583566,1.8949544591935433e-07,89.53554917821316,,,,,,,,,,0.7126,5.4143,20.4941,0.074,1.9564,0.32291,0.5033,0.594,12.0,,,,,,6.13762,PASS,
207,s02_leg_height_gain_sched,g000025_c5,25,,0.11076329072797554,0.00961578098533113,2.3741316830313637e-07,88.09593398743269,,,,,,,,,,0.7128,5.562,20.1211,0.064,1.9699,0.322941,0.5033,0.406,12.0,,,,,,5.91668,PASS,
208,s02_leg_height_gain_sched,g000025_c6,25,,0.10144085696253037,0.009489226270311714,1.9593249497456218e-07,86.74290211899253,,,,,,,,,,0.7036,5.3947,20.5649,0.068,1.9565,0.322946,0.5033,0.572,12.0,,,,,,5.99341,PASS,
209,s02_leg_height_gain_sched,g000025_c7,25,,0.09054042554902471,0.009265218774264472,2.649501921185e-07,100.0,,,,,,,,,,0.7042,5.3938,20.1782,0.06,1.9701,0.322984,0.5033,0.406,12.0,,,,,,5.94953,PASS,
210,s02_leg_height_gain_sched,g000026_c0,26,,0.10495278401826677,0.010338332811196206,2.1841506015690697e-07,96.75503811116026,,,,,,,,,,0.7047,5.411,20.5338,0.068,1.9577,0.322965,0.5033,0.564,12.0,,,,,,6.06382,PASS,
211,s02_leg_height_gain_sched,g000026_c1,26,,0.1100252223177692,0.009790174899482883,2.1302963983239504e-07,100.0,,,,,,,,,,0.6949,5.3272,20.4309,0.062,1.9592,0.322941,0.5033,0.414,12.0,,,,,,6.03088,PASS,
212,s02_leg_height_gain_sched,g000026_c2,26,,0.0991831417139092,0.010226640196650183,2.397531083109228e-07,100.0,,,,,,,,,,0.7075,5.3667,20.5429,0.072,1.9546,0.322915,0.5033,0.59,12.0,,,,,,6.05153,PASS,
213,s02_leg_height_gain_sched,g000026_c3,26,,0.10039823191810054,0.009402397971340133,2.0553362893253186e-07,98.75908583856938,,,,,,,,,,0.7205,5.525,20.2014,0.07,1.9656,0.322925,0.5033,0.562,12.0,,,,,,6.00457,PASS,
214,s02_leg_height_gain_sched,g000026_c4,26,,0.10173408753617498,0.009604598398640403,2.3441015527551218e-07,95.55689594165153,,,,,,,,,,0.7248,5.5798,20.1399,0.072,1.968,0.322917,0.5033,0.414,12.0,,,,,,6.02198,PASS,
215,s02_leg_height_gain_sched,g000026_c5,26,,0.12189350137389889,0.010018470313109243,2.2807626065843e-07,86.49177932214049,,,,,,,,,,0.708,5.3902,20.1742,0.072,1.9675,0.322937,0.5033,0.41,12.0,,,,,,5.90666,PASS,
216,s02_leg_height_gain_sched,g000026_c6,26,,0.10918153173619999,0.009753828076602699,2.1605929034113824e-07,100.0,,,,,,,,,,0.7069,5.4344,20.5314,0.07,1.9572,0.322947,0.5033,0.576,12.0,,,,,,6.11723,PASS,
217,s02_leg_height_gain_sched,g000026_c7,26,,0.08408801874969536,0.010321637446762183,2.390091303309431e-07,100.0,,,,,,,,,,0.7066,5.4747,20.203,0.066,1.9654,0.322919,0.5033,0.41,12.0,,,,,,5.91835,PASS,
218,s02_leg_height_gain_sched,g000027_c0,27,,0.10725059317672407,0.00972522192932003,2.0764327742227303e-07,98.61006639336361,,,,,,,,,,0.703,5.3924,20.1585,0.058,1.9692,0.32291,0.5033,0.406,12.0,,,,,,5.87681,PASS,
219,s02_leg_height_gain_sched,g000027_c1,27,,0.10172288139629018,0.0100735001334164,2.283240506247801e-07,100.0,,,,,,,,,,0.7017,5.5042,20.1834,0.052,1.9714,0.32295,0.5033,0.402,12.0,,,,,,5.89078,PASS,
220,s02_leg_height_gain_sched,g000027_c2,27,,0.106979810282708,0.01012261031714417,2.188231745703662e-07,97.25039098334716,,,,,,,,,,0.7059,5.3852,20.3754,0.07,1.9597,0.322903,0.5033,0.416,12.0,,,,,,5.99701,PASS,
221,s02_leg_height_gain_sched,g000027_c3,27,,0.0934667116062689,0.009981755492451904,2.2365212899943811e-07,100.0,,,,,,,,,,0.7078,5.4537,20.3543,0.068,1.9626,0.322963,0.5033,0.414,12.0,,,,,,5.98745,PASS,
222,s02_leg_height_gain_sched,g000027_c4,27,,0.11332435745977124,0.009290255783853,2.264400840362208e-07,100.0,,,,,,,,,,0.6971,5.3302,20.447,0.066,1.9587,0.322917,0.5033,0.416,12.0,,,,,,5.98962,PASS,
223,s02_leg_height_gain_sched,g000027_c5,27,,0.09985288248333736,0.009988113103755584,2.1145540305961345e-07,100.0,,,,,,,,,,0.7062,5.365,20.4119,0.072,1.9574,0.322878,0.5033,0.574,12.0,,,,,,5.93112,PASS,
224,s02_leg_height_gain_sched,g000027_c6,27,,0.10547862150652601,0.009601951014874911,2.2360499188558768e-07,100.0,,,,,,,,,,0.7051,5.3315,20.4814,0.072,1.9559,0.32286,0.5033,0.584,12.0,,,,,,6.05466,PASS,
225,s02_leg_height_gain_sched,g000027_c7,27,,0.12303741897035458,0.010574483584501118,2.2687704293859456e-07,100.0,,,,,,,,,,0.7231,5.7028,20.3089,0.066,1.9733,0.323006,0.5033,0.408,12.0,,,,,,6.11726,PASS,
226,s02_leg_height_gain_sched,g000028_c0,28,,0.1092635333636274,0.010576716514039112,2.2410072002743743e-07,100.0,,,,,,,,,,0.7075,5.4508,20.3553,0.068,1.9618,0.322953,0.5033,0.414,12.0,,,,,,6.00812,PASS,
227,s02_leg_height_gain_sched,g000028_c1,28,,0.10681521062539887,0.01024042810631812,2.3338041577485646e-07,100.0,,,,,,,,,,0.7229,5.4217,20.5507,0.084,1.9528,0.322851,0.5033,0.62,12.0,,,,,,6.08695,PASS,
228,s02_leg_height_gain_sched,g000028_c2,28,,0.1038071343769019,0.009725585625852488,2.446535006584064e-07,100.0,,,,,,,,,,0.7092,5.3438,20.4874,0.076,1.9544,0.322871,0.5033,0.594,12.0,,,,,,6.03571,PASS,
229,s02_leg_height_gain_sched,g000028_c3,28,,0.10196721032207123,0.009204695374041113,2.2779984861116846e-07,100.0,,,,,,,,,,0.7253,5.476,20.4727,0.082,1.9559,0.322883,0.5033,0.61,12.0,,,,,,6.15983,PASS,
230,s02_leg_height_gain_sched,g000028_c4,28,,0.10653887032652395,0.010649495694255261,2.2269618252615876e-07,100.0,,,,,,,,,,0.7189,5.5653,20.2392,0.07,1.9663,0.322971,0.5033,0.414,12.0,,,,,,6.04643,PASS,
231,s02_leg_height_gain_sched,g000028_c5,28,,0.10482266553575832,0.009321859873910687,2.278926580624768e-07,89.69799613618076,,,,,,,,,,0.7132,5.4232,20.4797,0.076,1.9565,0.322929,0.5033,0.594,12.0,,,,,,6.10782,PASS,
232,s02_leg_height_gain_sched,g000028_c6,28,,0.1058257177402067,0.010224292166029526,2.217988023954432e-07,98.38233727185283,,,,,,,,,,0.7321,5.6455,20.1522,0.074,1.9707,0.322947,0.5033,0.57,12.0,,,,,,6.14182,PASS,
233,s02_leg_height_gain_sched,g000028_c7,28,,0.10798607637732272,0.01043249845644433,2.2278308116201736e-07,100.0,,,,,,,,,,0.7087,5.4847,20.3032,0.064,1.9654,0.322982,0.5033,0.412,12.0,,,,,,6.00543,PASS,
234,s02_leg_height_gain_sched,g000029_c0,29,,0.10666718433351688,0.010224512479518331,2.2988086877710272e-07,95.57757165458848,,,,,,,,,,0.7152,5.5121,20.1944,0.068,1.9664,0.322949,0.5033,0.412,12.0,,,,,,6.04459,PASS,
235,s02_leg_height_gain_sched,g000029_c1,29,,0.10634728334067045,0.009903297767262703,2.2775269076695718e-07,100.0,,,,,,,,,,0.7229,5.6507,20.2716,0.064,1.9755,0.322944,0.5033,0.404,12.0,,,,,,5.96933,PASS,
236,s02_leg_height_gain_sched,g000029_c2,29,,0.10756358491336523,0.009740870276114314,2.051793119028483e-07,97.38563469702173,,,,,,,,,,0.7098,5.5861,20.2289,0.054,1.9762,0.322951,0.5033,0.398,12.0,,,,,,5.97742,PASS,
237,s02_leg_height_gain_sched,g000029_c3,29,,0.1050753428208139,0.009886061354416144,2.142164440557398e-07,94.48753764662489,,,,,,,,,,0.7175,5.3943,20.5668,0.082,1.9527,0.322862,0.5033,0.612,12.0,,,,,,6.16887,PASS,
238,s02_leg_height_gain_sched,g000029_c4,29,,0.0998910392761192,0.010308091804675063,2.2623981960338696e-07,100.0,,,,,,,,,,0.6989,5.413,20.1968,0.06,1.9666,0.32294,0.5033,0.406,12.0,,,,,,5.94438,PASS,
239,s02_leg_height_gain_sched,g000029_c5,29,,0.10995466025478522,0.00939525455535424,2.0285219004344225e-07,100.0,,,,,,,,,,0.6982,5.3813,20.3281,0.06,1.9626,0.322956,0.5033,0.41,12.0,,,,,,5.94074,PASS,
240,s02_leg_height_gain_sched,g000029_c6,29,,0.10133571261473316,0.009499217910997886,2.1923521466087819e-07,96.053412023607,,,,,,,,,,0.7068,5.3668,20.5466,0.072,1.9551,0.322886,0.5033,0.588,12.0,,,,,,6.07157,PASS,
241,s02_leg_height_gain_sched,g000029_c7,29,,0.09990725544393181,0.010003090411230006,2.0577499398725925e-07,99.89610680144271,,,,,,,,,,0.701,5.2589,20.2901,0.07,1.9657,0.322899,0.5033,0.414,12.0,,,,,,5.88286,PASS,
242,s02_leg_height_gain_sched,g000030_c0,30,,0.10295776962043607,0.009464112343850166,2.2324954561935045e-07,99.53909964804447,,,,,,,,,,0.7065,5.3442,20.456,0.072,1.9571,0.32291,0.5033,0.582,12.0,,,,,,5.96717,PASS,
243,s02_leg_height_gain_sched,g000030_c1,30,,0.1034143288128448,0.009646953982436198,2.1920096157283088e-07,97.98214670048054,,,,,,,,,,0.7105,5.3937,20.625,0.074,1.9534,0.322898,0.5033,0.6,12.0,,,,,,6.10779,PASS,
244,s02_leg_height_gain_sched,g000030_c2,30,,0.09783657860519351,0.009769545574441032,2.1243989171313325e-07,94.61257409972404,,,,,,,,,,0.7093,5.3806,20.5385,0.072,1.9562,0.322927,0.5033,0.59,12.0,,,,,,6.07329,PASS,
245,s02_leg_height_gain_sched,g000030_c3,30,,0.1057728116126061,0.009759314586986851,2.2165727618481119e-07,95.67825140892414,,,,,,,,,,0.7187,5.4108,20.6915,0.08,1.9518,0.322917,0.5033,0.618,12.0,,,,,,6.22684,PASS,
246,s02_leg_height_gain_sched,g000030_c4,30,,0.09958251134538898,0.010372256392665456,2.1796336834481831e-07,100.0,,,,,,,,,,0.7087,5.5765,20.2116,0.054,1.9764,0.322964,0.5033,0.398,12.0,,,,,,6.01664,PASS,
247,s02_leg_height_gain_sched,g000030_c5,30,,0.10416302729742144,0.01013941712542372,2.0639129271040363e-07,100.0,,,,,,,,,,0.7157,5.5173,20.1877,0.068,1.9672,0.322939,0.5033,0.412,12.0,,,,,,6.07117,PASS,
248,s02_leg_height_gain_sched,g000030_c6,30,,0.10107275082149518,0.009953836158641871,2.2385665390314224e-07,99.94975194703864,,,,,,,,,,0.7137,5.4321,20.4706,0.076,1.9571,0.322917,0.5033,0.592,12.0,,,,,,6.08425,PASS,
249,s02_leg_height_gain_sched,g000030_c7,30,,0.11083532461480992,0.0098841390635364,2.1988819131713678e-07,100.0,,,,,,,,,,0.7044,5.4616,20.2258,0.064,1.9654,0.322919,0.5033,0.408,12.0,,,,,,5.99126,PASS,
250,s02_leg_height_gain_sched,g000031_c0,31,,0.09912267583720705,0.01011947056183363,2.1651670583904944e-07,100.0,,,,,,,,,,0.7071,5.3739,20.6327,0.07,1.9552,0.322962,0.5033,0.59,12.0,,,,,,6.08735,PASS,
251,s02_leg_height_gain_sched,g000031_c1,31,,0.10595575283973523,0.00972061844911516,2.2076309242925612e-07,97.32033893263811,,,,,,,,,,0.6893,5.3137,20.4123,0.058,1.9601,0.322924,0.5033,0.41,12.0,,,,,,5.93329,PASS,
252,s02_leg_height_gain_sched,g000031_c2,31,,0.10423163858766549,0.01029844425316765,2.1823308362143663e-07,99.2731754744435,,,,,,,,,,0.7091,5.3771,20.5452,0.074,1.9549,0.32291,0.5033,0.596,12.0,,,,,,6.06531,PASS,
253,s02_leg_height_gain_sched,g000031_c3,31,,0.10179897767289427,0.010201481425862344,2.165763430422575e-07,99.63030563848369,,,,,,,,,,0.7162,5.4298,20.4986,0.078,1.9558,0.322878,0.5033,0.6,12.0,,,,,,6.08636,PASS,
254,s02_leg_height_gain_sched,g000031_c4,31,,0.10693913932963847,0.009947573866228873,2.1118652710162164e-07,100.0,,,,,,,,,,0.6984,5.3478,20.3915,0.062,1.9615,0.322952,0.5033,0.412,12.0,,,,,,6.08671,PASS,
255,s02_leg_height_gain_sched,g000031_c5,31,,0.10729329799254818,0.009151585885042352,2.1485632388867482e-07,99.13047274528111,,,,,,,,,,0.6857,5.3094,20.4868,0.054,1.9606,0.322974,0.5033,0.408,12.0,,,,,,5.94898,PASS,
256,s02_leg_height_gain_sched,g000031_c6,31,,0.105643885547533,0.009722217470549238,2.1846665804221305e-07,99.85874794754932,,,,,,,,,,0.7169,5.4037,20.6138,0.078,1.9522,0.322891,0.5033,0.612,12.0,,,,,,6.12081,PASS,
257,s02_leg_height_gain_sched,g000031_c7,31,,0.11178702290744608,0.009560753610055981,2.23338609449969e-07,98.1097889039126,,,,,,,,,,0.7187,5.6543,20.2367,0.066,1.9708,0.322967,0.5033,0.408,12.0,,,,,,6.07596,PASS,
258,s02_leg_height_gain_sched,g000032_c0,32,,0.10485708531445757,0.009427178085382069,2.1488719256570754e-07,100.0,,,,,,,,,,0.7003,5.4243,20.2599,0.06,1.9646,0.322928,0.5033,0.408,12.0,,,,,,6.02658,PASS,
259,s02_leg_height_gain_sched,g000032_c1,32,,0.10925078080599862,0.009944066228904645,2.1512817280845214e-07,100.0,,,,,,,,,,0.7108,5.4888,20.1476,0.068,1.9675,0.322932,0.5033,0.41,12.0,,,,,,5.95181,PASS,
260,s02_leg_height_gain_sched,g000032_c2,32,,0.10512069520146712,0.009961052528290614,2.2543874099820802e-07,99.17105186172489,,,,,,,,,,0.7188,5.3998,20.5554,0.078,1.955,0.32294,0.5033,0.608,12.0,,,,,,6.10086,PASS,
261,s02_leg_height_gain_sched,g000032_c3,32,,0.10257258429278711,0.010125369851003598,2.1060818538894674e-07,99.1218644025856,,,,,,,,,,0.7056,5.3288,20.4937,0.074,1.956,0.322883,0.5033,0.584,12.0,,,,,,6.09013,PASS,
262,s02_leg_height_gain_sched,g000032_c4,32,,0.10474558618711399,0.009486113812475343,2.1813664164686848e-07,99.44556708541165,,,,,,,,,,0.7203,5.3924,20.5835,0.082,1.9528,0.322878,0.5033,0.618,12.0,,,,,,6.18006,PASS,
263,s02_leg_height_gain_sched,g000032_c5,32,,0.09999429272426494,0.010094937066149775,2.1265911980495368e-07,97.7246161180019,,,,,,,,,,0.7023,5.4241,20.2674,0.062,1.9644,0.322941,0.5033,0.41,12.0,,,,,,5.95539,PASS,
264,s02_leg_height_gain_sched,g000032_c6,32,,0.10401962654150491,0.00996192682822726,2.152146972523098e-07,100.0,,,,,,,,,,0.6884,5.3058,20.4326,0.058,1.9602,0.322941,0.5033,0.41,12.0,,,,,,5.93808,PASS,
265,s02_leg_height_gain_sched,g000032_c7,32,,0.10200985372014723,0.009810122225933176,2.186155953873999e-07,98.55618185203673,,,,,,,,,,0.7053,5.3422,20.4704,0.072,1.9563,0.322887,0.5033,0.58,12.0,,,,,,6.08357,PASS,
266,s02_leg_height_gain_sched,g000033_c0,33,,0.10272746534390102,0.00951629515546035,2.1702508152698653e-07,100.0,,,,,,,,,,0.7123,5.4255,20.4715,0.074,1.9566,0.322912,0.5033,0.59,12.0,,,,,,6.09408,PASS,
267,s02_leg_height_gain_sched,g000033_c1,33,,0.10404525814683951,0.010048581250366704,2.1769921040224254e-07,97.8026108143773,,,,,,,,,,0.7226,5.5803,20.1327,0.068,1.9689,0.32296,0.5033,0.412,12.0,,,,,,6.04338,PASS,
268,s02_leg_height_gain_sched,g000033_c2,33,,0.10749548311337426,0.009876976603012365,2.2328491382024535e-07,100.0,,,,,,,,,,0.7183,5.5615,20.3789,0.07,1.9641,0.322997,0.5033,0.564,12.0,,,,,,6.16572,PASS,
269,s02_leg_height_gain_sched,g000033_c3,33,,0.10734410448195637,0.00975189927395037,2.0977017857099366e-07,100.0,,,,,,,,,,0.7029,5.384,20.465,0.068,1.9582,0.322919,0.5033,0.418,12.0,,,,,,5.99231,PASS,
270,s02_leg_height_gain_sched,g000033_c4,33,,0.10208255720753504,0.009937506334275257,2.171534612767473e-07,100.0,,,,,,,,,,0.7072,5.3833,20.626,0.07,1.9536,0.322946,0.5033,0.594,12.0,,,,,,6.0936,PASS,
271,s02_leg_height_gain_sched,g000033_c5,33,,0.10024455395374672,0.009752873371180519,2.1607236594397807e-07,100.0,,,,,,,,,,0.7041,5.3718,20.3951,0.07,1.9604,0.32292,0.5033,0.416,12.0,,,,,,6.00232,PASS,
272,s02_leg_height_gain_sched,g000033_c6,33,,0.10275935342527882,0.00998568655196192,2.2170915317532776e-07,99.61116585191067,,,,,,,,,,0.7145,5.3679,20.6142,0.078,1.9527,0.322923,0.5033,0.608,12.0,,,,,,6.07581,PASS,
273,s02_leg_height_gain_sched,g000033_c7,33,,0.10170354221357245,0.01013507212868799,2.132659302403022e-07,100.0,,,,,,,,,,0.6865,5.3204,20.4737,0.056,1.9595,0.322958,0.5033,0.41,12.0,,,,,,5.84918,PASS,
274,s02_leg_height_gain_sched,g000034_c0,34,,0.10406830973940663,0.00970202695930458,2.155446321457698e-07,99.72456735868126,,,,,,,,,,0.7018,5.3999,20.4194,0.064,1.9604,0.322944,0.5033,0.414,12.0,,,,,,5.95535,PASS,
275,s02_leg_height_gain_sched,g000034_c1,34,,0.10037788621279317,0.009869308116359254,2.164061249668581e-07,100.0,,,,,,,,,,0.7005,5.5557,20.2273,0.046,1.9778,0.322965,0.5033,0.394,12.0,,,,,,5.93663,PASS,
276,s02_leg_height_gain_sched,g000034_c2,34,,0.10275628043594734,0.010080670330793861,2.185757550871439e-07,100.0,,,,,,,,,,0.701,5.4074,20.5275,0.066,1.9573,0.322957,0.5033,0.418,12.0,,,,,,5.95513,PASS,
277,s02_leg_height_gain_sched,g000034_c3,34,,0.10549137950783327,0.009917060895864069,2.1462095185571658e-07,95.08190295244803,,,,,,,,,,0.6889,5.2135,20.2711,0.056,1.9658,0.322915,0.5033,0.406,12.0,,,,,,5.85689,PASS,
278,s02_leg_height_gain_sched,g000034_c4,34,,0.10587461556228504,0.009854846996296787,2.1752710108229297e-07,100.0,,,,,,,,,,0.7087,5.368,20.552,0.072,1.9557,0.322947,0.5033,0.592,12.0,,,,,,6.02948,PASS,
279,s02_leg_height_gain_sched,g000034_c5,34,,0.09737762053662205,0.009351038024540759,2.1137180970882352e-07,100.0,,,,,,,,,,0.7087,5.3835,20.5348,0.072,1.9559,0.322924,0.5033,0.584,12.0,,,,,,6.03453,PASS,
280,s02_leg_height_gain_sched,g000034_c6,34,,0.10261824678175288,0.009598821394169782,2.1536412039098324e-07,100.0,,,,,,,,,,0.7054,5.5305,20.1649,0.052,1.9754,0.322944,0.5033,0.398,12.0,,,,,,5.9925,PASS,
281,s02_leg_height_gain_sched,g000034_c7,34,,0.10379592180234877,0.009641473949573745,2.1138557688704878e-07,99.76121946255141,,,,,,,,,,0.7047,5.4123,20.5163,0.066,1.9578,0.322953,0.5033,0.418,12.0,,,,,,6.01478,PASS,
282,s02_leg_height_gain_sched,g000035_c0,35,,0.10249777979854516,0.010096943099610699,2.185893417501725e-07,100.0,,,,,,,,,,0.7023,5.3339,20.4722,0.07,1.9577,0.322908,0.5033,0.566,12.0,,,,,,6.04575,PASS,
283,s02_leg_height_gain_sched,g000035_c1,35,,0.10251793562851289,0.009624164816573978,2.1012242582364424e-07,100.0,,,,,,,,,,0.7007,5.4231,20.2726,0.062,1.9654,0.32296,0.5033,0.408,12.0,,,,,,6.06359,PASS,
284,s02_leg_height_gain_sched,g000035_c2,35,,0.10716828896791397,0.009543674797246498,2.191717593956008e-07,97.76568227280336,,,,,,,,,,0.7143,5.4644,20.4301,0.074,1.9596,0.322937,0.5033,0.58,12.0,,,,,,6.16065,PASS,
285,s02_leg_height_gain_sched,g000035_c3,35,,0.10437328233860213,0.009953379001063517,2.10992049326637e-07,100.0,,,,,,,,,,0.6622,5.0196,20.0686,0.012,1.9761,0.322885,0.5033,0.384,12.0,,,,,,5.88629,PASS,
286,s02_leg_height_gain_sched,g000035_c4,35,,0.10244442248264522,0.009835246776562018,2.1605419619432061e-07,98.77674182582538,,,,,,,,,,0.7184,5.3908,20.5749,0.082,1.953,0.322901,0.5033,0.614,12.0,,,,,,6.10316,PASS,
287,s02_leg_height_gain_sched,g000035_c5,35,,0.10436700378084492,0.00954122605630154,2.1004039381785517e-07,100.0,,,,,,,,,,0.7061,5.3513,20.4822,0.074,1.9568,0.322894,0.5033,0.582,12.0,,,,,,6.11099,PASS,
288,s02_leg_height_gain_sched,g000035_c6,35,,0.10005237260301741,0.010169057669517936,2.1737143701438708e-07,98.87226840186364,,,,,,,,,,0.706,5.3334,20.4912,0.072,1.956,0.322904,0.5033,0.586,12.0,,,,,,6.08439,PASS,
289,s02_leg_height_gain_sched,g000035_c7,35,,0.10586353131095443,0.010203151811412391,2.2160173514655895e-07,100.0,,,,,,,,,,0.7125,5.4309,20.473,0.074,1.9571,0.322918,0.5033,0.59,12.0,,,,,,6.06002,PASS,
290,s02_leg_height_gain_sched,g000036_c0,36,,0.10581714074339896,0.009907053847276592,2.3026598300109974e-07,100.0,,,,,,,,,,0.7113,5.4272,20.4253,0.072,1.9585,0.322942,0.5033,0.58,12.0,,,,,,5.99388,PASS,
291,s02_leg_height_gain_sched,g000036_c1,36,,0.1071141000410781,0.009907802293297964,2.1546163922267195e-07,95.97555464408788,,,,,,,,,,0.7188,5.5863,20.0845,0.068,1.9723,0.322934,0.5033,0.406,12.0,,,,,,5.98233,PASS,
292,s02_leg_height_gain_sched,g000036_c2,36,,0.1070670726819738,0.009907093544329074,2.169721596137605e-07,100.0,,,,,,,,,,0.7054,5.3585,20.4276,0.07,1.9575,0.322883,0.5033,0.574,12.0,,,,,,6.05009,PASS,
293,s02_leg_height_gain_sched,g000036_c3,36,,0.10238046934908053,0.009862685090796844,2.186893434615804e-07,99.40569178212564,,,,,,,,,,0.7054,5.4763,20.1226,0.062,1.969,0.322923,0.5033,0.406,12.0,,,,,,5.95326,PASS,
294,s02_leg_height_gain_sched,g000036_c4,36,,0.10232735725818373,0.009964490328339343,2.186718932254507e-07,100.0,,,,,,,,,,0.7082,5.3865,20.3878,0.072,1.96,0.322924,0.5033,0.576,12.0,,,,,,6.01759,PASS,
