run_id,scenario,label,gen,timestamp,Q_PITCH,Q_PITCH_RATE,Q_VEL,R,KP_V,KI_V,KFF_V,KP_YAW,KI_YAW,LEG_K_S,LEG_B_S,LEG_K_ROLL,LEG_D_ROLL,rms_pitch_deg,max_pitch_deg,wheel_travel_m,wheel_liftoff_s,vel_track_rms_ms,hip_track_rms_rad,hip_cmd_rate_rms,settle_time_s,survived_s,fitness_balance,fitness_disturbance,fitness_drive_slow,fitness_drive_med,fitness_obstacle,fitness,status,fail_reason
1,s01_lqr_pitch_step,evo_seed,0,,5.40254,0.033408,0.00165213,39.647,,,,,,,,,,2.292,5.0,0.5494,0.1,0.0,0.00778,0.0,5.0,0.289,,,,,,202.778575,FAIL,wheels off ground
2,s01_lqr_pitch_step,g000000_c0,0,,0.36114718827663117,0.017364248419299216,0.0014838321160592612,536.5042956207873,,,,,,,,,,2.3766,5.0,0.5843,0.1,0.0,0.007809,0.0,5.0,0.298,,,,,,202.315375,FAIL,wheels off ground
3,s01_lqr_pitch_step,g000000_c1,0,,10.0,4.075583958767641,0.0011509850395077879,48.746973892058556,,,,,,,,,,2.3622,5.0,0.41,0.1,0.0,0.007856,0.0,5.0,0.28,,,,,,202.833675,FAIL,wheels off ground
4,s01_lqr_pitch_step,g000000_c2,0,,1.27512723323522,0.033509616288296976,0.00042591862258546345,8.995610843068011,,,,,,,,,,2.295,5.0,0.5345,0.1,0.0,0.007794,0.0,5.0,0.286,,,,,,202.9595,FAIL,wheels off ground
5,s01_lqr_pitch_step,g000000_c3,0,,3.5326371764441777,0.05217729286712,0.007143611551734243,1000.0,,,,,,,,,,2.3382,5.0,0.4866,0.1,0.0,0.00811,0.0,5.0,0.297,,,,,,202.254925,FAIL,wheels off ground
6,s01_lqr_pitch_step,g000000_c4,0,,2.509762353715136,0.007412045756462949,0.00023543060348568052,3.6794078282976623,,,,,,,,,,2.2964,5.0,0.6083,0.1,0.0,0.008011,0.0,5.0,0.268,,,,,,203.600125,FAIL,wheels off ground
7,s01_lqr_pitch_step,g000000_c5,0,,3.4270940867760196,0.07433128898910502,0.026024029196886032,56.782860614862265,,,,,,,,,,3.2578,5.0,0.6782,0.1,0.0,0.009473,0.0,5.0,0.24,,,,,,206.0234,FAIL,wheels off ground
8,s01_lqr_pitch_step,g000000_c6,0,,10.0,0.001,0.003264996734890957,91.73941204616469,,,,,,,,,,2.363,5.0,0.3243,0.1,0.0,0.008112,0.0,5.0,0.297,,,,,,202.597675,FAIL,wheels off ground
9,s01_lqr_pitch_step,g000000_c7,0,,10.0,2.569961220462029,0.0002690280792263899,3.9967424057817595,,,,,,,,,,2.9448,5.0,0.3217,0.1,0.0,0.008241,0.0,5.0,0.173,,,,,,202.354575,FAIL,wheels off ground
10,s01_lqr_pitch_step,g000001_c0,1,,7.967467590045967,0.002583074966328524,0.019997562340728532,17.203125305825996,,,,,,,,,,3.8604,5.2002,0.6704,0.1,0.0,0.009016,0.0,5.0,0.17,,,,,,203.77895,FAIL,wheels off ground
11,s01_lqr_pitch_step,g000001_c1,1,,10.0,0.0016586895839041998,0.0052277677522094956,79.27420675297469,,,,,,,,,,2.282,5.0,0.5395,0.1,0.0,0.007839,0.0,5.0,0.277,,,,,,202.944725,FAIL,wheels off ground
12,s01_lqr_pitch_step,g000001_c2,1,,10.0,0.3312169667490551,0.04671107949947823,55.98268709443277,,,,,,,,,,3.3835,5.4756,1.0511,0.1,0.0,0.007838,0.0,5.0,0.173,,,,,,207.64735,FAIL,wheels off ground
13,s01_lqr_pitch_step,g000001_c3,1,,10.0,0.27286279549235615,0.08047889041988339,72.74779889677424,,,,,,,,,,3.8446,5.1444,0.6717,0.1,0.0,0.009,0.0,5.0,0.17,,,,,,203.73525,FAIL,wheels off ground
14,s01_lqr_pitch_step,g000001_c4,1,,10.0,0.08767412912445591,0.1432121000002958,1.9397856078533264,,,,,,,,,,23.1227,39.7902,7.3202,0.1,0.0,0.012556,0.0,5.0,0.715,,,,,,514.204375,FAIL,wheels off ground
15,s01_lqr_pitch_step,g000001_c5,1,,10.0,0.001,0.06296535241653642,18.428927670085493,,,,,,,,,,3.3394,5.0,0.4159,0.1,0.0,0.00854,0.0,5.0,0.156,,,,,,204.41235,FAIL,wheels off ground
16,s01_lqr_pitch_step,g000001_c6,1,,0.5880717965029639,0.001,0.03500988302395269,40.908186313779595,,,,,,,,,,2.4982,5.0,0.4258,0.1,0.0,0.008231,0.0,5.0,0.172,,,,,,203.5781,FAIL,wheels off ground
17,s01_lqr_pitch_step,g000001_c7,1,,0.7984324215415226,1.068392205000205,1.475884277060814e-05,15.338953371187932,,,,,,,,,,2.3007,5.0,0.3152,0.1,0.0,0.008273,0.0,5.0,0.318,,,,,,201.846275,FAIL,wheels off ground
18,s01_lqr_pitch_step,g000002_c0,2,,10.0,0.16320937249297227,0.022662515660422034,47.07030760453475,,,,,,,,,,3.1622,5.0,0.5037,0.1,0.0,0.008758,0.0,5.0,0.178,,,,,,202.53475,FAIL,wheels off ground
19,s01_lqr_pitch_step,g000002_c1,2,,2.745456178322555,0.0010751599636301492,0.0009391367221185538,101.37074066197313,,,,,,,,,,1.9527,5.0,0.4365,0.1,0.0,0.009008,0.0,5.0,0.434,,,,,,202.717025,FAIL,wheels off ground
20,s01_lqr_pitch_step,g000002_c2,2,,10.0,0.00466707737780998,0.001208301157674549,1.4452687544757785,,,,,,,,,,2.9407,5.0,0.3119,0.1,0.0,0.008774,0.0,5.0,0.172,,,,,,202.523375,FAIL,wheels off ground
21,s01_lqr_pitch_step,g000002_c3,2,,1.2186609027235245,0.0463557347936264,0.0024300289630582563,65.4081619203906,,,,,,,,,,2.3335,5.0,0.248,0.1,0.0,0.008156,0.0,5.0,0.301,,,,,,202.37575,FAIL,wheels off ground
22,s01_lqr_pitch_step,g000002_c4,2,,10.0,0.061838451997106365,0.0001753842079059929,988.5588969547924,,,,,,,,,,2.2829,5.0,0.262,0.1,0.0,0.008589,0.0,5.0,0.327,,,,,,201.6865,FAIL,wheels off ground
23,s01_lqr_pitch_step,g000002_c5,2,,10.0,0.0175361716765846,0.006343650663616932,428.01762606182126,,,,,,,,,,2.3556,5.0,0.3435,0.1,0.0,0.008062,0.0,5.0,0.301,,,,,,202.206825,FAIL,wheels off ground
24,s01_lqr_pitch_step,g000002_c6,2,,10.0,0.008174006612546155,9.435302646829924e-05,424.9009185887105,,,,,,,,,,2.2702,5.0,0.2605,0.1,0.0,0.00866,0.0,5.0,0.329,,,,,,201.719275,FAIL,wheels off ground
25,s01_lqr_pitch_step,g000002_c7,2,,10.0,0.013490090683022624,0.006388646650979846,297.8301698118806,,,,,,,,,,2.3196,5.0,0.368,0.1,0.0,0.008209,0.0,5.0,0.308,,,,,,202.20615,FAIL,wheels off ground
26,s01_lqr_pitch_step,g000003_c0,3,,1.2667866391960776,0.003136159950365295,0.019571795495795408,9.502486170842872,,,,,,,,,,5.1183,10.0913,1.3021,0.1,0.0,0.007521,0.0,5.0,0.161,,,,,,216.51935,FAIL,wheels off ground
27,s01_lqr_pitch_step,g000003_c1,3,,10.0,0.22002377699583917,0.011300866353941433,1000.0,,,,,,,,,,2.3271,5.0,0.3861,0.1,0.0,0.007944,0.0,5.0,0.298,,,,,,202.207375,FAIL,wheels off ground
28,s01_lqr_pitch_step,g000003_c2,3,,0.649625739750065,0.16459353703057408,0.002075589724629925,18.156070421576494,,,,,,,,,,2.275,5.0,0.592,0.1,0.0,0.008433,0.0,5.0,0.267,,,,,,204.049725,FAIL,wheels off ground
29,s01_lqr_pitch_step,g000003_c3,3,,8.840108181901643,0.028942909673780163,0.0020334611568590187,2.7534836447306743,,,,,,,,,,3.1002,5.0,0.9609,0.1,0.0,0.007756,0.0,5.0,0.172,,,,,,206.643125,FAIL,wheels off ground
30,s01_lqr_pitch_step,g000003_c4,3,,10.0,0.451550474284443,0.006382313933532079,4.730082781953531,,,,,,,,,,2.4484,5.0,0.1914,0.1,0.0,0.008239,0.0,5.0,0.166,,,,,,203.031325,FAIL,wheels off ground
31,s01_lqr_pitch_step,g000003_c5,3,,10.0,0.15289776063205768,0.002626929366355564,4.116875385485557,,,,,,,,,,3.0524,5.0,0.9865,0.1,0.0,0.007945,0.0,5.0,0.174,,,,,,206.0908,FAIL,wheels off ground
32,s01_lqr_pitch_step,g000003_c6,3,,1.7013991974248441,0.001,9.970474162176364e-05,110.52941605454552,,,,,,,,,,2.3184,5.0,0.4619,0.1,0.0,0.008402,0.0,5.0,0.314,,,,,,201.99705,FAIL,wheels off ground
33,s01_lqr_pitch_step,g000003_c7,3,,0.28387460374362006,0.007375493767093027,0.00014266284738692874,56.10358368054342,,,,,,,,,,2.3539,5.0,0.596,0.1,0.0,0.007978,0.0,5.0,0.304,,,,,,202.091625,FAIL,wheels off ground
34,s01_lqr_pitch_step,g000004_c0,4,,4.691425911593852,0.09800213595839682,0.00043039956141537603,1000.0,,,,,,,,,,2.3006,5.0,0.4503,0.1,0.0,0.008361,0.0,5.0,0.323,,,,,,201.805225,FAIL,wheels off ground
35,s01_lqr_pitch_step,g000004_c1,4,,1.1735265766445897,0.015263392749911462,0.005028113561217648,9.735551725790323,,,,,,,,,,3.4072,5.0,0.7158,0.1,0.0,0.009789,0.0,5.0,0.236,,,,,,206.014625,FAIL,wheels off ground
36,s01_lqr_pitch_step,g000004_c2,4,,10.0,0.001,3.0326773592100637e-05,0.30606696622357327,,,,,,,,,,2.7203,5.0,0.5796,0.1,0.0,0.007909,0.0,5.0,0.173,,,,,,202.88145,FAIL,wheels off ground
37,s01_lqr_pitch_step,g000004_c3,4,,0.5798407983505206,0.32862329988089223,0.0081659292519163,130.95948237804478,,,,,,,,,,2.2964,5.0,0.6471,0.1,0.0,0.007963,0.0,5.0,0.27,,,,,,203.633775,FAIL,wheels off ground
38,s01_lqr_pitch_step,g000004_c4,4,,10.0,0.023375642625215756,0.0008160236608720041,99.70973335392783,,,,,,,,,,2.34,5.0,0.4981,0.1,0.0,0.007889,0.0,5.0,0.298,,,,,,202.204125,FAIL,wheels off ground
39,s01_lqr_pitch_step,g000004_c5,4,,10.0,2.1570444936401123,0.018764398147419203,73.41739045593569,,,,,,,,,,2.4098,5.0,0.8314,0.1,0.0,0.008897,0.0,5.0,0.242,,,,,,205.991075,FAIL,wheels off ground
40,s01_lqr_pitch_step,g000004_c6,4,,1.1005190015667374,10.0,3.233746796492388e-05,0.7081010588671003,,,,,,,,,,3.279,6.2382,25.7206,0.0,5.8598,0.010171,0.0,0.581,5.0,,,,,,282.5827,PASS,
41,s01_lqr_pitch_step,g000004_c7,4,,10.0,0.02350402837628874,0.0001949459992635896,23.121534742095783,,,,,,,,,,2.3329,5.0,0.5164,0.1,0.0,0.008075,0.0,5.0,0.296,,,,,,202.358175,FAIL,wheels off ground
42,s01_lqr_pitch_step,g000005_c0,5,,10.0,0.006326446626430137,0.0013848661948825973,584.6514622642991,,,,,,,,,,2.2271,5.0,0.1995,0.1,0.0,0.008577,0.0,5.0,0.335,,,,,,201.722425,FAIL,wheels off ground
43,s01_lqr_pitch_step,g000005_c1,5,,10.0,0.1595492740862346,0.0001391083187383303,0.6437783884364489,,,,,,,,,,2.6983,5.0,0.4186,0.1,0.0,0.008157,0.0,5.0,0.173,,,,,,202.850275,FAIL,wheels off ground
44,s01_lqr_pitch_step,g000005_c2,5,,10.0,0.22380055695443515,0.0007370430850526769,126.13932896451345,,,,,,,,,,2.3393,5.0,0.4516,0.1,0.0,0.007964,0.0,5.0,0.3,,,,,,202.21305,FAIL,wheels off ground
45,s01_lqr_pitch_step,g000005_c3,5,,2.2461910565449092,0.40461075737661734,0.000400807820460247,321.572537469262,,,,,,,,,,2.2141,5.0,0.1492,0.1,0.0,0.008542,0.0,5.0,0.341,,,,,,201.663725,FAIL,wheels off ground
46,s01_lqr_pitch_step,g000005_c4,5,,2.886351424201133,0.001525171241323083,0.02482379466177469,6.692912392376437,,,,,,,,,,2.2469,5.0,0.1584,0.1,0.0,0.008409,0.0,5.0,0.156,,,,,,203.652975,FAIL,wheels off ground
47,s01_lqr_pitch_step,g000005_c5,5,,2.7035871833350047,0.029831976450782678,5.830377370276157e-05,17.992266517919237,,,,,,,,,,2.3443,5.0,0.6101,0.1,0.0,0.007941,0.0,5.0,0.305,,,,,,202.1773,FAIL,wheels off ground
48,s01_lqr_pitch_step,g000005_c6,5,,5.017545180105662,0.328915904365914,0.0003087593541962207,65.54445110482699,,,,,,,,,,2.3403,5.0,0.5667,0.1,0.0,0.007932,0.0,5.0,0.303,,,,,,202.174725,FAIL,wheels off ground
49,s01_lqr_pitch_step,g000005_c7,5,,0.9709597273090458,0.00144776932500366,0.0022209131174150904,248.93021248769907,,,,,,,,,,2.3058,5.0,0.4775,0.1,0.0,0.008292,0.0,5.0,0.303,,,,,,202.165225,FAIL,wheels off ground
50,s01_lqr_pitch_step,g000006_c0,6,,5.560745493627593,0.012197826806033246,0.0007503589718892194,1000.0,,,,,,,,,,2.27,5.0,0.2712,0.1,0.0,0.008376,0.0,5.0,0.328,,,,,,201.733925,FAIL,wheels off ground
51,s01_lqr_pitch_step,g000006_c1,6,,10.0,0.03470462655914435,0.0008158616531808394,6.318322011526054,,,,,,,,,,2.5874,5.0,0.4753,0.1,0.0,0.009203,0.0,5.0,0.264,,,,,,204.632225,FAIL,wheels off ground
52,s01_lqr_pitch_step,g000006_c2,6,,0.12734232284012204,0.2027128019496572,0.0016994493334934403,83.6773174831733,,,,,,,,,,2.2631,5.0,0.2461,0.1,0.0,0.008224,0.0,5.0,0.319,,,,,,202.1262,FAIL,wheels off ground
53,s01_lqr_pitch_step,g000006_c3,6,,0.5578078319242368,0.051689371545782965,0.0004181572219933043,107.43418901804888,,,,,,,,,,2.2993,5.0,0.2874,0.1,0.0,0.008153,0.0,5.0,0.314,,,,,,201.8937,FAIL,wheels off ground
54,s01_lqr_pitch_step,g000006_c4,6,,10.0,0.5471882003038904,0.0005169358789372211,8.792125805558502,,,,,,,,,,2.4422,5.0,0.3545,0.1,0.0,0.008202,0.0,5.0,0.281,,,,,,202.981025,FAIL,wheels off ground
55,s01_lqr_pitch_step,g000006_c5,6,,0.7694995914471572,0.014727594549661268,0.006182707918598481,14.854680553519064,,,,,,,,,,3.1137,5.0,0.6602,0.1,0.0,0.009444,0.0,5.0,0.242,,,,,,205.7671,FAIL,wheels off ground
56,s01_lqr_pitch_step,g000006_c6,6,,4.25520781405931,2.445702159878668,8.03194205641588e-05,1000.0,,,,,,,,,,1.9429,5.0,0.3701,0.1,0.0,0.008994,0.0,5.0,0.46,,,,,,202.39875,FAIL,wheels off ground
57,s01_lqr_pitch_step,g000006_c7,6,,10.0,0.24734138074175488,0.002140996064350018,6.9012829011648495,,,,,,,,,,2.2465,5.0,0.3856,0.1,0.0,0.00894,0.0,5.0,0.249,,,,,,205.365975,FAIL,wheels off ground
58,s01_lqr_pitch_step,g000007_c0,7,,0.12392889729267362,0.001,0.050941485881137734,69.26375760913366,,,,,,,,,,3.1256,5.0,0.9649,0.1,0.0,0.007844,0.0,5.0,0.173,,,,,,206.57315,FAIL,wheels off ground
59,s01_lqr_pitch_step,g000007_c1,7,,2.440375315284277,0.002152887704863836,0.0011407235907521826,4.790498997976288,,,,,,,,,,2.3252,5.0,0.7885,0.1,0.0,0.008394,0.0,5.0,0.246,,,,,,205.498175,FAIL,wheels off ground
60,s01_lqr_pitch_step,g000007_c2,7,,10.0,0.025501987991973153,0.0004683150539792597,6.474698847604889,,,,,,,,,,2.3172,5.0,0.2026,0.1,0.0,0.008119,0.0,5.0,0.281,,,,,,203.07525,FAIL,wheels off ground
61,s01_lqr_pitch_step,g000007_c3,7,,0.49533232599675386,0.03200447812428251,0.0003100904511593872,0.10913615063005774,,,,,,,,,,5.8299,9.4723,0.967,0.1,0.0,0.009262,0.0,5.0,0.16,,,,,,209.49945,FAIL,wheels off ground
62,s01_lqr_pitch_step,g000007_c4,7,,10.0,0.12081324511408494,0.2305492705646423,217.8096254606723,,,,,,,,,,2.7548,5.0,0.2038,0.1,0.0,0.008545,0.0,5.0,0.171,,,,,,202.649425,FAIL,wheels off ground
63,s01_lqr_pitch_step,g000007_c5,7,,10.0,0.1548023882980674,0.0007850129484274104,115.32786611938839,,,,,,,,,,2.1954,5.0,0.1715,0.1,0.0,0.008579,0.0,5.0,0.342,,,,,,201.685475,FAIL,wheels off ground
64,s01_lqr_pitch_step,g000007_c6,7,,2.1705469891968234,0.002707836937111196,0.0006113391206816669,2.1293752681499654,,,,,,,,,,2.2718,5.0,0.2862,0.1,0.0,0.008812,0.0,5.0,0.258,,,,,,204.79615,FAIL,wheels off ground
65,s01_lqr_pitch_step,g000007_c7,7,,1.205246380760254,0.0023223194814426603,0.13283493802723356,70.24456696744224,,,,,,,,,,5.0293,9.9779,1.3463,0.1,0.0,0.007615,0.0,5.0,0.163,,,,,,215.79045,FAIL,wheels off ground
66,s01_lqr_pitch_step,g000008_c0,8,,1.403752757940829,0.0011083768856317302,0.009161982927292308,824.9110278534332,,,,,,,,,,2.306,5.0,0.3773,0.1,0.0,0.008113,0.0,5.0,0.303,,,,,,202.2859,FAIL,wheels off ground
67,s01_lqr_pitch_step,g000008_c1,8,,2.8902069363281346,0.001,0.0010979294507822105,13.627535295095237,,,,,,,,,,2.2957,5.0,0.1645,0.1,0.0,0.008074,0.0,5.0,0.292,,,,,,202.80645,FAIL,wheels off ground
68,s01_lqr_pitch_step,g000008_c2,8,,0.4522623799527906,0.002695412432922933,0.00046151854972708884,2.1601961252845854,,,,,,,,,,2.2907,5.0,0.8712,0.1,0.0,0.008188,0.0,5.0,0.249,,,,,,205.445675,FAIL,wheels off ground
69,s01_lqr_pitch_step,g000008_c3,8,,10.0,0.0051858677618986755,0.0035290363145822454,1000.0,,,,,,,,,,2.345,5.0,0.3304,0.1,0.0,0.008005,0.0,5.0,0.302,,,,,,202.0981,FAIL,wheels off ground
70,s01_lqr_pitch_step,g000008_c4,8,,0.7987265088900579,0.006688237935817637,0.001009712814497842,5.86781611481378,,,,,,,,,,2.5981,5.0,0.554,0.1,0.0,0.008324,0.0,5.0,0.268,,,,,,203.8474,FAIL,wheels off ground
71,s01_lqr_pitch_step,g000008_c5,8,,10.0,0.12616053284586784,0.0017023573626499164,23.32564183011327,,,,,,,,,,2.2825,5.0,0.5701,0.1,0.0,0.007994,0.0,5.0,0.269,,,,,,203.608075,FAIL,wheels off ground
72,s01_lqr_pitch_step,g000008_c6,8,,10.0,0.01945310767706419,0.06582674458120373,5.838962383272531,,,,,,,,,,3.2997,5.0,0.5387,0.1,0.0,0.00969,0.0,5.0,0.192,,,,,,214.36285,FAIL,wheels off ground
73,s01_lqr_pitch_step,g000008_c7,8,,0.24099197138345385,0.32115034708770573,0.00044224336681806295,672.8581690582944,,,,,,,,,,2.2217,5.0,0.2165,0.1,0.0,0.008631,0.0,5.0,0.337,,,,,,201.71205,FAIL,wheels off ground
74,s01_lqr_pitch_step,g000009_c0,9,,10.0,0.658263146681532,0.0025722957039414854,839.561629726463,,,,,,,,,,2.255,5.0,0.3468,0.1,0.0,0.00857,0.0,5.0,0.325,,,,,,201.87185,FAIL,wheels off ground
75,s01_lqr_pitch_step,g000009_c1,9,,10.0,0.004462469452485581,2.17003599528887e-05,1.4050285470147965,,,,,,,,,,2.4235,5.0,0.489,0.1,0.0,0.008178,0.0,5.0,0.279,,,,,,203.314575,FAIL,wheels off ground
76,s01_lqr_pitch_step,g000009_c2,9,,10.0,0.007098128739892127,0.011882166131406345,3.072530299834417,,,,,,,,,,2.9775,5.0,0.5253,0.1,0.0,0.008384,0.0,5.0,0.155,,,,,,206.52655,FAIL,wheels off ground
77,s01_lqr_pitch_step,g000009_c3,9,,10.0,0.002540941244835905,0.016831144583028774,21.27069266297607,,,,,,,,,,3.2304,5.0,0.9959,0.1,0.0,0.007889,0.0,5.0,0.173,,,,,,206.9979,FAIL,wheels off ground
78,s01_lqr_pitch_step,g000009_c4,9,,0.35927826089134834,0.09280923109329944,0.11307491585612714,202.1841486348026,,,,,,,,,,2.648,5.0,0.1187,0.1,0.0,0.008381,0.0,5.0,0.176,,,,,,202.29795,FAIL,wheels off ground
79,s01_lqr_pitch_step,g000009_c5,9,,10.0,0.152624486923978,0.051270562092459455,11.415044640151965,,,,,,,,,,6.2532,13.564,1.4543,0.1,0.0,0.007376,0.0,5.0,0.154,,,,,,222.2843,FAIL,wheels off ground
80,s01_lqr_pitch_step,g000009_c6,9,,6.730511136344116,0.20409977950025285,0.01678428821151748,272.7380225254052,,,,,,,,,,2.2981,5.0,0.6015,0.1,0.0,0.007979,0.0,5.0,0.269,,,,,,203.509325,FAIL,wheels off ground
81,s01_lqr_pitch_step,g000009_c7,9,,0.7108132034995801,0.08305173179907228,0.0006687376335991662,1000.0,,,,,,,,,,2.2348,5.0,0.3117,0.1,0.0,0.008513,0.0,5.0,0.332,,,,,,201.819725,FAIL,wheels off ground
82,s01_lqr_pitch_step,g000010_c0,10,,0.4170594498544552,0.019891554717901352,2.1843437833134915e-05,13.827167488927284,,,,,,,,,,1.8941,5.0,0.3287,0.1,0.0,0.009,0.0,5.0,0.468,,,,,,202.2594,FAIL,wheels off ground
83,s01_lqr_pitch_step,g000010_c1,10,,6.943258242866763,0.0749130246498469,0.00044286502976449184,125.47252427449418,,,,,,,,,,2.3383,5.0,0.3986,0.1,0.0,0.008044,0.0,5.0,0.303,,,,,,202.211875,FAIL,wheels off ground
84,s01_lqr_pitch_step,g000010_c2,10,,0.9459755931277924,1.3156380528421103,8.371533651875212e-05,67.43144407872269,,,,,,,,,,2.3715,5.0,0.4708,0.1,0.0,0.007988,0.0,5.0,0.303,,,,,,202.040225,FAIL,wheels off ground
85,s01_lqr_pitch_step,g000010_c3,10,,2.1409076932910023,0.1287311405830355,0.0037155428688591882,86.43333661897333,,,,,,,,,,2.3073,5.0,0.756,0.1,0.0,0.007659,0.0,5.0,0.276,,,,,,203.260425,FAIL,wheels off ground
86,s01_lqr_pitch_step,g000010_c4,10,,1.7934923852120812,0.0031548228767699004,0.0007322158233911336,35.627578720225,,,,,,,,,,2.3572,5.0,0.5432,0.1,0.0,0.007961,0.0,5.0,0.302,,,,,,202.415,FAIL,wheels off ground
87,s01_lqr_pitch_step,g000010_c5,10,,0.6480681143795838,0.10244614392294045,7.920175037617946e-05,122.47837837089735,,,,,,,,,,2.3405,5.0,0.3624,0.1,0.0,0.008288,0.0,5.0,0.311,,,,,,201.877975,FAIL,wheels off ground
88,s01_lqr_pitch_step,g000010_c6,10,,10.0,0.13960628373830566,0.01905303649715234,1.3477755015965818,,,,,,,,,,12.1547,18.7138,1.6137,0.1,0.0,0.00898,0.0,5.0,0.19,,,,,,243.066225,FAIL,wheels off ground
89,s01_lqr_pitch_step,g000010_c7,10,,10.0,0.011189009800830024,0.0022476436480905275,30.959266350045752,,,,,,,,,,2.273,5.0,0.6697,0.1,0.0,0.007971,0.0,5.0,0.271,,,,,,203.648525,FAIL,wheels off ground
90,s01_lqr_pitch_step,g000011_c0,11,,10.0,0.023699362953886482,0.0013208865825711797,55.14413367919545,,,,,,,,,,2.354,5.0,0.5439,0.1,0.0,0.00796,0.0,5.0,0.302,,,,,,202.395375,FAIL,wheels off ground
91,s01_lqr_pitch_step,g000011_c1,11,,10.0,0.04871874687065664,0.0025203629813931637,9.304683277822914,,,,,,,,,,2.3918,5.0,0.8144,0.1,0.0,0.008755,0.0,5.0,0.243,,,,,,206.03595,FAIL,wheels off ground
92,s01_lqr_pitch_step,g000011_c2,11,,1.1641459082601486,0.12131007631650963,0.007657004808849849,69.19006405427889,,,,,,,,,,2.2812,5.0,0.6542,0.1,0.0,0.008368,0.0,5.0,0.261,,,,,,204.452175,FAIL,wheels off ground
93,s01_lqr_pitch_step,g000011_c3,11,,7.575661907918048,0.0037999802156072804,0.0018273493143784972,187.73494761878882,,,,,,,,,,2.3051,5.0,0.358,0.1,0.0,0.008168,0.0,5.0,0.305,,,,,,202.1945,FAIL,wheels off ground
94,s01_lqr_pitch_step,g000011_c4,11,,10.0,1.8231048717860663,0.00024291157427390342,275.77838387284237,,,,,,,,,,2.2913,5.0,0.3816,0.1,0.0,0.008723,0.0,5.0,0.321,,,,,,201.7984,FAIL,wheels off ground
95,s01_lqr_pitch_step,g000011_c5,11,,0.3614512194628205,0.05983579819986257,0.0008567906289526877,15.819941194999233,,,,,,,,,,2.2935,5.0,0.7,0.1,0.0,0.007606,0.0,5.0,0.276,,,,,,203.234025,FAIL,wheels off ground
96,s01_lqr_pitch_step,g000011_c6,11,,3.198965070812365,0.00392639593982826,0.0012617263082809328,54.861353378240715,,,,,,,,,,2.3497,5.0,0.5298,0.1,0.0,0.00793,0.0,5.0,0.302,,,,,,202.416075,FAIL,wheels off ground
97,s01_lqr_pitch_step,g000011_c7,11,,4.747133375536647,0.018599479972369246,0.007003473673921062,141.89495064024985,,,,,,,,,,2.301,5.0,0.6629,0.1,0.0,0.007675,0.0,5.0,0.275,,,,,,203.151375,FAIL,wheels off ground
98,s01_lqr_pitch_step,g000012_c0,12,,2.064793827178346,0.03493297666035057,0.0015705928951584192,18.757725092087547,,,,,,,,,,2.2617,5.0,0.705,0.1,0.0,0.007746,0.0,5.0,0.276,,,,,,203.4601,FAIL,wheels off ground
99,s01_lqr_pitch_step,g000012_c1,12,,10.0,0.10904627293397555,0.00030544073572925945,71.12078231901414,,,,,,,,,,2.3472,5.0,0.5367,0.1,0.0,0.007938,0.0,5.0,0.302,,,,,,202.128175,FAIL,wheels off ground
100,s01_lqr_pitch_step,g000012_c2,12,,1.3558838065385785,0.07630997948223095,0.012356336974534098,75.92590335985699,,,,,,,,,,2.5768,5.0,0.5133,0.1,0.0,0.008977,0.0,5.0,0.267,,,,,,204.410275,FAIL,wheels off ground
101,s01_lqr_pitch_step,g000012_c3,12,,10.0,0.029838038193352637,0.0011478269237132188,56.758569313012934,,,,,,,,,,2.3156,5.0,0.3197,0.1,0.0,0.00821,0.0,5.0,0.308,,,,,,202.17025,FAIL,wheels off ground
102,s01_lqr_pitch_step,g000012_c4,12,,10.0,0.015165830631387201,0.0005001492129202558,83.29882559643202,,,,,,,,,,2.252,5.0,0.3617,0.1,0.0,0.008135,0.0,5.0,0.328,,,,,,201.92925,FAIL,wheels off ground
103,s01_lqr_pitch_step,g000012_c5,12,,10.0,0.09375116652838522,0.0033284315132221486,148.13791526448173,,,,,,,,,,2.3447,5.0,0.432,0.1,0.0,0.008035,0.0,5.0,0.303,,,,,,202.2012,FAIL,wheels off ground
104,s01_lqr_pitch_step,g000012_c6,12,,2.444113634525277,0.0608215747853289,0.002025443281228871,19.363392991071986,,,,,,,,,,2.2901,5.0,0.3911,0.1,0.0,0.008305,0.0,5.0,0.273,,,,,,203.657975,FAIL,wheels off ground
105,s01_lqr_pitch_step,g000012_c7,12,,1.2020322915150676,0.008876003449662658,0.0003936911299596915,28.690732201319772,,,,,,,,,,2.342,5.0,0.3387,0.1,0.0,0.008131,0.0,5.0,0.303,,,,,,202.247425,FAIL,wheels off ground
106,s01_lqr_pitch_step,g000013_c0,13,,10.0,0.10701928978515232,0.001342034179123803,20.40665365466117,,,,,,,,,,2.2849,5.0,0.6613,0.1,0.0,0.007967,0.0,5.0,0.27,,,,,,203.5677,FAIL,wheels off ground
107,s01_lqr_pitch_step,g000013_c1,13,,10.0,0.03552051059019037,0.0008024217027207544,148.16717493116863,,,,,,,,,,2.3475,5.0,0.6056,0.1,0.0,0.007875,0.0,5.0,0.3,,,,,,202.245625,FAIL,wheels off ground
108,s01_lqr_pitch_step,g000013_c2,13,,5.283204992578772,0.02792646372201323,0.0007956348599750288,52.358864115765556,,,,,,,,,,2.2968,5.0,0.5329,0.1,0.0,0.008136,0.0,5.0,0.299,,,,,,202.42495,FAIL,wheels off ground
109,s01_lqr_pitch_step,g000013_c3,13,,4.777926732757584,0.015232371211296399,0.008209928778398745,14.581882204998362,,,,,,,,,,3.104,5.0,0.4575,0.1,0.0,0.008737,0.0,5.0,0.178,,,,,,202.50055,FAIL,wheels off ground
110,s01_lqr_pitch_step,g000013_c4,13,,6.190533190600629,0.01632797229838381,0.00029588378264552525,17.81503706333231,,,,,,,,,,2.2271,5.0,0.2177,0.1,0.0,0.008253,0.0,5.0,0.329,,,,,,201.821975,FAIL,wheels off ground
111,s01_lqr_pitch_step,g000013_c5,13,,10.0,0.03569619933627637,0.0036879629807210768,360.5678430505519,,,,,,,,,,2.3116,5.0,0.3509,0.1,0.0,0.00801,0.0,5.0,0.302,,,,,,202.305475,FAIL,wheels off ground
112,s01_lqr_pitch_step,g000013_c6,13,,10.0,0.052368440559861534,0.01176446907094195,28.443278727191938,,,,,,,,,,3.1462,5.0,0.6526,0.1,0.0,0.00959,0.0,5.0,0.24,,,,,,206.02455,FAIL,wheels off ground
113,s01_lqr_pitch_step,g000013_c7,13,,4.8032049607980145,0.009281009306952684,0.0007911676808282864,53.68631613194863,,,,,,,,,,1.8616,5.0,0.175,0.1,0.0,0.009008,0.0,5.0,0.474,,,,,,202.322875,FAIL,wheels off ground
114,s01_lqr_pitch_step,g000014_c0,14,,5.646067064325077,0.13111874803331405,0.004276522288051607,31.701587027607673,,,,,,,,,,2.5978,5.0,0.4274,0.1,0.0,0.008803,0.0,5.0,0.264,,,,,,203.89335,FAIL,wheels off ground
115,s01_lqr_pitch_step,g000014_c1,14,,3.356438950601704,0.19632496167595317,0.002154315158874399,163.8699344911636,,,,,,,,,,2.3015,5.0,0.2339,0.1,0.0,0.008126,0.0,5.0,0.311,,,,,,202.1174,FAIL,wheels off ground
116,s01_lqr_pitch_step,g000014_c2,14,,6.444908550852419,0.050065936175181736,0.0015221734480074395,121.99827481609857,,,,,,,,,,2.2565,5.0,0.2242,0.1,0.0,0.008235,0.0,5.0,0.323,,,,,,201.904925,FAIL,wheels off ground
117,s01_lqr_pitch_step,g000014_c3,14,,6.678051840537049,0.01507687220669984,0.005354994166805689,13.0571102506615,,,,,,,,,,3.3316,5.0,0.7038,0.1,0.0,0.009645,0.0,5.0,0.238,,,,,,205.579675,FAIL,wheels off ground
118,s01_lqr_pitch_step,g000014_c4,14,,5.4486707963791865,0.04070303871031095,0.0008942909168147722,80.428033741055,,,,,,,,,,2.1911,5.0,0.2366,0.1,0.0,0.008578,0.0,5.0,0.342,,,,,,201.7514,FAIL,wheels off ground
119,s01_lqr_pitch_step,g000014_c5,14,,7.166178682271269,0.005682098533791949,0.0007388640587396393,80.13811971610248,,,,,,,,,,2.3042,5.0,0.4199,0.1,0.0,0.007972,0.0,5.0,0.308,,,,,,202.0904,FAIL,wheels off ground
120,s01_lqr_pitch_step,g000014_c6,14,,4.096537142233428,0.014346145126308657,0.0019768953284838068,31.60693194438126,,,,,,,,,,2.2786,5.0,0.5026,0.1,0.0,0.007822,0.0,5.0,0.274,,,,,,203.12055,FAIL,wheels off ground
121,s01_lqr_pitch_step,g000014_c7,14,,10.0,0.05697576512781422,0.0023917550087386046,24.758917061339115,,,,,,,,,,2.2791,5.0,0.1559,0.1,0.0,0.008166,0.0,5.0,0.301,,,,,,202.6076,FAIL,wheels off ground
122,s01_lqr_pitch_step,g000015_c0,15,,7.079467292816636,0.05065758687932048,0.0035028588054207706,74.63891207744224,,,,,,,,,,2.2869,5.0,0.3389,0.1,0.0,0.007863,0.0,5.0,0.286,,,,,,202.633575,FAIL,wheels off ground
123,s01_lqr_pitch_step,g000015_c1,15,,10.0,0.07843445289094453,0.0009666134145658958,42.93227734624251,,,,,,,,,,2.2341,5.0,0.2445,0.1,0.0,0.0083,0.0,5.0,0.322,,,,,,202.058925,FAIL,wheels off ground
124,s01_lqr_pitch_step,g000015_c2,15,,4.7489415553104735,0.021543057123495697,0.001068871177867545,9.977935743539991,,,,,,,,,,2.5911,5.0,0.4777,0.1,0.0,0.008541,0.0,5.0,0.268,,,,,,203.7813,FAIL,wheels off ground
125,s01_lqr_pitch_step,g000015_c3,15,,3.1067581842583216,0.013691080416188717,0.0015194257643658955,107.56959959098297,,,,,,,,,,2.294,5.0,0.3281,0.1,0.0,0.00819,0.0,5.0,0.305,,,,,,202.16695,FAIL,wheels off ground
126,s01_lqr_pitch_step,g000015_c4,15,,5.554294935458788,0.062462803368651586,0.0022665163482436276,46.40744324302245,,,,,,,,,,2.3009,5.0,0.6897,0.1,0.0,0.007723,0.0,5.0,0.277,,,,,,203.0626,FAIL,wheels off ground
127,s01_lqr_pitch_step,g000015_c5,15,,3.819726445676961,0.02951888779605669,0.0018423415762162,25.924442987147568,,,,,,,,,,2.2901,5.0,0.3199,0.1,0.0,0.008124,0.0,5.0,0.291,,,,,,203.0349,FAIL,wheels off ground
128,s01_lqr_pitch_step,g000015_c6,15,,4.154784352650307,0.08485582861189855,0.002725528999912565,26.6019721596964,,,,,,,,,,2.3775,5.0,0.2442,0.1,0.0,0.008065,0.0,5.0,0.288,,,,,,202.8654,FAIL,wheels off ground
129,s01_lqr_pitch_step,g000015_c7,15,,6.970988250757057,0.018306622382175366,0.0025130180322312005,23.886020537332268,,,,,,,,,,2.2862,5.0,0.6856,0.1,0.0,0.008446,0.0,5.0,0.261,,,,,,204.5892,FAIL,wheels off ground
130,s01_lqr_pitch_step,g000016_c0,16,,4.0967388660039195,0.05933195348750741,0.0009763554032099985,87.08716539965113,,,,,,,,,,2.2483,5.0,0.2935,0.1,0.0,0.008272,0.0,5.0,0.327,,,,,,201.807025,FAIL,wheels off ground
131,s01_lqr_pitch_step,g000016_c1,16,,4.3390142938725695,0.0277092530322564,0.0015294481908998522,32.06285161956683,,,,,,,,,,2.2789,5.0,0.1632,0.1,0.0,0.008087,0.0,5.0,0.307,,,,,,202.306625,FAIL,wheels off ground
132,s01_lqr_pitch_step,g000016_c2,16,,3.701496425923232,0.01756411568412394,0.0009632903622098205,59.91733930940876,,,,,,,,,,2.3076,5.0,0.3273,0.1,0.0,0.00799,0.0,5.0,0.3,,,,,,202.361975,FAIL,wheels off ground
133,s01_lqr_pitch_step,g000016_c3,16,,10.0,0.0514425328225412,0.00140101725476297,66.38824246993174,,,,,,,,,,2.3707,5.0,0.5128,0.1,0.0,0.007965,0.0,5.0,0.298,,,,,,202.45855,FAIL,wheels off ground
134,s01_lqr_pitch_step,g000016_c4,16,,5.987353801821618,0.040468018870820195,0.0026948432828137006,109.83161462257985,,,,,,,,,,2.3942,5.0,0.4612,0.1,0.0,0.00802,0.0,5.0,0.294,,,,,,202.61535,FAIL,wheels off ground
135,s01_lqr_pitch_step,g000016_c5,16,,8.425480718078923,0.053762678931508365,0.0013127774505227788,89.66111774643618,,,,,,,,,,2.2772,5.0,0.2007,0.1,0.0,0.008082,0.0,5.0,0.311,,,,,,202.0336,FAIL,wheels off ground
136,s01_lqr_pitch_step,g000016_c6,16,,10.0,0.02102428643779303,0.0018640736851176622,15.559248194232394,,,,,,,,,,2.2494,5.0,0.6669,0.1,0.0,0.007971,0.0,5.0,0.266,,,,,,204.268125,FAIL,wheels off ground
137,s01_lqr_pitch_step,g000016_c7,16,,4.665293972697382,0.0932941097927742,0.0036203719715316497,110.79425779058921,,,,,,,,,,2.3619,5.0,0.3144,0.1,0.0,0.008078,0.0,5.0,0.296,,,,,,202.391025,FAIL,wheels off ground
138,s01_lqr_pitch_step,g000017_c0,17,,6.909076973879116,0.036020570336651195,0.0017610931530187882,49.6954387249779,,,,,,,,,,2.312,5.0,0.7585,0.1,0.0,0.007688,0.0,5.0,0.279,,,,,,202.990925,FAIL,wheels off ground
139,s01_lqr_pitch_step,g000017_c1,17,,4.865263890923098,0.0235952728435143,0.002799967719038384,20.753201832388598,,,,,,,,,,2.2486,5.0,0.7125,0.1,0.0,0.007888,0.0,5.0,0.265,,,,,,203.967875,FAIL,wheels off ground
140,s01_lqr_pitch_step,g000017_c2,17,,8.25906898432374,0.03526886489167897,0.0024141473598506035,63.79212003357503,,,,,,,,,,2.4143,5.0,0.4192,0.1,0.0,0.008082,0.0,5.0,0.29,,,,,,202.749925,FAIL,wheels off ground
141,s01_lqr_pitch_step,g000017_c3,17,,6.1368410965064575,0.04374505254785518,0.001575352241304907,35.2425966738324,,,,,,,,,,2.3374,5.0,0.2421,0.1,0.0,0.008178,0.0,5.0,0.299,,,,,,202.446625,FAIL,wheels off ground
142,s01_lqr_pitch_step,g000017_c4,17,,10.0,0.06744181505703001,0.0018274555942849593,44.2207171015577,,,,,,,,,,2.3189,5.0,0.7552,0.1,0.0,0.007729,0.0,5.0,0.274,,,,,,203.33995,FAIL,wheels off ground
143,s01_lqr_pitch_step,g000017_c5,17,,4.5251475446551925,0.008881674224392207,0.0013693797926475953,46.153824574651246,,,,,,,,,,2.3753,5.0,0.4968,0.1,0.0,0.007985,0.0,5.0,0.296,,,,,,202.5181,FAIL,wheels off ground
144,s01_lqr_pitch_step,g000017_c6,17,,4.41502233095943,0.025912998924261056,0.0025410254343473677,30.709296135178505,,,,,,,,,,2.275,5.0,0.5885,0.1,0.0,0.008092,0.0,5.0,0.268,,,,,,203.701975,FAIL,wheels off ground
145,s01_lqr_pitch_step,g000017_c7,17,,10.0,0.04467071906147626,0.001563607350656592,27.916904295425997,,,,,,,,,,2.2899,5.0,0.6184,0.1,0.0,0.007717,0.0,5.0,0.274,,,,,,203.2032,FAIL,wheels off ground
146,s01_lqr_pitch_step,g000018_c0,18,,4.58031263089196,0.022953631054717545,0.0013010262718184443,27.45140932115932,,,,,,,,,,2.2962,5.0,0.3115,0.1,0.0,0.008073,0.0,5.0,0.302,,,,,,202.66045,FAIL,wheels off ground
147,s01_lqr_pitch_step,g000018_c1,18,,4.443256923769111,0.08313354545750809,0.0018429815627468839,51.40746852307542,,,,,,,,,,2.2507,5.0,0.2877,0.1,0.0,0.008069,0.0,5.0,0.316,,,,,,202.12445,FAIL,wheels off ground
148,s01_lqr_pitch_step,g000018_c2,18,,4.109124754074745,0.05460405509839074,0.0013762137117609456,14.354649999954923,,,,,,,,,,2.2985,5.0,0.2036,0.1,0.0,0.00819,0.0,5.0,0.292,,,,,,202.872225,FAIL,wheels off ground
149,s01_lqr_pitch_step,g000018_c3,18,,4.790573464123334,0.018299031496309136,0.003465399286908228,36.46310562660098,,,,,,,,,,2.2825,5.0,0.5472,0.1,0.0,0.008238,0.0,5.0,0.269,,,,,,203.60575,FAIL,wheels off ground
150,s01_lqr_pitch_step,g000018_c4,18,,9.563352650597123,0.045714492441645355,0.0009736586611039138,30.53725264498481,,,,,,,,,,2.332,5.0,0.3658,0.1,0.0,0.008106,0.0,5.0,0.302,,,,,,202.43055,FAIL,wheels off ground
151,s01_lqr_pitch_step,g000018_c5,18,,3.8236893426986,0.025861979901801644,0.0015981772572205577,21.978967533803,,,,,,,,,,2.2902,5.0,0.5509,0.1,0.0,0.007962,0.0,5.0,0.269,,,,,,203.5537,FAIL,wheels off ground
152,s01_lqr_pitch_step,g000018_c6,18,,3.24162333403277,0.03652517339227364,0.0017972178277312874,23.440701095294372,,,,,,,,,,2.3011,5.0,0.3513,0.1,0.0,0.00812,0.0,5.0,0.276,,,,,,203.203225,FAIL,wheels off ground
153,s01_lqr_pitch_step,g000018_c7,18,,5.140077273309339,0.03904798898060919,0.0009385725257110392,17.864518158113132,,,,,,,,,,2.3044,5.0,0.6887,0.1,0.0,0.007756,0.0,5.0,0.272,,,,,,203.44895,FAIL,wheels off ground
154,s01_lqr_pitch_step,g000019_c0,19,,5.686215499377207,0.022925015582968004,0.0011199563292490198,38.18238306690197,,,,,,,,,,2.312,5.0,0.4967,0.1,0.0,0.008004,0.0,5.0,0.286,,,,,,202.648625,FAIL,wheels off ground
155,s01_lqr_pitch_step,g000019_c1,19,,5.995699260034181,0.026750929602882414,0.0025961067839985674,33.17155510617565,,,,,,,,,,2.2653,5.0,0.6355,0.1,0.0,0.007938,0.0,5.0,0.272,,,,,,203.424525,FAIL,wheels off ground
156,s01_lqr_pitch_step,g000019_c2,19,,4.285610488886147,0.043418466562759495,0.0012947045227772085,27.530288971916374,,,,,,,,,,2.3028,5.0,0.6905,0.1,0.0,0.007661,0.0,5.0,0.275,,,,,,203.2989,FAIL,wheels off ground
157,s01_lqr_pitch_step,g000019_c3,19,,5.338872081679119,0.02115648956924009,0.000955752679404395,23.74605897153644,,,,,,,,,,2.3042,5.0,0.4868,0.1,0.0,0.00798,0.0,5.0,0.283,,,,,,202.775125,FAIL,wheels off ground
158,s01_lqr_pitch_step,g000019_c4,19,,4.864980314670816,0.03208272218818566,0.0019045939330793913,34.4029521259749,,,,,,,,,,2.3333,5.0,0.3936,0.1,0.0,0.00808,0.0,5.0,0.3,,,,,,202.740425,FAIL,wheels off ground
159,s01_lqr_pitch_step,g000019_c5,19,,7.344675914798059,0.050051146523081354,0.002476570679520348,63.06995958915859,,,,,,,,,,2.3791,5.0,0.4117,0.1,0.0,0.008099,0.0,5.0,0.295,,,,,,202.525275,FAIL,wheels off ground
160,s01_lqr_pitch_step,g000019_c6,19,,2.1876108447516676,0.04637558666831469,0.0017021619973374958,44.00174599410954,,,,,,,,,,2.3756,5.0,0.4742,0.1,0.0,0.008003,0.0,5.0,0.294,,,,,,202.76775,FAIL,wheels off ground
161,s01_lqr_pitch_step,g000019_c7,19,,5.194827672941564,0.028321894968960083,0.0009675852646080465,41.47905826504756,,,,,,,,,,2.3339,5.0,0.3084,0.1,0.0,0.008035,0.0,5.0,0.304,,,,,,202.3157,FAIL,wheels off ground
162,s01_lqr_pitch_step,g000020_c0,20,,7.409011302185759,0.03659244448855412,0.0012787383592142683,59.88893849197082,,,,,,,,,,2.2525,5.0,0.3033,0.1,0.0,0.00811,0.0,5.0,0.321,,,,,,202.014125,FAIL,wheels off ground
163,s01_lqr_pitch_step,g000020_c1,20,,6.187494612697605,0.028341612225511927,0.0021291272277652812,33.42552911528509,,,,,,,,,,2.29,5.0,0.3154,0.1,0.0,0.008119,0.0,5.0,0.288,,,,,,202.94765,FAIL,wheels off ground
164,s01_lqr_pitch_step,g000020_c2,20,,7.984644905077364,0.034427703364526545,0.0014956670587628765,33.8642559962531,,,,,,,,,,2.2931,5.0,0.486,0.1,0.0,0.007953,0.0,5.0,0.284,,,,,,202.827275,FAIL,wheels off ground
165,s01_lqr_pitch_step,g000020_c3,20,,3.5104942105780093,0.022589412164594508,0.0016935393021171685,53.53619098414092,,,,,,,,,,2.392,5.0,0.5669,0.1,0.0,0.008002,0.0,5.0,0.296,,,,,,202.718725,FAIL,wheels off ground
166,s01_lqr_pitch_step,g000020_c4,20,,5.969572507519885,0.04027419703491139,0.0013474140524545957,28.754118395860555,,,,,,,,,,2.2971,5.0,0.6013,0.1,0.0,0.007762,0.0,5.0,0.279,,,,,,202.772225,FAIL,wheels off ground
167,s01_lqr_pitch_step,g000020_c5,20,,5.3771601844598615,0.03282588283075406,0.0015015061255057366,43.41157138079437,,,,,,,,,,2.2712,5.0,0.3062,0.1,0.0,0.007989,0.0,5.0,0.308,,,,,,202.261575,FAIL,wheels off ground
168,s01_lqr_pitch_step,g000020_c6,20,,5.229044613586593,0.040036942634773726,0.0021147875106365716,42.583910819526395,,,,,,,,,,2.3685,5.0,0.2869,0.1,0.0,0.008159,0.0,5.0,0.294,,,,,,202.574725,FAIL,wheels off ground
169,s01_lqr_pitch_step,g000020_c7,20,,3.9479128058007493,0.03715848646653952,0.0025119595203292205,48.649016837920634,,,,,,,,,,2.2259,5.0,0.1843,0.1,0.0,0.008224,0.0,5.0,0.321,,,,,,202.12155,FAIL,wheels off ground
170,s01_lqr_pitch_step,g000021_c0,21,,4.397656462944749,0.03440474226151235,0.0012224715567787092,29.84339509451714,,,,,,,,,,2.3751,5.0,0.3977,0.1,0.0,0.008094,0.0,5.0,0.295,,,,,,202.5196,FAIL,wheels off ground
171,s01_lqr_pitch_step,g000021_c1,21,,6.457021768870123,0.0338698906044374,0.0014341923630834107,36.46549045298085,,,,,,,,,,2.2969,5.0,0.4897,0.1,0.0,0.008018,0.0,5.0,0.285,,,,,,202.682825,FAIL,wheels off ground
172,s01_lqr_pitch_step,g000021_c2,21,,5.249393757561773,0.026757892508474344,0.0017508586846938395,53.53254380925887,,,,,,,,,,2.3157,5.0,0.2156,0.1,0.0,0.008124,0.0,5.0,0.305,,,,,,202.259325,FAIL,wheels off ground
173,s01_lqr_pitch_step,g000021_c3,21,,3.8349321666797804,0.04432414881724994,0.0020277044144939933,34.57075583068111,,,,,,,,,,2.3273,5.0,0.3621,0.1,0.0,0.008126,0.0,5.0,0.299,,,,,,202.822925,FAIL,wheels off ground
174,s01_lqr_pitch_step,g000021_c4,21,,5.356640149550087,0.033114247203771915,0.0018067416095306386,47.65392718069343,,,,,,,,,,2.3116,5.0,0.2023,0.1,0.0,0.008074,0.0,5.0,0.305,,,,,,202.31595,FAIL,wheels off ground
175,s01_lqr_pitch_step,g000021_c5,21,,6.1416053069083265,0.03958730300413601,0.0013420951362271706,39.61121258853047,,,,,,,,,,2.2172,5.0,0.1591,0.1,0.0,0.008206,0.0,5.0,0.328,,,,,,202.064925,FAIL,wheels off ground
176,s01_lqr_pitch_step,g000021_c6,21,,7.604469956422876,0.03249572868424241,0.0018668610383984127,41.1955074432976,,,,,,,,,,2.295,5.0,0.7526,0.1,0.0,0.007713,0.0,5.0,0.278,,,,,,203.058725,FAIL,wheels off ground
177,s01_lqr_pitch_step,g000021_c7,21,,4.4733365634844615,0.024640393239533962,0.002091468592095791,35.3487791544571,,,,,,,,,,2.2923,5.0,0.6353,0.1,0.0,0.007799,0.0,5.0,0.272,,,,,,203.439425,FAIL,wheels off ground
178,s01_lqr_pitch_step,g000022_c0,22,,4.945819135433979,0.047441735401506605,0.0013308056610371521,35.467338126092464,,,,,,,,,,2.3165,5.0,0.3652,0.1,0.0,0.007958,0.0,5.0,0.303,,,,,,202.49835,FAIL,wheels off ground
179,s01_lqr_pitch_step,g000022_c1,22,,4.425894776439815,0.03494840140620751,0.001474385173145147,29.831750168517132,,,,,,,,,,2.2973,5.0,0.6248,0.1,0.0,0.007711,0.0,5.0,0.275,,,,,,203.157625,FAIL,wheels off ground
180,s01_lqr_pitch_step,g000022_c2,22,,5.929940840813365,0.031978505569655556,0.0014812082676274544,44.42123111562388,,,,,,,,,,2.3904,5.0,0.3885,0.1,0.0,0.008129,0.0,5.0,0.295,,,,,,202.459,FAIL,wheels off ground
181,s01_lqr_pitch_step,g000022_c3,22,,5.808339559314138,0.03065800335287693,0.0014008590591612514,32.48937156135551,,,,,,,,,,2.3012,5.0,0.4768,0.1,0.0,0.007864,0.0,5.0,0.287,,,,,,202.721175,FAIL,wheels off ground
182,s01_lqr_pitch_step,g000022_c4,22,,4.337905387224987,0.04025800501445814,0.0014593320547407632,42.313038863952436,,,,,,,,,,2.2975,5.0,0.3415,0.1,0.0,0.007994,0.0,5.0,0.292,,,,,,202.57475,FAIL,wheels off ground
183,s01_lqr_pitch_step,g000022_c5,22,,6.434267228859789,0.02696702837851689,0.0018034200987815947,41.83919446131468,,,,,,,,,,2.269,5.0,0.2072,0.1,0.0,0.008139,0.0,5.0,0.305,,,,,,202.310575,FAIL,wheels off ground
184,s01_lqr_pitch_step,g000022_c6,22,,4.927307580774475,0.037319600652355185,0.0019023626631703915,33.56435178168883,,,,,,,,,,2.3034,5.0,0.6416,0.1,0.0,0.007883,0.0,5.0,0.27,,,,,,203.510775,FAIL,wheels off ground
185,s01_lqr_pitch_step,g000022_c7,22,,5.354589748952342,0.036403210544344713,0.0014157027892831577,49.571235163007785,,,,,,,,,,2.3274,5.0,0.3868,0.1,0.0,0.007988,0.0,5.0,0.303,,,,,,202.49395,FAIL,wheels off ground
186,s01_lqr_pitch_step,g000023_c0,23,,6.324087947905339,0.03421355059808365,0.0017491102838593131,34.439048977990865,,,,,,,,,,2.2802,5.0,0.1457,0.1,0.0,0.008119,0.0,5.0,0.301,,,,,,202.429725,FAIL,wheels off ground
187,s01_lqr_pitch_step,g000023_c1,23,,4.72895289123091,0.03202966607185489,0.00203587041758249,32.75126320572826,,,,,,,,,,2.304,5.0,0.6467,0.1,0.0,0.008099,0.0,5.0,0.268,,,,,,203.6231,FAIL,wheels off ground
188,s01_lqr_pitch_step,g000023_c2,23,,6.041695757410821,0.04167319785285885,0.0017192114146998376,35.74015317314254,,,,,,,,,,2.2918,5.0,0.3313,0.1,0.0,0.008055,0.0,5.0,0.292,,,,,,202.68405,FAIL,wheels off ground
189,s01_lqr_pitch_step,g000023_c3,23,,5.395393832300223,0.03519756796660672,0.001514577029250368,41.137284622952194,,,,,,,,,,2.2887,5.0,0.3735,0.1,0.0,0.007921,0.0,5.0,0.299,,,,,,202.4488,FAIL,wheels off ground
190,s01_lqr_pitch_step,g000023_c4,23,,7.728507294438365,0.039084598038938136,0.0018100090532681987,40.03270683121515,,,,,,,,,,2.3924,5.0,0.4542,0.1,0.0,0.008155,0.0,5.0,0.295,,,,,,202.595025,FAIL,wheels off ground
191,s01_lqr_pitch_step,g000023_c5,23,,5.106022664888541,0.03163730699700002,0.0015715788967953785,38.055713989712906,,,,,,,,,,2.372,5.0,0.2947,0.1,0.0,0.008122,0.0,5.0,0.296,,,,,,202.509275,FAIL,wheels off ground
192,s01_lqr_pitch_step,g000023_c6,23,,6.283265928730234,0.03851133764717644,0.0018388673522028776,40.19653167631992,,,,,,,,,,2.2884,5.0,0.5778,0.1,0.0,0.007764,0.0,5.0,0.282,,,,,,202.721875,FAIL,wheels off ground
193,s01_lqr_pitch_step,g000023_c7,23,,5.905674319892687,0.04002166152791407,0.001332937797135577,42.25864453174999,,,,,,,,,,2.3749,5.0,0.4345,0.1,0.0,0.008168,0.0,5.0,0.297,,,,,,202.4663,FAIL,wheels off ground
194,s01_lqr_pitch_step,g000024_c0,24,,6.231186961424775,0.034452946602423394,0.0017806940989814847,35.087639274236984,,,,,,,,,,2.2971,5.0,0.4614,0.1,0.0,0.007941,0.0,5.0,0.281,,,,,,202.99325,FAIL,wheels off ground
195,s01_lqr_pitch_step,g000024_c1,24,,5.569491855281849,0.039406366847799267,0.0013850489940665158,34.235356167074194,,,,,,,,,,2.3064,5.0,0.2812,0.1,0.0,0.008058,0.0,5.0,0.305,,,,,,202.27695,FAIL,wheels off ground
196,s01_lqr_pitch_step,g000024_c2,24,,5.652079323179664,0.040127031367911674,0.0016941533121696039,36.482229392113126,,,,,,,,,,2.3095,5.0,0.7486,0.1,0.0,0.00779,0.0,5.0,0.274,,,,,,203.433375,FAIL,wheels off ground
197,s01_lqr_pitch_step,g000024_c3,24,,5.472317102347699,0.03671995219873968,0.0016805206325113062,44.33780100658923,,,,,,,,,,2.2941,5.0,0.3828,0.1,0.0,0.007873,0.0,5.0,0.29,,,,,,202.422475,FAIL,wheels off ground
198,s01_lqr_pitch_step,g000024_c4,24,,4.289044222111372,0.036663157128807425,0.00176817380965723,37.374197110057494,,,,,,,,,,2.425,5.0,0.4904,0.1,0.0,0.008207,0.0,5.0,0.289,,,,,,202.968,FAIL,wheels off ground
199,s01_lqr_pitch_step,g000024_c5,24,,4.798720268721456,0.029954993165054504,0.0017864986847752958,41.952362264364524,,,,,,,,,,2.4029,5.0,0.4608,0.1,0.0,0.008089,0.0,5.0,0.292,,,,,,202.79085,FAIL,wheels off ground
200,s01_lqr_pitch_step,g000024_c6,24,,5.39248705345727,0.037928546001684785,0.0015245093862703918,37.36862041315831,,,,,,,,,,2.4142,5.0,0.4806,0.1,0.0,0.008115,0.0,5.0,0.291,,,,,,202.8319,FAIL,wheels off ground
201,s01_lqr_pitch_step,g000024_c7,24,,5.495209432554969,0.031581358027857546,0.0013515994600564454,41.91959993954328,,,,,,,,,,2.2986,5.0,0.3727,0.1,0.0,0.007937,0.0,5.0,0.298,,,,,,202.381575,FAIL,wheels off ground
202,s01_lqr_pitch_step,g000025_c0,25,,5.810428902492588,0.04213717388747766,0.001630441880215227,35.646570005081394,,,,,,,,,,2.3137,5.0,0.745,0.1,0.0,0.007899,0.0,5.0,0.273,,,,,,203.38575,FAIL,wheels off ground
203,s01_lqr_pitch_step,g000025_c1,25,,5.601165658392119,0.03209204972037414,0.0015496852317724615,42.96162630102744,,,,,,,,,,2.4049,5.0,0.3947,0.1,0.0,0.008144,0.0,5.0,0.291,,,,,,202.583725,FAIL,wheels off ground
204,s01_lqr_pitch_step,g000025_c2,25,,5.000581748914724,0.030436587555928984,0.0016581308850081898,38.35755209254415,,,,,,,,,,2.2878,5.0,0.2825,0.1,0.0,0.008059,0.0,5.0,0.304,,,,,,202.452275,FAIL,wheels off ground
205,s01_lqr_pitch_step,g000025_c3,25,,5.369452402253742,0.03872054380808979,0.0018833900995562012,44.11867221417852,,,,,,,,,,2.4149,5.0,0.3963,0.1,0.0,0.008105,0.0,5.0,0.291,,,,,,202.71135,FAIL,wheels off ground
206,s01_lqr_pitch_step,g000025_c4,25,,5.0031862468341375,0.03477783331186539,0.0017219878896701712,38.017089588841166,,,,,,,,,,2.3288,5.0,0.6619,0.1,0.0,0.008012,0.0,5.0,0.272,,,,,,203.373125,FAIL,wheels off ground
207,s01_lqr_pitch_step,g000025_c5,25,,4.259858802103652,0.03442096693761321,0.001977932672813057,36.08234471901563,,,,,,,,,,2.2914,5.0,0.6338,0.1,0.0,0.007773,0.0,5.0,0.277,,,,,,202.95755,FAIL,wheels off ground
208,s01_lqr_pitch_step,g000025_c6,25,,5.445037537931781,0.030165793950398874,0.0015119389919985825,38.47087759518535,,,,,,,,,,2.404,5.0,0.3294,0.1,0.0,0.00815,0.0,5.0,0.291,,,,,,202.649325,FAIL,wheels off ground
209,s01_lqr_pitch_step,g000025_c7,25,,4.970449795245479,0.038472335754139324,0.0018490493900313694,38.3761427329238,,,,,,,,,,2.2919,5.0,0.5363,0.1,0.0,0.00786,0.0,5.0,0.287,,,,,,202.916475,FAIL,wheels off ground
210,s01_lqr_pitch_step,g000026_c0,26,,5.745336571095,0.03485882782272317,0.0015756018258109641,37.586790479477614,,,,,,,,,,2.3025,5.0,0.2745,0.1,0.0,0.007963,0.0,5.0,0.294,,,,,,202.580025,FAIL,wheels off ground
211,s01_lqr_pitch_step,g000026_c1,26,,5.1860597263253165,0.02858929962879063,0.0015884298861154537,39.511991361809265,,,,,,,,,,2.3061,5.0,0.4067,0.1,0.0,0.007817,0.0,5.0,0.281,,,,,,202.799675,FAIL,wheels off ground
212,s01_lqr_pitch_step,g000026_c2,26,,5.314884263875306,0.031113808381819378,0.0016492471881611687,38.58074095886568,,,,,,,,,,2.3101,5.0,0.331,0.1,0.0,0.008,0.0,5.0,0.302,,,,,,202.58635,FAIL,wheels off ground
213,s01_lqr_pitch_step,g000026_c3,26,,4.751588938720194,0.03203407253611671,0.0016898756770757093,43.43170874256214,,,,,,,,,,2.3994,5.0,0.3629,0.1,0.0,0.008094,0.0,5.0,0.291,,,,,,202.654975,FAIL,wheels off ground
214,s01_lqr_pitch_step,g000026_c4,26,,5.165989704674522,0.031012335896030377,0.001657490467697227,41.38442133286677,,,,,,,,,,2.3071,5.0,0.4876,0.1,0.0,0.007888,0.0,5.0,0.287,,,,,,202.6886,FAIL,wheels off ground
215,s01_lqr_pitch_step,g000026_c5,26,,5.250016977712561,0.03557038004664756,0.00153300721645576,36.87919740654011,,,,,,,,,,2.3887,5.0,0.4639,0.1,0.0,0.008175,0.0,5.0,0.296,,,,,,202.51255,FAIL,wheels off ground
216,s01_lqr_pitch_step,g000026_c6,26,,4.860876973812217,0.031573556024533676,0.0016275163987416908,39.24315115942402,,,,,,,,,,2.3174,5.0,0.6754,0.1,0.0,0.007705,0.0,5.0,0.274,,,,,,203.198175,FAIL,wheels off ground
217,s01_lqr_pitch_step,g000026_c7,26,,5.283100342639355,0.039751559061512697,0.0016161082344406036,44.71194707151623,,,,,,,,,,2.3458,5.0,0.3044,0.1,0.0,0.00819,0.0,5.0,0.299,,,,,,202.5149,FAIL,wheels off ground
218,s01_lqr_pitch_step,g000027_c0,27,,5.044056594596146,0.03208682948546524,0.0017987009169395409,44.29630394166912,,,,,,,,,,2.2941,5.0,0.2528,0.1,0.0,0.007981,0.0,5.0,0.295,,,,,,202.48445,FAIL,wheels off ground
219,s01_lqr_pitch_step,g000027_c1,27,,5.180084047824378,0.03225967106376046,0.0015591084428905502,41.01219512780546,,,,,,,,,,2.2941,5.0,0.4754,0.1,0.0,0.008008,0.0,5.0,0.286,,,,,,202.6777,FAIL,wheels off ground
220,s01_lqr_pitch_step,g000027_c2,27,,5.329155152845365,0.035274521718163,0.001740489789762478,42.97046325672655,,,,,,,,,,2.3011,5.0,0.334,0.1,0.0,0.007927,0.0,5.0,0.295,,,,,,202.64425,FAIL,wheels off ground
221,s01_lqr_pitch_step,g000027_c3,27,,4.929957695027829,0.029403130215948283,0.0014208063300712817,37.427442219364444,,,,,,,,,,2.411,5.0,0.3421,0.1,0.0,0.008195,0.0,5.0,0.29,,,,,,202.6278,FAIL,wheels off ground
222,s01_lqr_pitch_step,g000027_c4,27,,4.975846710479596,0.038068641587836696,0.00148331983591076,39.13601352166764,,,,,,,,,,2.3825,5.0,0.3934,0.1,0.0,0.008156,0.0,5.0,0.293,,,,,,202.576725,FAIL,wheels off ground
223,s01_lqr_pitch_step,g000027_c5,27,,5.418497023981105,0.031809505167788125,0.0015767382655030742,36.88340508984597,,,,,,,,,,2.3186,5.0,0.6623,0.1,0.0,0.007746,0.0,5.0,0.273,,,,,,203.19365,FAIL,wheels off ground
224,s01_lqr_pitch_step,g000027_c6,27,,5.27381525098144,0.03486793731491967,0.001761816862153603,41.639511274770214,,,,,,,,,,2.3637,5.0,0.2709,0.1,0.0,0.008124,0.0,5.0,0.295,,,,,,202.542625,FAIL,wheels off ground
225,s01_lqr_pitch_step,g000027_c7,27,,5.0469564349545895,0.03455156519300857,0.0016627099945673177,39.472471543903715,,,,,,,,,,2.2854,5.0,0.2119,0.1,0.0,0.007974,0.0,5.0,0.296,,,,,,202.408975,FAIL,wheels off ground
226,s01_lqr_pitch_step,g000028_c0,28,,5.4637084219068095,0.036589411426200216,0.001690767777953235,40.9796124714083,,,,,,,,,,2.3261,5.0,0.3286,0.1,0.0,0.008068,0.0,5.0,0.3,,,,,,202.64275,FAIL,wheels off ground
227,s01_lqr_pitch_step,g000028_c1,28,,5.903221757513122,0.033489456807170914,0.0016883938108671868,39.14703553529377,,,,,,,,,,2.2937,5.0,0.4149,0.1,0.0,0.007848,0.0,5.0,0.282,,,,,,202.7415,FAIL,wheels off ground
228,s01_lqr_pitch_step,g000028_c2,28,,5.628293526563638,0.03494466313861476,0.0017165722427348552,41.26032619927121,,,,,,,,,,2.3872,5.0,0.4706,0.1,0.0,0.008055,0.0,5.0,0.292,,,,,,202.7266,FAIL,wheels off ground
229,s01_lqr_pitch_step,g000028_c3,28,,5.779051258361507,0.03303884238573895,0.0018263362124737617,37.61353056330831,,,,,,,,,,2.3765,5.0,0.3867,0.1,0.0,0.008129,0.0,5.0,0.297,,,,,,202.46235,FAIL,wheels off ground
230,s01_lqr_pitch_step,g000028_c4,28,,5.605815464753109,0.03217577370342039,0.0017614421637160036,41.1167139011606,,,,,,,,,,2.2978,5.0,0.5088,0.1,0.0,0.007911,0.0,5.0,0.282,,,,,,202.9882,FAIL,wheels off ground
231,s01_lqr_pitch_step,g000028_c5,28,,5.72910299140736,0.03420145449843096,0.001531303689163811,38.694870787639836,,,,,,,,,,2.2811,5.0,0.2636,0.1,0.0,0.008198,0.0,5.0,0.309,,,,,,202.311075,FAIL,wheels off ground
232,s01_lqr_pitch_step,g000028_c6,28,,5.2227123599552465,0.03687346310350579,0.0016352764562667418,43.7905346722064,,,,,,,,,,2.3749,5.0,0.4698,0.1,0.0,0.008032,0.0,5.0,0.295,,,,,,202.681525,FAIL,wheels off ground
233,s01_lqr_pitch_step,g000028_c7,28,,5.4276046027539255,0.03348763413314237,0.0015834006050743496,39.948859387688934,,,,,,,,,,2.3746,5.0,0.5383,0.1,0.0,0.007911,0.0,5.0,0.298,,,,,,202.6799,FAIL,wheels off ground
234,s01_lqr_pitch_step,g000029_c0,29,,6.073975349033621,0.033005894912994105,0.0017419490610945392,38.985745380619875,,,,,,,,,,2.3696,5.0,0.5206,0.1,0.0,0.007935,0.0,5.0,0.297,,,,,,202.726425,FAIL,wheels off ground
235,s01_lqr_pitch_step,g000029_c1,29,,5.308019522541465,0.034572378388366055,0.0015894302494709903,41.21682544675255,,,,,,,,,,2.3073,5.0,0.4519,0.1,0.0,0.007812,0.0,5.0,0.28,,,,,,202.714475,FAIL,wheels off ground
236,s01_lqr_pitch_step,g000029_c2,29,,5.430126242887485,0.03506013405166308,0.001701391619665631,39.218148163969836,,,,,,,,,,2.2939,5.0,0.4078,0.1,0.0,0.007834,0.0,5.0,0.282,,,,,,202.73195,FAIL,wheels off ground
237,s01_lqr_pitch_step,g000029_c3,29,,5.417369706630023,0.03550358567220281,0.0016306963398968527,40.126857585897696,,,,,,,,,,2.3384,5.0,0.367,0.1,0.0,0.00815,0.0,5.0,0.3,,,,,,202.69095,FAIL,wheels off ground
238,s01_lqr_pitch_step,g000029_c4,29,,5.520555104082045,0.033482207715049485,0.0015759461588136451,40.61007871262442,,,,,,,,,,2.4059,5.0,0.336,0.1,0.0,0.008165,0.0,5.0,0.291,,,,,,202.6202,FAIL,wheels off ground
239,s01_lqr_pitch_step,g000029_c5,29,,5.700924984187814,0.03335678432332906,0.0015868473212256855,38.64107555815057,,,,,,,,,,2.2949,5.0,0.2432,0.1,0.0,0.00807,0.0,5.0,0.295,,,,,,202.443375,FAIL,wheels off ground
240,s01_lqr_pitch_step,g000029_c6,29,,5.2006112205198525,0.03136665086664852,0.0016816085296310914,38.57368735417023,,,,,,,,,,2.3012,5.0,0.2845,0.1,0.0,0.008,0.0,5.0,0.29,,,,,,202.7197,FAIL,wheels off ground
241,s01_lqr_pitch_step,g000029_c7,29,,5.3360503165717335,0.03452220166744908,0.0014871388861087648,38.41732349742855,,,,,,,,,,2.2811,5.0,0.2484,0.1,0.0,0.008147,0.0,5.0,0.302,,,,,,202.4149,FAIL,wheels off ground
242,s01_lqr_pitch_step,g000030_c0,30,,5.469916497251001,0.03363055812734954,0.0016016656572042183,37.31766458002174,,,,,,,,,,2.2983,5.0,0.5245,0.1,0.0,0.007766,0.0,5.0,0.28,,,,,,202.706025,FAIL,wheels off ground
243,s01_lqr_pitch_step,g000030_c1,30,,5.549364188740507,0.03488262632933528,0.0016625033766305161,40.453033872180995,,,,,,,,,,2.3046,5.0,0.6091,0.1,0.0,0.00776,0.0,5.0,0.279,,,,,,202.7258,FAIL,wheels off ground
244,s01_lqr_pitch_step,g000030_c2,30,,5.572061905002681,0.032317262862667236,0.0017060858921607459,38.24687954252881,,,,,,,,,,2.3017,5.0,0.4096,0.1,0.0,0.007837,0.0,5.0,0.28,,,,,,202.8359,FAIL,wheels off ground
245,s01_lqr_pitch_step,g000030_c3,30,,5.5608896047362615,0.03311485348758154,0.001665502295164324,38.311157274968096,,,,,,,,,,2.3819,5.0,0.2927,0.1,0.0,0.008151,0.0,5.0,0.294,,,,,,202.5873,FAIL,wheels off ground
246,s01_lqr_pitch_step,g000030_c4,30,,5.163142288527143,0.033585712282059296,0.0018074364652960698,37.58086620699767,,,,,,,,,,2.3166,5.0,0.4983,0.1,0.0,0.007977,0.0,5.0,0.274,,,,,,203.029,FAIL,wheels off ground
247,s01_lqr_pitch_step,g000030_c5,30,,5.282051369062614,0.03408884105522319,0.0016596719082827445,40.1730453855744,,,,,,,,,,2.2956,5.0,0.3345,0.1,0.0,0.007959,0.0,5.0,0.292,,,,,,202.576675,FAIL,wheels off ground
248,s01_lqr_pitch_step,g000030_c6,30,,5.506509007656149,0.03278262209030982,0.0016674010391847629,42.00190913752949,,,,,,,,,,2.2785,5.0,0.2425,0.1,0.0,0.008043,0.0,5.0,0.306,,,,,,202.25195,FAIL,wheels off ground
249,s01_lqr_pitch_step,g000030_c7,30,,5.552557660863062,0.03420029434891944,0.0017810668424598996,38.81752817632833,,,,,,,,,,2.2902,5.0,0.502,0.1,0.0,0.007964,0.0,5.0,0.284,,,,,,202.843,FAIL,wheels off ground
250,s01_lqr_pitch_step,g000031_c0,31,,5.370419944515706,0.03400217105831326,0.0016818746274897326,39.19380983199933,,,,,,,,,,2.3589,5.0,0.3436,0.1,0.0,0.008232,0.0,5.0,0.295,,,,,,202.84595,FAIL,wheels off ground
251,s01_lqr_pitch_step,g000031_c1,31,,5.294366613165493,0.03260807101391096,0.0016360534431299897,39.09939806436578,,,,,,,,,,2.2949,5.0,0.6169,0.1,0.0,0.007781,0.0,5.0,0.281,,,,,,202.7278,FAIL,wheels off ground
252,s01_lqr_pitch_step,g000031_c2,31,,5.395815893938534,0.0322473322707398,0.0016021199401445045,41.52880502951694,,,,,,,,,,2.3802,5.0,0.3088,0.1,0.0,0.008156,0.0,5.0,0.295,,,,,,202.633925,FAIL,wheels off ground
253,s01_lqr_pitch_step,g000031_c3,31,,5.21864034615778,0.03400600700903094,0.0015940416246597786,40.24990415775131,,,,,,,,,,2.3785,5.0,0.4447,0.1,0.0,0.008105,0.0,5.0,0.294,,,,,,202.61045,FAIL,wheels off ground
254,s01_lqr_pitch_step,g000031_c4,31,,5.432403129684785,0.0320512735859504,0.0016195207942995382,39.41190538889184,,,,,,,,,,2.3096,5.0,0.6041,0.1,0.0,0.007814,0.0,5.0,0.278,,,,,,202.806725,FAIL,wheels off ground
255,s01_lqr_pitch_step,g000031_c5,31,,5.251542491753457,0.03346369908320209,0.0016472851527263071,39.46369754473394,,,,,,,,,,2.3636,5.0,0.2831,0.1,0.0,0.008104,0.0,5.0,0.295,,,,,,202.626,FAIL,wheels off ground
256,s01_lqr_pitch_step,g000031_c6,31,,5.205700523775012,0.03224784571286879,0.0016073924724869318,38.79979599088768,,,,,,,,,,2.3034,5.0,0.7466,0.1,0.0,0.007727,0.0,5.0,0.278,,,,,,203.0117,FAIL,wheels off ground
257,s01_lqr_pitch_step,g000031_c7,31,,5.56768940008608,0.03500657041381935,0.0016072501774663666,40.57143353250258,,,,,,,,,,2.4143,5.0,0.4515,0.1,0.0,0.00819,0.0,5.0,0.29,,,,,,202.784525,FAIL,wheels off ground
258,s01_lqr_pitch_step,g000032_c0,32,,5.481807721489673,0.03252507321141883,0.0016032044743151082,39.93217821971925,,,,,,,,,,2.3112,5.0,0.4754,0.1,0.0,0.007825,0.0,5.0,0.285,,,,,,202.833725,FAIL,wheels off ground
259,s01_lqr_pitch_step,g000032_c1,32,,5.392388120727317,0.03523667684759715,0.00164863874716977,38.268080777308604,,,,,,,,,,2.3823,5.0,0.4703,0.1,0.0,0.008059,0.0,5.0,0.295,,,,,,202.6044,FAIL,wheels off ground
260,s01_lqr_pitch_step,g000032_c2,32,,5.381936960585234,0.03305849209366899,0.0016771219641447362,40.19913753034185,,,,,,,,,,2.2978,5.0,0.3864,0.1,0.0,0.007948,0.0,5.0,0.295,,,,,,202.68895,FAIL,wheels off ground
261,s01_lqr_pitch_step,g000032_c3,32,,5.376717994087638,0.032811705026804784,0.0017424861874984158,39.677559013713115,,,,,,,,,,2.3197,5.0,0.7203,0.1,0.0,0.007716,0.0,5.0,0.273,,,,,,203.420725,FAIL,wheels off ground
262,s01_lqr_pitch_step,g000032_c4,32,,5.448801245143859,0.03248746662479028,0.001646731236672449,38.14918937544417,,,,,,,,,,2.2786,5.0,0.1796,0.1,0.0,0.008024,0.0,5.0,0.304,,,,,,202.320875,FAIL,wheels off ground
263,s01_lqr_pitch_step,g000032_c5,32,,5.252481711510734,0.033934387501308456,0.0016051696295512616,40.61001391823431,,,,,,,,,,2.4072,5.0,0.3689,0.1,0.0,0.008142,0.0,5.0,0.293,,,,,,202.6027,FAIL,wheels off ground
264,s01_lqr_pitch_step,g000032_c6,32,,5.432428552634696,0.0334109052291042,0.0016118730187636638,38.900556641986014,,,,,,,,,,2.2574,5.0,0.3142,0.1,0.0,0.008055,0.0,5.0,0.315,,,,,,202.27135,FAIL,wheels off ground
265,s01_lqr_pitch_step,g000032_c7,32,,5.596595181686716,0.03365818421737391,0.0016582075145594774,40.04185332976942,,,,,,,,,,2.3343,5.0,0.7107,0.1,0.0,0.007977,0.0,5.0,0.271,,,,,,203.4921,FAIL,wheels off ground
266,s01_lqr_pitch_step,g000033_c0,33,,5.445707070004507,0.03417553880279971,0.0016565128830849348,40.54397019227848,,,,,,,,,,2.2734,5.0,0.2388,0.1,0.0,0.008192,0.0,5.0,0.31,,,,,,202.323725,FAIL,wheels off ground
267,s01_lqr_pitch_step,g000033_c1,33,,5.556556745326037,0.03458111896456953,0.0016473267120919275,39.772134514064,,,,,,,,,,2.2979,5.0,0.1276,0.1,0.0,0.00813,0.0,5.0,0.301,,,,,,202.39245,FAIL,wheels off ground
268,s01_lqr_pitch_step,g000033_c2,33,,5.480965265445224,0.03409278853823879,0.0016677070133921878,40.986382888977076,,,,,,,,,,2.2943,5.0,0.373,0.1,0.0,0.007932,0.0,5.0,0.286,,,,,,202.624075,FAIL,wheels off ground
269,s01_lqr_pitch_step,g000033_c3,33,,5.443474127660512,0.03452961957607686,0.0016986025793217765,39.85521946267901,,,,,,,,,,2.2982,5.0,0.4638,0.1,0.0,0.007829,0.0,5.0,0.28,,,,,,202.718,FAIL,wheels off ground
270,s01_lqr_pitch_step,g000033_c4,33,,5.208452551246728,0.03369590200254044,0.0016336816970553979,39.87390262975873,,,,,,,,,,2.2845,5.0,0.2024,0.1,0.0,0.008009,0.0,5.0,0.299,,,,,,202.378525,FAIL,wheels off ground
271,s01_lqr_pitch_step,g000033_c5,33,,5.629674576147088,0.033054859423414934,0.0016134951228176581,39.68404896350562,,,,,,,,,,2.3269,5.0,0.396,0.1,0.0,0.007988,0.0,5.0,0.279,,,,,,202.95075,FAIL,wheels off ground
272,s01_lqr_pitch_step,g000033_c6,33,,5.472691373140073,0.03223095234419623,0.0017162116837265966,39.35938978175612,,,,,,,,,,2.2929,5.0,0.398,0.1,0.0,0.007859,0.0,5.0,0.286,,,,,,202.6778,FAIL,wheels off ground
273,s01_lqr_pitch_step,g000033_c7,33,,5.132822797214974,0.03359775154349923,0.0016217526096655235,40.0743771411814,,,,,,,,,,2.3133,5.0,0.7087,0.1,0.0,0.00767,0.0,5.0,0.276,,,,,,203.107875,FAIL,wheels off ground
274,s01_lqr_pitch_step,g000034_c0,34,,5.490364783166435,0.03323276157499054,0.0016129129123334197,38.34472848876843,,,,,,,,,,2.3588,5.0,0.3457,0.1,0.0,0.008213,0.0,5.0,0.298,,,,,,202.59365,FAIL,wheels off ground
275,s01_lqr_pitch_step,g000034_c1,34,,5.421233307470751,0.03423542515187199,0.0016594985495375348,39.14498207207351,,,,,,,,,,2.3057,5.0,0.2681,0.1,0.0,0.007985,0.0,5.0,0.289,,,,,,202.63315,FAIL,wheels off ground
276,s01_lqr_pitch_step,g000034_c2,34,,5.476955379526893,0.0345255811334714,0.001622944251236165,41.06929693827411,,,,,,,,,,2.2869,5.0,0.3435,0.1,0.0,0.007884,0.0,5.0,0.297,,,,,,202.47805,FAIL,wheels off ground
277,s01_lqr_pitch_step,g000034_c3,34,,5.365257275238012,0.034202027039478264,0.0016598791169023129,39.992614556898225,,,,,,,,,,2.3384,5.0,0.2342,0.1,0.0,0.008127,0.0,5.0,0.299,,,,,,202.432625,FAIL,wheels off ground
278,s01_lqr_pitch_step,g000034_c4,34,,5.335721690667421,0.032893712400273466,0.0017021422105142278,39.03713640609855,,,,,,,,,,2.2911,5.0,0.3209,0.1,0.0,0.007944,0.0,5.0,0.291,,,,,,202.698825,FAIL,wheels off ground
279,s01_lqr_pitch_step,g000034_c5,34,,5.238714616953998,0.03193513510090137,0.0016426274965170178,40.4810880934988,,,,,,,,,,2.29,5.0,0.3471,0.1,0.0,0.007921,0.0,5.0,0.296,,,,,,202.6036,FAIL,wheels off ground
280,s01_lqr_pitch_step,g000034_c6,34,,5.065503859503198,0.032151073456401544,0.0015602241335177021,39.72497749730246,,,,,,,,,,2.3978,5.0,0.4812,0.1,0.0,0.008179,0.0,5.0,0.292,,,,,,202.8889,FAIL,wheels off ground
281,s01_lqr_pitch_step,g000034_c7,34,,5.305014966877301,0.03464361077657694,0.0016375146398460764,38.674779593002576,,,,,,,,,,2.3441,5.0,0.3203,0.1,0.0,0.008209,0.0,5.0,0.297,,,,,,202.61165,FAIL,wheels off ground
282,s01_lqr_pitch_step,g000035_c0,35,,5.432752310801427,0.03395234803147148,0.001695374914562041,40.81540176911731,,,,,,,,,,2.4119,5.0,0.4795,0.1,0.0,0.008155,0.0,5.0,0.291,,,,,,202.77115,FAIL,wheels off ground
283,s01_lqr_pitch_step,g000035_c1,35,,5.366293766802075,0.03315993377688114,0.0016528812377797572,38.79203816730456,,,,,,,,,,2.2897,5.0,0.3369,0.1,0.0,0.007897,0.0,5.0,0.287,,,,,,202.503775,FAIL,wheels off ground
284,s01_lqr_pitch_step,g000035_c2,35,,5.397139804295879,0.0316403774089298,0.0016497173125227548,38.87792166456715,,,,,,,,,,2.411,5.0,0.5225,0.1,0.0,0.008003,0.0,5.0,0.293,,,,,,202.792825,FAIL,wheels off ground
285,s01_lqr_pitch_step,g000035_c3,35,,5.295385980934082,0.0342091659536736,0.0016446330828914961,39.03289966296827,,,,,,,,,,2.2875,5.0,0.3016,0.1,0.0,0.007994,0.0,5.0,0.303,,,,,,202.5082,FAIL,wheels off ground
286,s01_lqr_pitch_step,g000035_c4,35,,5.422697730638026,0.03370501650507126,0.0016566163954169746,39.204697622317475,,,,,,,,,,2.3196,5.0,0.7362,0.1,0.0,0.007734,0.0,5.0,0.273,,,,,,203.452,FAIL,wheels off ground
