run_id,scenario,label,gen,timestamp,Q_PITCH,Q_PITCH_RATE,Q_VEL,R,KP_V,KI_V,KFF_V,KP_YAW,KI_YAW,LEG_K_S,LEG_B_S,LEG_K_ROLL,LEG_D_ROLL,rms_pitch_deg,max_pitch_deg,wheel_travel_m,wheel_liftoff_s,vel_track_rms_ms,hip_track_rms_rad,hip_cmd_rate_rms,settle_time_s,survived_s,fitness_balance,fitness_disturbance,fitness_drive_slow,fitness_drive_med,fitness_obstacle,fitness,status,fail_reason
1,s05_vel_pi_leg_cycling,evo_seed,0,,,,,,0.0012179142,0.27618081,1.2,,,,,,,13.2754,19.0005,12.4371,0.0,1.5548,0.008955,0.358,0.196,13.0,,,,,,5.99194,PASS,
2,s05_vel_pi_leg_cycling,g000000_c0,0,,,,,,0.0022938128305117814,7.096884106461484,1.2,,,,,,,26.1854,32.1446,21.1577,0.0,2.2807,0.009212,0.358,13.0,13.0,,,,,,9.46064,PASS,
3,s05_vel_pi_leg_cycling,g000000_c1,0,,,,,,0.0043115084573228215,0.10511979752413672,1.2,,,,,,,5.7669,9.3669,9.2946,0.0,1.2237,0.008974,0.358,0.194,13.0,,,,,,4.24779,PASS,
4,s05_vel_pi_leg_cycling,g000000_c2,0,,,,,,0.001,0.07026157706528514,1.2,,,,,,,3.9295,6.9413,9.7384,0.0,1.158,0.009,0.358,0.194,13.0,,,,,,3.86695,PASS,
5,s05_vel_pi_leg_cycling,g000000_c3,0,,,,,,0.02181236518996696,1.2722710992809652,0.10580978084430682,,,,,,,23.4658,32.0949,16.8172,0.0,2.0459,0.009403,0.358,0.21,13.0,,,,,,8.48428,PASS,
6,s05_vel_pi_leg_cycling,g000000_c4,0,,,,,,0.001,0.009247717212275509,1.2,,,,,,,1.862,3.6551,13.974,0.0,1.3609,0.009049,0.358,0.192,13.0,,,,,,4.2689,PASS,
7,s05_vel_pi_leg_cycling,g000000_c5,0,,,,,,0.001,0.0010678937852852024,0.1,,,,,,,1.6458,3.2471,15.0924,0.0,1.4475,0.009051,0.358,0.192,13.0,,,,,,4.50708,PASS,
8,s05_vel_pi_leg_cycling,g000000_c6,0,,,,,,0.001,3.3566219578427385,0.8715136258086015,,,,,,,24.424,32.2562,17.4797,0.0,2.013,0.009352,0.358,13.0,13.0,,,,,,8.4814,PASS,
9,s05_vel_pi_leg_cycling,g000000_c7,0,,,,,,0.013673435309658349,0.35780185177091367,1.2,,,,,,,16.7847,25.5221,13.8502,0.0,1.6726,0.00905,0.358,0.196,13.0,,,,,,6.69627,PASS,
10,s05_vel_pi_leg_cycling,g000001_c0,1,,,,,,0.001,0.01315773294354734,1.2,,,,,,,1.9754,3.8535,13.5249,0.0,1.3258,0.009047,0.358,0.192,13.0,,,,,,4.17494,PASS,
11,s05_vel_pi_leg_cycling,g000001_c1,1,,,,,,0.001,10.0,1.2,,,,,,,24.5684,31.0656,19.511,0.0,1.6451,0.01001,0.358,13.0,13.0,,,,,,7.39214,PASS,
12,s05_vel_pi_leg_cycling,g000001_c2,1,,,,,,0.0012036085224873545,0.007305958743083744,0.1,,,,,,,1.8209,3.5788,14.1836,0.0,1.3748,0.009049,0.358,0.194,13.0,,,,,,4.30649,PASS,
13,s05_vel_pi_leg_cycling,g000001_c3,1,,,,,,0.001,0.7972493232455644,0.1,,,,,,,21.1139,32.0235,16.4183,0.0,1.8108,0.009378,0.358,0.206,13.0,,,,,,7.54379,PASS,
14,s05_vel_pi_leg_cycling,g000001_c4,1,,,,,,0.0025731452313846243,0.001227333739006348,0.5644139159020144,,,,,,,1.7316,3.4548,14.549,0.0,1.4001,0.009049,0.358,0.192,13.0,,,,,,4.37346,PASS,
15,s05_vel_pi_leg_cycling,g000001_c5,1,,,,,,0.002270368951307348,2.9097987242458347,1.2,,,,,,,23.7048,32.1125,18.0078,0.0,2.1154,0.00959,0.358,0.24,13.0,,,,,,8.71668,PASS,
16,s05_vel_pi_leg_cycling,g000001_c6,1,,,,,,0.15912739683735322,0.0027766877077542423,0.162743626353207,,,,,,,7.1541,16.7273,6.5916,0.0,0.8,0.009164,0.358,0.168,13.0,,,,,,3.11541,PASS,
17,s05_vel_pi_leg_cycling,g000001_c7,1,,,,,,0.001,0.08466798819576395,0.18710653416437484,,,,,,,4.6103,7.7774,9.5021,0.0,1.1868,0.008986,0.358,0.194,13.0,,,,,,4.02143,PASS,
18,s05_vel_pi_leg_cycling,g000002_c0,2,,,,,,0.6330598426048153,0.001,0.1,,,,,,,10.4565,29.8882,7.8336,0.0,0.7599,0.009462,0.358,4.318,13.0,,,,,,3.32535,PASS,
19,s05_vel_pi_leg_cycling,g000002_c1,2,,,,,,3.641620889477474,0.0011035673236433272,0.10589854084918175,,,,,,,19.1228,30.844,10.7285,0.0,1.017,0.009839,0.358,13.0,13.0,,,,,,4.96328,PASS,
20,s05_vel_pi_leg_cycling,g000002_c2,2,,,,,,0.6579301711733608,0.001,0.688241637463422,,,,,,,10.8918,29.9524,8.2212,0.0,0.7682,0.00955,0.358,13.0,13.0,,,,,,3.39378,PASS,
21,s05_vel_pi_leg_cycling,g000002_c3,2,,,,,,10.0,0.001,1.2,,,,,,,19.2841,31.0688,10.7146,0.0,1.1396,0.00996,0.358,13.0,13.0,,,,,,5.34721,PASS,
22,s05_vel_pi_leg_cycling,g000002_c4,2,,,,,,0.00146147714549065,0.001,1.2,,,,,,,1.6701,3.3033,15.0305,0.0,1.4438,0.00905,0.358,0.194,13.0,,,,,,4.49841,PASS,
23,s05_vel_pi_leg_cycling,g000002_c5,2,,,,,,1.7423583430792053,0.08772846796520481,1.2,,,,,,,16.7014,30.4365,9.9168,0.0,0.8866,0.009773,0.358,13.0,13.0,,,,,,4.32994,PASS,
24,s05_vel_pi_leg_cycling,g000002_c6,2,,,,,,0.010823633183152132,0.007996210722217168,0.1,,,,,,,2.3213,4.6793,11.8658,0.0,1.21,0.009046,0.358,0.192,13.0,,,,,,3.86213,PASS,
25,s05_vel_pi_leg_cycling,g000002_c7,2,,,,,,0.018711455296011648,0.001,0.1,,,,,,,2.4944,5.108,11.0493,0.0,1.1553,0.00905,0.358,0.192,13.0,,,,,,3.71534,PASS,
26,s05_vel_pi_leg_cycling,g000003_c0,3,,,,,,1.9413050917548844,0.015413646312237109,0.15279469219635214,,,,,,,17.8184,30.9109,10.1113,0.0,0.9459,0.009773,0.358,13.0,13.0,,,,,,4.61954,PASS,
27,s05_vel_pi_leg_cycling,g000003_c1,3,,,,,,0.04715611857217954,0.009599692531386648,0.1,,,,,,,3.8183,7.8734,7.3685,0.0,0.9527,0.00905,0.358,0.186,13.0,,,,,,3.23993,PASS,
28,s05_vel_pi_leg_cycling,g000003_c2,3,,,,,,0.013358677051779998,0.06383083973019786,1.1814679576938858,,,,,,,4.2783,7.8469,8.7873,0.0,1.0977,0.009005,0.358,0.19,13.0,,,,,,3.72093,PASS,
29,s05_vel_pi_leg_cycling,g000003_c3,3,,,,,,0.038421582523719716,0.001,0.25419234089613807,,,,,,,3.2592,6.7489,8.3461,0.0,0.9875,0.009051,0.358,0.188,13.0,,,,,,3.28842,PASS,
30,s05_vel_pi_leg_cycling,g000003_c4,3,,,,,,0.1136280766271017,0.001335450345871585,0.1,,,,,,,5.8697,12.7978,6.1863,0.0,0.8378,0.009108,0.358,0.176,13.0,,,,,,3.10037,PASS,
31,s05_vel_pi_leg_cycling,g000003_c5,3,,,,,,6.119128386838436,0.02179422587261458,0.13791130591790998,,,,,,,19.2669,31.0332,10.6521,0.0,1.1605,0.009927,0.358,13.0,13.0,,,,,,5.40819,PASS,
32,s05_vel_pi_leg_cycling,g000003_c6,3,,,,,,0.9998655712748269,0.016108727067756342,0.16899580049456595,,,,,,,14.5509,30.5077,9.5247,0.0,0.9796,0.009762,0.358,13.0,13.0,,,,,,4.39389,PASS,
33,s05_vel_pi_leg_cycling,g000003_c7,3,,,,,,0.03707929518340476,0.001,0.1638805467470764,,,,,,,3.2072,6.6394,8.4744,0.0,0.9936,0.00905,0.358,0.188,13.0,,,,,,3.30152,PASS,
34,s05_vel_pi_leg_cycling,g000004_c0,4,,,,,,0.14632199633336304,0.0011853986461696573,0.1,,,,,,,6.7782,15.5192,6.4075,0.0,0.8021,0.009146,0.358,0.17,13.0,,,,,,3.08412,PASS,
35,s05_vel_pi_leg_cycling,g000004_c1,4,,,,,,0.032210040954336,0.0011141620771618007,0.1,,,,,,,3.0295,6.2541,9.0253,0.0,1.0263,0.00905,0.358,0.188,13.0,,,,,,3.38185,PASS,
36,s05_vel_pi_leg_cycling,g000004_c2,4,,,,,,2.082232960737932,0.011744604181410141,1.2,,,,,,,17.8057,30.7919,10.0832,0.0,0.8875,0.009783,0.358,13.0,13.0,,,,,,4.44307,PASS,
37,s05_vel_pi_leg_cycling,g000004_c3,4,,,,,,0.0317428212418183,0.001,0.1,,,,,,,3.0013,6.2349,9.0494,0.0,1.0216,0.009049,0.358,0.19,13.0,,,,,,3.36493,PASS,
38,s05_vel_pi_leg_cycling,g000004_c4,4,,,,,,0.010662497204954548,0.001,0.5662485213684048,,,,,,,2.1293,4.3417,12.5837,0.0,1.2547,0.009049,0.358,0.192,13.0,,,,,,3.97703,PASS,
39,s05_vel_pi_leg_cycling,g000004_c5,4,,,,,,0.044102851613758445,0.001,1.2,,,,,,,3.473,7.2185,7.8331,0.0,0.9626,0.009053,0.358,0.188,13.0,,,,,,3.2351,PASS,
40,s05_vel_pi_leg_cycling,g000004_c6,4,,,,,,1.5424710956414847,0.3856626351622739,0.1,,,,,,,17.0707,30.8001,10.398,0.0,1.0477,0.00975,0.358,13.0,13.0,,,,,,4.85017,PASS,
41,s05_vel_pi_leg_cycling,g000004_c7,4,,,,,,1.9948670023651653,0.001,0.1,,,,,,,17.8136,30.8777,10.0464,0.0,0.9276,0.009772,0.358,13.0,13.0,,,,,,4.56416,PASS,
42,s05_vel_pi_leg_cycling,g000005_c0,5,,,,,,0.1783840118663351,0.01713568162518249,0.1,,,,,,,7.985,19.1802,7.0967,0.0,0.8138,0.009195,0.358,0.164,13.0,,,,,,3.2399,PASS,
43,s05_vel_pi_leg_cycling,g000005_c1,5,,,,,,0.029320139301886643,0.0011588729764439286,0.1,,,,,,,2.9146,6.0283,9.3469,0.0,1.0433,0.009048,0.358,0.188,13.0,,,,,,3.42136,PASS,
44,s05_vel_pi_leg_cycling,g000005_c2,5,,,,,,0.006957603659479118,0.0023343940574929905,0.1,,,,,,,1.9909,4.0088,13.3482,0.0,1.3162,0.00905,0.358,0.192,13.0,,,,,,4.14769,PASS,
45,s05_vel_pi_leg_cycling,g000005_c3,5,,,,,,1.9145228644000305,0.001,0.1,,,,,,,17.6567,30.8747,10.0295,0.0,0.9292,0.009763,0.358,13.0,13.0,,,,,,4.55327,PASS,
46,s05_vel_pi_leg_cycling,g000005_c4,5,,,,,,0.09993452938054966,0.001057327469253785,1.2,,,,,,,5.4322,11.6438,6.1241,0.0,0.8521,0.009094,0.358,0.178,13.0,,,,,,3.09952,PASS,
47,s05_vel_pi_leg_cycling,g000005_c5,5,,,,,,2.583567861249811,0.0016763370517141234,0.1,,,,,,,17.9923,30.3582,10.4115,0.0,0.9448,0.009816,0.358,13.0,13.0,,,,,,4.63363,PASS,
48,s05_vel_pi_leg_cycling,g000005_c6,5,,,,,,0.0029850740409107933,0.005420664565334511,0.21983595468171155,,,,,,,1.8672,3.7028,14.015,0.0,1.3673,0.009049,0.358,0.192,13.0,,,,,,4.28862,PASS,
49,s05_vel_pi_leg_cycling,g000005_c7,5,,,,,,0.07416202937436306,0.001,0.1,,,,,,,4.56,9.5627,6.3215,0.0,0.8867,0.00907,0.358,0.182,13.0,,,,,,3.1161,PASS,
50,s05_vel_pi_leg_cycling,g000006_c0,6,,,,,,0.30654722925088623,0.001,0.9237984229098555,,,,,,,9.2692,26.2802,7.4697,0.0,0.7472,0.009308,0.358,0.14,13.0,,,,,,3.16852,PASS,
51,s05_vel_pi_leg_cycling,g000006_c1,6,,,,,,1.4209798891082,0.006118776785554194,0.21026602870247946,,,,,,,16.0087,30.6809,9.575,0.0,0.951,0.00972,0.358,13.0,13.0,,,,,,4.45387,PASS,
52,s05_vel_pi_leg_cycling,g000006_c2,6,,,,,,0.01039658807795735,0.001,0.1,,,,,,,2.1132,4.3271,12.5859,0.0,1.2516,0.009049,0.358,0.19,13.0,,,,,,3.96612,PASS,
53,s05_vel_pi_leg_cycling,g000006_c3,6,,,,,,0.09946273843295406,0.24000442256737956,0.19157555565274928,,,,,,,14.2602,28.0807,11.5087,0.0,1.2645,0.009209,0.358,0.182,13.0,,,,,,5.21952,PASS,
54,s05_vel_pi_leg_cycling,g000006_c4,6,,,,,,0.06425684890469965,0.001,0.1,,,,,,,4.2096,8.7967,6.6078,0.0,0.9051,0.009063,0.358,0.186,13.0,,,,,,3.13626,PASS,
55,s05_vel_pi_leg_cycling,g000006_c5,6,,,,,,0.14497104539773908,0.00340015695738486,0.1,,,,,,,6.8175,15.5555,6.481,0.0,0.8125,0.009146,0.358,0.17,13.0,,,,,,3.11925,PASS,
56,s05_vel_pi_leg_cycling,g000006_c6,6,,,,,,0.005310048400665606,0.001,0.7432524231263476,,,,,,,1.8683,3.7645,13.9055,0.0,1.3506,0.00905,0.358,0.192,13.0,,,,,,4.23863,PASS,
57,s05_vel_pi_leg_cycling,g000006_c7,6,,,,,,0.2773440639774682,0.002726608253040874,1.2,,,,,,,9.0526,25.1367,7.363,0.0,0.7449,0.009288,0.358,0.146,13.0,,,,,,3.13996,PASS,
58,s05_vel_pi_leg_cycling,g000007_c0,7,,,,,,0.0027904164464030226,0.005592628014142576,1.2,,,,,,,1.8538,3.6877,13.8751,0.0,1.3447,0.009049,0.358,0.192,13.0,,,,,,4.21948,PASS,
59,s05_vel_pi_leg_cycling,g000007_c1,7,,,,,,0.37486331667253836,0.001,0.19581556772978237,,,,,,,9.6494,27.9958,7.5217,0.0,0.7151,0.009338,0.358,0.128,13.0,,,,,,3.11024,PASS,
60,s05_vel_pi_leg_cycling,g000007_c2,7,,,,,,0.06950594671536728,0.0028578003226003945,1.2,,,,,,,4.4487,9.2943,6.4302,0.0,0.8964,0.009066,0.358,0.182,13.0,,,,,,3.13407,PASS,
61,s05_vel_pi_leg_cycling,g000007_c3,7,,,,,,0.0108709741193741,0.011396962606423758,0.6810840201248244,,,,,,,2.4067,4.8547,11.4393,0.0,1.178,0.009043,0.358,0.192,13.0,,,,,,3.77467,PASS,
62,s05_vel_pi_leg_cycling,g000007_c4,7,,,,,,7.376067141933486,0.001,0.1,,,,,,,19.2611,31.0638,10.72,0.0,1.158,0.009934,0.358,13.0,13.0,,,,,,5.40011,PASS,
63,s05_vel_pi_leg_cycling,g000007_c5,7,,,,,,10.0,0.00588691293731935,0.10796555553998008,,,,,,,19.2801,31.0743,10.8525,0.0,1.1576,0.009957,0.358,13.0,13.0,,,,,,5.40081,PASS,
64,s05_vel_pi_leg_cycling,g000007_c6,7,,,,,,0.02157621403639937,0.04016149673342296,0.1,,,,,,,3.768,7.2813,8.6559,0.0,1.0672,0.009024,0.358,0.19,13.0,,,,,,3.5784,PASS,
65,s05_vel_pi_leg_cycling,g000007_c7,7,,,,,,0.06927399692781647,0.02429710174935043,0.1,,,,,,,5.1096,10.476,6.5482,0.0,0.9226,0.00906,0.358,0.184,13.0,,,,,,3.27876,PASS,
66,s05_vel_pi_leg_cycling,g000008_c0,8,,,,,,0.03224450181491541,0.001,1.2,,,,,,,3.0241,6.2621,9.0025,0.0,1.0216,0.009049,0.358,0.188,13.0,,,,,,3.36721,PASS,
67,s05_vel_pi_leg_cycling,g000008_c1,8,,,,,,0.00793098726012102,0.001,0.5591112881785768,,,,,,,1.9995,4.0645,13.167,0.0,1.2961,0.009049,0.358,0.192,13.0,,,,,,4.08825,PASS,
68,s05_vel_pi_leg_cycling,g000008_c2,8,,,,,,0.06957310249238308,0.027804399367296218,0.1,,,,,,,5.2416,10.7113,6.5979,0.0,0.9275,0.009059,0.358,0.182,13.0,,,,,,3.30666,PASS,
69,s05_vel_pi_leg_cycling,g000008_c3,8,,,,,,5.049389068603312,0.001,0.1,,,,,,,19.2598,30.9936,10.9162,0.0,1.131,0.009894,0.358,13.0,13.0,,,,,,5.31898,PASS,
70,s05_vel_pi_leg_cycling,g000008_c4,8,,,,,,0.01127707844899837,0.001483608858263008,0.1,,,,,,,2.1653,4.4505,12.3002,0.0,1.2289,0.009048,0.358,0.192,13.0,,,,,,3.90323,PASS,
71,s05_vel_pi_leg_cycling,g000008_c5,8,,,,,,2.538542040493718,0.004986443467583072,0.1,,,,,,,17.948,30.3373,10.3515,0.0,0.9187,0.009812,0.358,13.0,13.0,,,,,,4.5509,PASS,
72,s05_vel_pi_leg_cycling,g000008_c6,8,,,,,,0.028576963912434118,0.003459237408185673,0.15105389532520844,,,,,,,2.9395,6.0841,9.3054,0.0,1.0391,0.009046,0.358,0.188,13.0,,,,,,3.41125,PASS,
73,s05_vel_pi_leg_cycling,g000008_c7,8,,,,,,0.2744553322825392,0.0021430521167723486,0.1,,,,,,,9.0176,24.9676,7.3699,0.0,0.7534,0.009287,0.358,0.144,13.0,,,,,,3.16196,PASS,
74,s05_vel_pi_leg_cycling,g000009_c0,9,,,,,,0.16649424773404553,0.012450377284720924,1.2,,,,,,,7.588,17.8281,6.8511,0.0,0.8039,0.009176,0.358,0.166,13.0,,,,,,3.1705,PASS,
75,s05_vel_pi_leg_cycling,g000009_c1,9,,,,,,0.039257107872104895,0.004039963510088659,0.1,,,,,,,3.3661,6.9578,8.1634,0.0,0.9816,0.00905,0.358,0.186,13.0,,,,,,3.28141,PASS,
76,s05_vel_pi_leg_cycling,g000009_c2,9,,,,,,0.22776401148295786,0.001,0.3107596897290011,,,,,,,8.4184,22.0074,7.0893,0.0,0.761,0.009243,0.358,0.154,13.0,,,,,,3.12484,PASS,
77,s05_vel_pi_leg_cycling,g000009_c3,9,,,,,,0.06580925502725592,0.001,1.2,,,,,,,4.2655,8.914,6.551,0.0,0.9019,0.009064,0.358,0.184,13.0,,,,,,3.13225,PASS,
78,s05_vel_pi_leg_cycling,g000009_c4,9,,,,,,0.004037099268795451,0.0125867777919337,1.2,,,,,,,2.1121,4.189,12.756,0.0,1.2719,0.009045,0.358,0.192,13.0,,,,,,4.02691,PASS,
79,s05_vel_pi_leg_cycling,g000009_c5,9,,,,,,1.4389973517222738,0.005462231343955331,0.1,,,,,,,15.9345,30.5094,9.6913,0.0,0.9405,0.00973,0.358,13.0,13.0,,,,,,4.41495,PASS,
80,s05_vel_pi_leg_cycling,g000009_c6,9,,,,,,2.9392471107357565,0.005333005803065134,0.1,,,,,,,18.4716,30.5275,10.6466,0.0,1.022,0.009853,0.358,13.0,13.0,,,,,,4.91316,PASS,
81,s05_vel_pi_leg_cycling,g000009_c7,9,,,,,,0.13782034911812574,0.022026416163549223,0.1,,,,,,,7.1841,16.0198,6.8224,0.0,0.8434,0.009139,0.358,0.172,13.0,,,,,,3.24861,PASS,
82,s05_vel_pi_leg_cycling,g000010_c0,10,,,,,,0.6474823173957106,0.025010618515642628,0.517846864709649,,,,,,,10.8742,30.0495,8.3213,0.0,0.8038,0.009531,0.358,13.0,13.0,,,,,,3.49882,PASS,
83,s05_vel_pi_leg_cycling,g000010_c1,10,,,,,,1.9964273788179787,0.026906231411472775,0.1,,,,,,,17.8184,30.8548,10.1036,0.0,0.9172,0.009774,0.358,13.0,13.0,,,,,,4.53344,PASS,
84,s05_vel_pi_leg_cycling,g000010_c2,10,,,,,,0.6663361676012608,0.020355567349741876,0.24241824999892003,,,,,,,10.9762,30.0645,8.3682,0.0,0.8098,0.00955,0.358,13.0,13.0,,,,,,3.52702,PASS,
85,s05_vel_pi_leg_cycling,g000010_c3,10,,,,,,0.023694872012158627,0.001,0.12159380884109752,,,,,,,2.6861,5.5704,10.1038,0.0,1.0856,0.009047,0.358,0.188,13.0,,,,,,3.52541,PASS,
86,s05_vel_pi_leg_cycling,g000010_c4,10,,,,,,0.5084859187472651,0.001,0.3194038846199028,,,,,,,10.0184,29.3784,7.617,0.0,0.7107,0.009377,0.358,0.106,13.0,,,,,,3.13394,PASS,
87,s05_vel_pi_leg_cycling,g000010_c5,10,,,,,,0.003461680773964249,0.007370842292211452,0.14460893003801997,,,,,,,1.9439,3.858,13.5671,0.0,1.33,0.009048,0.358,0.192,13.0,,,,,,4.18439,PASS,
88,s05_vel_pi_leg_cycling,g000010_c6,10,,,,,,0.5002572134830388,0.001,0.1,,,,,,,10.0215,29.3357,7.7262,0.0,0.7325,0.009377,0.358,0.106,13.0,,,,,,3.19965,PASS,
89,s05_vel_pi_leg_cycling,g000010_c7,10,,,,,,2.8670645022001,0.001,0.1,,,,,,,18.3271,30.5694,10.5716,0.0,1.0427,0.009856,0.358,13.0,13.0,,,,,,4.96081,PASS,
90,s05_vel_pi_leg_cycling,g000011_c0,11,,,,,,0.0038957032742676138,0.001,0.36882129870575975,,,,,,,1.7955,3.6042,14.2044,0.0,1.3764,0.00905,0.358,0.192,13.0,,,,,,4.30875,PASS,
91,s05_vel_pi_leg_cycling,g000011_c1,11,,,,,,1.0096423805576056,0.001,1.2,,,,,,,14.4668,30.5925,9.3854,0.0,0.9756,0.009756,0.358,13.0,13.0,,,,,,4.37348,PASS,
92,s05_vel_pi_leg_cycling,g000011_c2,11,,,,,,3.227954804894668,0.001,0.1,,,,,,,18.8295,30.5338,10.7126,0.0,0.945,0.009854,0.358,13.0,13.0,,,,,,4.71795,PASS,
93,s05_vel_pi_leg_cycling,g000011_c3,11,,,,,,0.1093726074371348,0.0010926016189574729,0.1,,,,,,,5.7317,12.4258,6.1578,0.0,0.8418,0.009104,0.358,0.178,13.0,,,,,,3.09857,PASS,
94,s05_vel_pi_leg_cycling,g000011_c4,11,,,,,,0.034483636121322055,0.001,1.2,,,,,,,3.1079,6.4351,8.7423,0.0,1.007,0.009049,0.358,0.188,13.0,,,,,,3.33179,PASS,
95,s05_vel_pi_leg_cycling,g000011_c5,11,,,,,,10.0,0.001,0.3826153647728693,,,,,,,19.2809,31.0807,10.7221,0.0,1.138,0.00996,0.358,13.0,13.0,,,,,,5.34209,PASS,
96,s05_vel_pi_leg_cycling,g000011_c6,11,,,,,,0.392368032797644,0.0065440975701599,0.3449230399212319,,,,,,,9.791,28.3868,7.6397,0.0,0.7292,0.009346,0.358,0.126,13.0,,,,,,3.1667,PASS,
97,s05_vel_pi_leg_cycling,g000011_c7,11,,,,,,0.08209626449612296,0.0024499752915547244,1.2,,,,,,,4.8777,10.2702,6.1961,0.0,0.8761,0.009076,0.358,0.18,13.0,,,,,,3.11607,PASS,
98,s05_vel_pi_leg_cycling,g000012_c0,12,,,,,,0.07728572291542887,0.003468266574990732,0.37207194530315063,,,,,,,4.7402,9.9452,6.267,0.0,0.8842,0.009072,0.358,0.182,13.0,,,,,,3.12662,PASS,
99,s05_vel_pi_leg_cycling,g000012_c1,12,,,,,,0.29760502114997306,0.001,0.2871359328506158,,,,,,,9.1844,25.9439,7.3626,0.0,0.7267,0.009299,0.358,0.142,13.0,,,,,,3.09854,PASS,
100,s05_vel_pi_leg_cycling,g000012_c2,12,,,,,,0.061809669730925845,0.005426995141934895,0.500995620498069,,,,,,,4.2448,8.8292,6.6631,0.0,0.9135,0.00906,0.358,0.184,13.0,,,,,,3.16498,PASS,
101,s05_vel_pi_leg_cycling,g000012_c3,12,,,,,,0.031321282112884194,0.001,0.855477465378456,,,,,,,2.9882,6.1846,9.1018,0.0,1.0271,0.009049,0.358,0.188,13.0,,,,,,3.38012,PASS,
102,s05_vel_pi_leg_cycling,g000012_c4,12,,,,,,0.22838141903703835,0.002507518747630819,0.486518965499357,,,,,,,8.4614,22.1967,7.1038,0.0,0.7567,0.009244,0.358,0.154,13.0,,,,,,3.11624,PASS,
103,s05_vel_pi_leg_cycling,g000012_c5,12,,,,,,0.12822865314218823,0.018166375336117733,0.1,,,,,,,6.8104,14.9907,6.6676,0.0,0.8486,0.009127,0.358,0.172,13.0,,,,,,3.22684,PASS,
104,s05_vel_pi_leg_cycling,g000012_c6,12,,,,,,10.0,0.001,0.1,,,,,,,19.2796,31.0677,10.7667,0.0,1.1431,0.009958,0.358,13.0,13.0,,,,,,5.35726,PASS,
105,s05_vel_pi_leg_cycling,g000012_c7,12,,,,,,0.26314021461387016,0.0028177613099189458,0.1,,,,,,,8.9132,24.3969,7.2804,0.0,0.7407,0.009278,0.358,0.148,13.0,,,,,,3.11342,PASS,
106,s05_vel_pi_leg_cycling,g000013_c0,13,,,,,,0.08752357416694706,0.004536665547616229,0.1,,,,,,,5.1235,10.8179,6.1853,0.0,0.8714,0.009081,0.358,0.18,13.0,,,,,,3.12655,PASS,
107,s05_vel_pi_leg_cycling,g000013_c1,13,,,,,,1.6183287667741892,0.001,0.12669686973070787,,,,,,,16.6566,30.8067,9.8193,0.0,0.9938,0.009765,0.358,13.0,13.0,,,,,,4.64706,PASS,
108,s05_vel_pi_leg_cycling,g000013_c2,13,,,,,,1.921060733049765,0.001,0.1,,,,,,,17.6931,30.8701,10.057,0.0,0.9289,0.009765,0.358,13.0,13.0,,,,,,4.55601,PASS,
109,s05_vel_pi_leg_cycling,g000013_c3,13,,,,,,0.2920985384047761,0.001,0.1,,,,,,,9.1463,25.709,7.2975,0.0,0.7143,0.009296,0.358,0.144,13.0,,,,,,3.05753,PASS,
110,s05_vel_pi_leg_cycling,g000013_c4,13,,,,,,0.04641920110227396,0.001,1.1765358470602667,,,,,,,3.5593,7.4069,7.6454,0.0,0.954,0.009054,0.358,0.186,13.0,,,,,,3.21793,PASS,
111,s05_vel_pi_leg_cycling,g000013_c5,13,,,,,,0.03232819768067798,0.001,0.3040399766811198,,,,,,,3.028,6.258,8.9817,0.0,1.0225,0.009049,0.358,0.188,13.0,,,,,,3.3703,PASS,
112,s05_vel_pi_leg_cycling,g000013_c6,13,,,,,,0.008387832883676331,0.001,0.16649806186100738,,,,,,,2.0294,4.1065,13.1034,0.0,1.3071,0.009049,0.358,0.19,13.0,,,,,,4.12424,PASS,
113,s05_vel_pi_leg_cycling,g000013_c7,13,,,,,,0.09517628857577602,0.001,0.1,,,,,,,5.2752,11.2502,6.1178,0.0,0.8575,0.009089,0.358,0.178,13.0,,,,,,3.10002,PASS,
114,s05_vel_pi_leg_cycling,g000014_c0,14,,,,,,0.059304516893670015,0.001,0.10003394340419558,,,,,,,4.0314,8.4154,6.828,0.0,0.9161,0.00906,0.358,0.184,13.0,,,,,,3.15144,PASS,
115,s05_vel_pi_leg_cycling,g000014_c1,14,,,,,,0.0670271728340944,0.0042772883399973104,0.1,,,,,,,4.4002,9.1739,6.4948,0.0,0.9023,0.009064,0.358,0.184,13.0,,,,,,3.14692,PASS,
116,s05_vel_pi_leg_cycling,g000014_c2,14,,,,,,0.014860351717533455,0.001,0.3508796040334522,,,,,,,2.3253,4.7722,11.6984,0.0,1.1942,0.009048,0.358,0.19,13.0,,,,,,3.81513,PASS,
117,s05_vel_pi_leg_cycling,g000014_c3,14,,,,,,0.2742858873962657,0.001,0.1,,,,,,,8.987,24.9068,7.27,0.0,0.7279,0.009285,0.358,0.144,13.0,,,,,,3.0824,PASS,
118,s05_vel_pi_leg_cycling,g000014_c4,14,,,,,,0.319691131145739,0.001,0.11224433939899778,,,,,,,9.3595,26.7247,7.462,0.0,0.7347,0.009314,0.358,0.14,13.0,,,,,,3.14005,PASS,
119,s05_vel_pi_leg_cycling,g000014_c5,14,,,,,,0.20766844292838538,0.001,0.21423831047066105,,,,,,,8.0999,20.5596,6.9242,0.0,0.7583,0.009222,0.358,0.158,13.0,,,,,,3.08489,PASS,
120,s05_vel_pi_leg_cycling,g000014_c6,14,,,,,,0.22140491765829304,0.010040054650714347,0.1,,,,,,,8.5397,22.0747,7.2265,0.0,0.7729,0.009242,0.358,0.156,13.0,,,,,,3.17267,PASS,
121,s05_vel_pi_leg_cycling,g000014_c7,14,,,,,,0.06480060367962868,0.0021419125018030884,0.10981955164828823,,,,,,,4.2607,8.8923,6.5789,0.0,0.9048,0.009063,0.358,0.184,13.0,,,,,,3.14047,PASS,
122,s05_vel_pi_leg_cycling,g000015_c0,15,,,,,,0.5065143237600589,0.001,0.1,,,,,,,10.0377,29.3738,7.7572,0.0,0.7405,0.00938,0.358,0.106,13.0,,,,,,3.22527,PASS,
123,s05_vel_pi_leg_cycling,g000015_c1,15,,,,,,0.8431916623204224,0.001,0.6598022497104183,,,,,,,13.131,30.3142,8.9101,0.0,0.8927,0.00969,0.358,13.0,13.0,,,,,,3.9912,PASS,
124,s05_vel_pi_leg_cycling,g000015_c2,15,,,,,,0.37311066545071636,0.0013449104663729324,0.1468261315420334,,,,,,,9.6533,27.9763,7.5617,0.0,0.7212,0.009339,0.358,0.13,13.0,,,,,,3.12893,PASS,
125,s05_vel_pi_leg_cycling,g000015_c3,15,,,,,,0.19949647311277058,0.001,0.1,,,,,,,7.9428,19.8035,6.8268,0.0,0.7575,0.00921,0.358,0.158,13.0,,,,,,3.06678,PASS,
126,s05_vel_pi_leg_cycling,g000015_c4,15,,,,,,0.03863612878893454,0.001,0.1,,,,,,,3.2655,6.766,8.3162,0.0,0.9851,0.009051,0.358,0.188,13.0,,,,,,3.28185,PASS,
127,s05_vel_pi_leg_cycling,g000015_c5,15,,,,,,0.28813826290205635,0.001,0.25662853616677556,,,,,,,9.1202,25.556,7.3793,0.0,0.7406,0.009296,0.358,0.144,13.0,,,,,,3.13382,PASS,
128,s05_vel_pi_leg_cycling,g000015_c6,15,,,,,,0.06390652854647837,0.0010731337738928866,0.18610917953385053,,,,,,,4.1991,8.773,6.6213,0.0,0.9058,0.009063,0.358,0.184,13.0,,,,,,3.13731,PASS,
129,s05_vel_pi_leg_cycling,g000015_c7,15,,,,,,1.2031069820427875,0.001229010462954526,0.1,,,,,,,15.9133,30.8462,10.0332,0.0,1.0068,0.009613,0.358,13.0,13.0,,,,,,4.61173,PASS,
130,s05_vel_pi_leg_cycling,g000016_c0,16,,,,,,0.12525735981958405,0.001,0.1,,,,,,,6.2033,13.7514,6.2545,0.0,0.8251,0.009121,0.358,0.174,13.0,,,,,,3.09563,PASS,
131,s05_vel_pi_leg_cycling,g000016_c1,16,,,,,,0.19899563626400976,0.001,0.1,,,,,,,7.952,19.8915,6.8765,0.0,0.7669,0.009214,0.358,0.158,13.0,,,,,,3.0959,PASS,
132,s05_vel_pi_leg_cycling,g000016_c2,16,,,,,,0.14431170716995373,0.0027650769384772074,0.1,,,,,,,6.787,15.4846,6.4735,0.0,0.815,0.009146,0.358,0.17,13.0,,,,,,3.1237,PASS,
133,s05_vel_pi_leg_cycling,g000016_c3,16,,,,,,0.6131406040214668,0.002577595330557245,0.1,,,,,,,10.3292,29.8396,7.7246,0.0,0.7448,0.009434,0.358,0.112,13.0,,,,,,3.26732,PASS,
134,s05_vel_pi_leg_cycling,g000016_c4,16,,,,,,0.11430998051204545,0.0037217871929471832,0.1,,,,,,,5.9609,12.9775,6.2393,0.0,0.8404,0.009109,0.358,0.176,13.0,,,,,,3.11729,PASS,
135,s05_vel_pi_leg_cycling,g000016_c5,16,,,,,,0.17060095046886609,0.001,0.20380768603095745,,,,,,,7.3523,17.5023,6.5993,0.0,0.7796,0.009175,0.358,0.164,13.0,,,,,,3.07403,PASS,
136,s05_vel_pi_leg_cycling,g000016_c6,16,,,,,,0.3640931005929715,0.001140849674028798,0.1545588506116686,,,,,,,9.61,27.8149,7.5877,0.0,0.7381,0.009335,0.358,0.13,13.0,,,,,,3.1753,PASS,
137,s05_vel_pi_leg_cycling,g000016_c7,16,,,,,,0.26046071665161635,0.0019011519163498285,0.1,,,,,,,8.8517,24.2075,7.2498,0.0,0.7394,0.009272,0.358,0.148,13.0,,,,,,3.10337,PASS,
138,s05_vel_pi_leg_cycling,g000017_c0,17,,,,,,0.5367794811479452,0.001,0.1,,,,,,,10.0974,29.5351,7.6938,0.0,0.7233,0.009388,0.358,0.102,13.0,,,,,,3.17964,PASS,
139,s05_vel_pi_leg_cycling,g000017_c1,17,,,,,,0.31203531398100504,0.0014652514912152435,0.1,,,,,,,9.317,26.4903,7.4946,0.0,0.7475,0.009311,0.358,0.138,13.0,,,,,,3.1742,PASS,
140,s05_vel_pi_leg_cycling,g000017_c2,17,,,,,,0.5502264402088605,0.0011507692383444495,0.1,,,,,,,10.1317,29.5936,7.7179,0.0,0.7276,0.009393,0.358,0.102,13.0,,,,,,3.19597,PASS,
141,s05_vel_pi_leg_cycling,g000017_c3,17,,,,,,1.5384192878610512,0.0011697095712939806,0.1,,,,,,,16.2558,30.5795,9.7148,0.0,0.9604,0.009739,0.358,13.0,13.0,,,,,,4.50678,PASS,
142,s05_vel_pi_leg_cycling,g000017_c4,17,,,,,,0.13350316521252423,0.005213173865723875,0.1,,,,,,,6.5618,14.6787,6.42,0.0,0.8246,0.009132,0.358,0.172,13.0,,,,,,3.12998,PASS,
143,s05_vel_pi_leg_cycling,g000017_c5,17,,,,,,0.134898486349024,0.0012679008555477418,0.24407813703778536,,,,,,,6.4795,14.5761,6.3258,0.0,0.8144,0.009132,0.358,0.172,13.0,,,,,,3.09115,PASS,
144,s05_vel_pi_leg_cycling,g000017_c6,17,,,,,,0.27796889931573787,0.001587808561224229,0.1,,,,,,,9.0405,25.1205,7.382,0.0,0.7551,0.009289,0.358,0.144,13.0,,,,,,3.16935,PASS,
145,s05_vel_pi_leg_cycling,g000017_c7,17,,,,,,0.5258265849613839,0.001,0.1,,,,,,,10.0566,29.477,7.6618,0.0,0.7205,0.009382,0.358,0.102,13.0,,,,,,3.16716,PASS,
146,s05_vel_pi_leg_cycling,g000018_c0,18,,,,,,0.3082238539705338,0.0016651894110209834,0.1974264538666617,,,,,,,9.2796,26.3549,7.396,0.0,0.7222,0.009306,0.358,0.142,13.0,,,,,,3.09456,PASS,
147,s05_vel_pi_leg_cycling,g000018_c1,18,,,,,,0.6758095663913422,0.001,0.222328811703866,,,,,,,11.1898,30.0007,8.4402,0.0,0.7502,0.009588,0.358,13.0,13.0,,,,,,3.36958,PASS,
148,s05_vel_pi_leg_cycling,g000018_c2,18,,,,,,0.9343772570196804,0.001,0.31022559140026107,,,,,,,13.9379,30.5791,9.2197,0.0,0.9371,0.009663,0.358,13.0,13.0,,,,,,4.20509,PASS,
149,s05_vel_pi_leg_cycling,g000018_c3,18,,,,,,0.07891360915646023,0.001,0.1358354817249587,,,,,,,4.7264,9.9411,6.2322,0.0,0.8791,0.009074,0.358,0.18,13.0,,,,,,3.10994,PASS,
150,s05_vel_pi_leg_cycling,g000018_c4,18,,,,,,0.2675168809016069,0.001,0.15367461314103187,,,,,,,8.9103,24.6061,7.2884,0.0,0.7443,0.009278,0.358,0.146,13.0,,,,,,3.12393,PASS,
151,s05_vel_pi_leg_cycling,g000018_c5,18,,,,,,0.19074615048444368,0.0011762574645712476,0.1,,,,,,,7.7822,19.1403,6.7744,0.0,0.7653,0.009201,0.358,0.162,13.0,,,,,,3.07412,PASS,
152,s05_vel_pi_leg_cycling,g000018_c6,18,,,,,,0.26379284481090715,0.002824781683245518,0.18678646455435688,,,,,,,8.9054,24.4377,7.2485,0.0,0.7297,0.009275,0.358,0.148,13.0,,,,,,3.07964,PASS,
153,s05_vel_pi_leg_cycling,g000018_c7,18,,,,,,0.17427548840642754,0.001,0.1856421446416542,,,,,,,7.4534,17.9059,6.689,0.0,0.787,0.009183,0.358,0.164,13.0,,,,,,3.10634,PASS,
154,s05_vel_pi_leg_cycling,g000019_c0,19,,,,,,0.13442506471327414,0.001,0.13559301121765746,,,,,,,6.4691,14.5385,6.3445,0.0,0.8199,0.009133,0.358,0.172,13.0,,,,,,3.10661,PASS,
155,s05_vel_pi_leg_cycling,g000019_c1,19,,,,,,0.282153381431841,0.001,0.1,,,,,,,9.067,25.2898,7.368,0.0,0.7456,0.009291,0.358,0.144,13.0,,,,,,3.1435,PASS,
156,s05_vel_pi_leg_cycling,g000019_c2,19,,,,,,0.2990832054521329,0.001,0.13061565200507708,,,,,,,9.2115,26.0135,7.4484,0.0,0.7493,0.009303,0.358,0.142,13.0,,,,,,3.16905,PASS,
157,s05_vel_pi_leg_cycling,g000019_c3,19,,,,,,0.9994341115938533,0.001,0.1,,,,,,,14.4466,30.7197,9.4398,0.0,0.9822,0.009713,0.358,13.0,13.0,,,,,,4.39126,PASS,
158,s05_vel_pi_leg_cycling,g000019_c4,19,,,,,,0.5298752638528891,0.0010340068182291848,0.11049145067456348,,,,,,,10.0866,29.4978,7.6712,0.0,0.7142,0.009386,0.358,0.102,13.0,,,,,,3.15126,PASS,
159,s05_vel_pi_leg_cycling,g000019_c5,19,,,,,,0.28071296315120936,0.001,0.1019547465702682,,,,,,,9.0541,25.2274,7.3723,0.0,0.7492,0.009291,0.358,0.144,13.0,,,,,,3.15301,PASS,
160,s05_vel_pi_leg_cycling,g000019_c6,19,,,,,,0.31130660442759794,0.0011689360088450024,0.1,,,,,,,9.3031,26.4403,7.4051,0.0,0.722,0.00931,0.358,0.14,13.0,,,,,,3.09631,PASS,
161,s05_vel_pi_leg_cycling,g000019_c7,19,,,,,,0.303086477315436,0.0020217422532245095,0.19638668370387932,,,,,,,9.2562,26.1877,7.4318,0.0,0.7387,0.009305,0.358,0.14,13.0,,,,,,3.14172,PASS,
162,s05_vel_pi_leg_cycling,g000020_c0,20,,,,,,0.3159074860606871,0.001,0.1,,,,,,,9.324,26.5918,7.4115,0.0,0.7222,0.00931,0.358,0.138,13.0,,,,,,3.099,PASS,
163,s05_vel_pi_leg_cycling,g000020_c1,20,,,,,,0.2549163286781855,0.0018570857729943181,0.15259429681500722,,,,,,,8.8066,23.8858,7.2872,0.0,0.7628,0.009271,0.358,0.148,13.0,,,,,,3.16906,PASS,
164,s05_vel_pi_leg_cycling,g000020_c2,20,,,,,,0.20423149843627597,0.001,0.1812369093487298,,,,,,,8.053,20.3869,6.9668,0.0,0.7807,0.009221,0.358,0.16,13.0,,,,,,3.1474,PASS,
165,s05_vel_pi_leg_cycling,g000020_c3,20,,,,,,0.523510966786501,0.001,0.10601148736100284,,,,,,,10.0667,29.4613,7.6956,0.0,0.7241,0.009383,0.358,0.104,13.0,,,,,,3.17897,PASS,
166,s05_vel_pi_leg_cycling,g000020_c4,20,,,,,,0.4055568543273763,0.001,0.13150384668593448,,,,,,,9.7624,28.4725,7.6087,0.0,0.7252,0.009348,0.358,0.122,13.0,,,,,,3.15184,PASS,
167,s05_vel_pi_leg_cycling,g000020_c5,20,,,,,,0.35676552282623836,0.0013677990329848116,0.1,,,,,,,9.5731,27.6694,7.5216,0.0,0.7241,0.009331,0.358,0.132,13.0,,,,,,3.12961,PASS,
168,s05_vel_pi_leg_cycling,g000020_c6,20,,,,,,0.298996371299664,0.001,0.1,,,,,,,9.2059,26.0051,7.4081,0.0,0.7395,0.009302,0.358,0.14,13.0,,,,,,3.13909,PASS,
169,s05_vel_pi_leg_cycling,g000020_c7,20,,,,,,0.6305020869410815,0.0014341500421675055,0.1,,,,,,,10.4621,29.8811,7.8839,0.0,0.7618,0.009468,0.358,4.31,13.0,,,,,,3.33161,PASS,
170,s05_vel_pi_leg_cycling,g000021_c0,21,,,,,,0.3097943137327439,0.001,0.1,,,,,,,9.293,26.3967,7.4855,0.0,0.7485,0.00931,0.358,0.14,13.0,,,,,,3.1748,PASS,
171,s05_vel_pi_leg_cycling,g000021_c1,21,,,,,,0.4053495204926933,0.0010149891569248139,0.10782698877053523,,,,,,,9.7612,28.4596,7.56,0.0,0.7115,0.009348,0.358,0.122,13.0,,,,,,3.11062,PASS,
172,s05_vel_pi_leg_cycling,g000021_c2,21,,,,,,0.338792058246982,0.001,0.1,,,,,,,9.4711,27.2427,7.467,0.0,0.7187,0.009323,0.358,0.134,13.0,,,,,,3.10321,PASS,
173,s05_vel_pi_leg_cycling,g000021_c3,21,,,,,,0.22659253463009094,0.0011633153495421503,0.1,,,,,,,8.4074,22.0186,7.0927,0.0,0.7637,0.009242,0.358,0.154,13.0,,,,,,3.13184,PASS,
174,s05_vel_pi_leg_cycling,g000021_c4,21,,,,,,0.44776867264665454,0.0014662788162569673,0.1,,,,,,,9.8988,28.9457,7.6449,0.0,0.7243,0.009362,0.358,0.116,13.0,,,,,,3.16278,PASS,
175,s05_vel_pi_leg_cycling,g000021_c5,21,,,,,,0.21810339452991784,0.0010667871087954425,0.1,,,,,,,8.2792,21.3934,7.0309,0.0,0.7628,0.009234,0.358,0.156,13.0,,,,,,3.11632,PASS,
176,s05_vel_pi_leg_cycling,g000021_c6,21,,,,,,0.39150588990752916,0.0012049274677616924,0.1,,,,,,,9.7327,28.2781,7.5929,0.0,0.7208,0.009346,0.358,0.126,13.0,,,,,,3.13567,PASS,
177,s05_vel_pi_leg_cycling,g000021_c7,21,,,,,,0.29772237831166876,0.001,0.13604353089893337,,,,,,,9.1975,25.9469,7.398,0.0,0.7351,0.009301,0.358,0.142,13.0,,,,,,3.12505,PASS,
178,s05_vel_pi_leg_cycling,g000022_c0,22,,,,,,0.1854185308886232,0.001,0.1,,,,,,,7.6683,18.6923,6.7206,0.0,0.7678,0.009193,0.358,0.162,13.0,,,,,,3.07023,PASS,
179,s05_vel_pi_leg_cycling,g000022_c1,22,,,,,,0.1499794105906506,0.0010100180520933178,0.1,,,,,,,6.8819,15.8762,6.482,0.0,0.8075,0.009153,0.358,0.168,13.0,,,,,,3.11069,PASS,
180,s05_vel_pi_leg_cycling,g000022_c2,22,,,,,,0.28889205343367086,0.001,0.1,,,,,,,9.1222,25.5841,7.339,0.0,0.7284,0.009295,0.358,0.142,13.0,,,,,,3.09742,PASS,
181,s05_vel_pi_leg_cycling,g000022_c3,22,,,,,,0.36664778811562043,0.001,0.1,,,,,,,9.6224,27.8612,7.6003,0.0,0.7383,0.009336,0.358,0.13,13.0,,,,,,3.17714,PASS,
182,s05_vel_pi_leg_cycling,g000022_c4,22,,,,,,0.3991184606588847,0.0013522160931290922,0.14215649143325967,,,,,,,9.7413,28.3893,7.5573,0.0,0.7181,0.009346,0.358,0.124,13.0,,,,,,3.12843,PASS,
183,s05_vel_pi_leg_cycling,g000022_c5,22,,,,,,0.3077201318852441,0.001270240700611597,0.1,,,,,,,9.2671,26.3241,7.3982,0.0,0.7261,0.009305,0.358,0.14,13.0,,,,,,3.10501,PASS,
184,s05_vel_pi_leg_cycling,g000022_c6,22,,,,,,0.318596538151346,0.0014694804085361335,0.1,,,,,,,9.36,26.689,7.4508,0.0,0.7262,0.009314,0.358,0.138,13.0,,,,,,3.1146,PASS,
185,s05_vel_pi_leg_cycling,g000022_c7,22,,,,,,0.2968839824391277,0.001,0.10601235796851866,,,,,,,9.193,25.9158,7.4182,0.0,0.7415,0.009301,0.358,0.142,13.0,,,,,,3.1438,PASS,
186,s05_vel_pi_leg_cycling,g000023_c0,23,,,,,,0.35310899865731493,0.0014767244798852758,0.1,,,,,,,9.5609,27.5835,7.4842,0.0,0.7107,0.00933,0.358,0.132,13.0,,,,,,3.08819,PASS,
187,s05_vel_pi_leg_cycling,g000023_c1,23,,,,,,0.29444688506008215,0.001,0.1220416808118648,,,,,,,9.1715,25.8194,7.3838,0.0,0.7344,0.009299,0.358,0.142,13.0,,,,,,3.12035,PASS,
188,s05_vel_pi_leg_cycling,g000023_c2,23,,,,,,0.25086243251325363,0.001,0.1,,,,,,,8.7432,23.6081,7.2489,0.0,0.7617,0.009268,0.358,0.15,13.0,,,,,,3.15942,PASS,
189,s05_vel_pi_leg_cycling,g000023_c3,23,,,,,,0.2966286696585826,0.001,0.13243272981394577,,,,,,,9.1906,25.8991,7.4005,0.0,0.7363,0.009301,0.358,0.142,13.0,,,,,,3.12796,PASS,
190,s05_vel_pi_leg_cycling,g000023_c4,23,,,,,,0.2443435194697738,0.001,0.1,,,,,,,8.635,22.9733,7.1682,0.0,0.7519,0.009258,0.358,0.15,13.0,,,,,,3.1192,PASS,
191,s05_vel_pi_leg_cycling,g000023_c5,23,,,,,,0.35810709290453935,0.0010847396511311643,0.1,,,,,,,9.5735,27.6806,7.4865,0.0,0.7124,0.009331,0.358,0.13,13.0,,,,,,3.09455,PASS,
192,s05_vel_pi_leg_cycling,g000023_c6,23,,,,,,0.23495841787406155,0.0011521861141823536,0.10961360916080945,,,,,,,8.5267,22.5856,7.1353,0.0,0.7569,0.009251,0.358,0.152,13.0,,,,,,3.12337,PASS,
193,s05_vel_pi_leg_cycling,g000023_c7,23,,,,,,0.2388010631126478,0.001,0.1,,,,,,,8.5907,22.8347,7.1752,0.0,0.7626,0.009257,0.358,0.152,13.0,,,,,,3.14687,PASS,
194,s05_vel_pi_leg_cycling,g000024_c0,24,,,,,,0.25250475803301425,0.0012406526803470225,0.11211846295954184,,,,,,,8.7477,23.7245,7.2248,0.0,0.7514,0.009266,0.358,0.15,13.0,,,,,,3.12897,PASS,
195,s05_vel_pi_leg_cycling,g000024_c1,24,,,,,,0.2543263755457168,0.0013713165765082825,0.10154778951115981,,,,,,,8.7686,23.8286,7.1695,0.0,0.7303,0.009267,0.358,0.148,13.0,,,,,,3.06776,PASS,
196,s05_vel_pi_leg_cycling,g000024_c2,24,,,,,,0.2080440815001964,0.0012064825086817626,0.10390669115449797,,,,,,,8.1251,20.6763,6.9957,0.0,0.7785,0.009225,0.358,0.158,13.0,,,,,,3.14801,PASS,
197,s05_vel_pi_leg_cycling,g000024_c3,24,,,,,,0.25394854944393397,0.0010294199465919727,0.11580852374365717,,,,,,,8.7597,23.7884,7.1882,0.0,0.7361,0.009266,0.358,0.148,13.0,,,,,,3.08427,PASS,
198,s05_vel_pi_leg_cycling,g000024_c4,24,,,,,,0.3277061575670392,0.0010204531155501206,0.1,,,,,,,9.4115,26.9473,7.4848,0.0,0.7296,0.009318,0.358,0.136,13.0,,,,,,3.12995,PASS,
199,s05_vel_pi_leg_cycling,g000024_c5,24,,,,,,0.31168923767429085,0.001,0.1,,,,,,,9.3024,26.4359,7.3815,0.0,0.7163,0.009309,0.358,0.138,13.0,,,,,,3.07914,PASS,
200,s05_vel_pi_leg_cycling,g000024_c6,24,,,,,,0.22034748562606368,0.001,0.13989950206440682,,,,,,,8.3137,21.5617,7.0572,0.0,0.766,0.009237,0.358,0.154,13.0,,,,,,3.12937,PASS,
201,s05_vel_pi_leg_cycling,g000024_c7,24,,,,,,0.22772704068248456,0.0011145977510525636,0.1,,,,,,,8.4244,21.9884,7.0198,0.0,0.7433,0.009244,0.358,0.156,13.0,,,,,,3.07234,PASS,
202,s05_vel_pi_leg_cycling,g000025_c0,25,,,,,,0.27194001198780604,0.001,0.11144114713116997,,,,,,,8.9704,24.7936,7.3229,0.0,0.7468,0.009284,0.358,0.144,13.0,,,,,,3.13744,PASS,
203,s05_vel_pi_leg_cycling,g000025_c1,25,,,,,,0.31516556771677284,0.001,0.12117153901687602,,,,,,,9.3305,26.5743,7.5013,0.0,0.7477,0.009313,0.358,0.138,13.0,,,,,,3.17615,PASS,
204,s05_vel_pi_leg_cycling,g000025_c2,25,,,,,,0.26644175743773746,0.001,0.10253450283301714,,,,,,,8.8977,24.5491,7.2815,0.0,0.7448,0.009277,0.358,0.148,13.0,,,,,,3.12417,PASS,
205,s05_vel_pi_leg_cycling,g000025_c3,25,,,,,,0.3319403540604701,0.0010813331262265096,0.10672027923651863,,,,,,,9.4396,27.0709,7.5211,0.0,0.7372,0.009321,0.358,0.136,13.0,,,,,,3.15556,PASS,
206,s05_vel_pi_leg_cycling,g000025_c4,25,,,,,,0.3051109339230756,0.001,0.10505393936927258,,,,,,,9.2586,26.237,7.4664,0.0,0.748,0.009307,0.358,0.14,13.0,,,,,,3.16986,PASS,
207,s05_vel_pi_leg_cycling,g000025_c5,25,,,,,,0.3053985038113503,0.001,0.1,,,,,,,9.2604,26.2423,7.4761,0.0,0.7503,0.009307,0.358,0.14,13.0,,,,,,3.17694,PASS,
208,s05_vel_pi_leg_cycling,g000025_c6,25,,,,,,0.3700167053461831,0.001,0.11260134067825332,,,,,,,9.6342,27.9074,7.5493,0.0,0.7208,0.009337,0.358,0.13,13.0,,,,,,3.12582,PASS,
209,s05_vel_pi_leg_cycling,g000025_c7,25,,,,,,0.278023683825838,0.0011433424134258204,0.1,,,,,,,9.0155,25.1057,7.3277,0.0,0.7422,0.009286,0.358,0.146,13.0,,,,,,3.12815,PASS,
210,s05_vel_pi_leg_cycling,g000026_c0,26,,,,,,0.3025705646774698,0.001,0.1,,,,,,,9.2323,26.1098,7.3338,0.0,0.7129,0.009303,0.358,0.14,13.0,,,,,,3.06193,PASS,
211,s05_vel_pi_leg_cycling,g000026_c1,26,,,,,,0.27472151826780744,0.001,0.12233060340917228,,,,,,,8.9971,24.936,7.3404,0.0,0.7483,0.009286,0.358,0.144,13.0,,,,,,3.14461,PASS,
212,s05_vel_pi_leg_cycling,g000026_c2,26,,,,,,0.3292662143813804,0.001,0.10756121372847154,,,,,,,9.4229,27.0017,7.5304,0.0,0.743,0.00932,0.358,0.138,13.0,,,,,,3.17129,PASS,
213,s05_vel_pi_leg_cycling,g000026_c3,26,,,,,,0.3074660876638128,0.001,0.1,,,,,,,9.2728,26.3122,7.4276,0.0,0.7347,0.009307,0.358,0.14,13.0,,,,,,3.13138,PASS,
214,s05_vel_pi_leg_cycling,g000026_c4,26,,,,,,0.3175811378808959,0.001,0.10776976868613132,,,,,,,9.3455,26.6424,7.4534,0.0,0.7293,0.009313,0.358,0.138,13.0,,,,,,3.12245,PASS,
215,s05_vel_pi_leg_cycling,g000026_c5,26,,,,,,0.29253469751337063,0.001,0.1,,,,,,,9.1431,25.7473,7.3606,0.0,0.7316,0.009296,0.358,0.144,13.0,,,,,,3.10911,PASS,
216,s05_vel_pi_leg_cycling,g000026_c6,26,,,,,,0.3169828213559322,0.001,0.10631436624864263,,,,,,,9.3417,26.621,7.455,0.0,0.7304,0.009313,0.358,0.138,13.0,,,,,,3.12537,PASS,
217,s05_vel_pi_leg_cycling,g000026_c7,26,,,,,,0.2360562254584178,0.0010502891916647948,0.10006628945044001,,,,,,,8.5562,22.6594,7.1659,0.0,0.7654,0.009255,0.358,0.152,13.0,,,,,,3.15182,PASS,
218,s05_vel_pi_leg_cycling,g000027_c0,27,,,,,,0.2847624280042622,0.0010044504865635284,0.10257092422627366,,,,,,,9.076,25.4117,7.3256,0.0,0.73,0.00929,0.358,0.144,13.0,,,,,,3.0976,PASS,
219,s05_vel_pi_leg_cycling,g000027_c1,27,,,,,,0.3044569078121584,0.0010910011189467672,0.10194935773510799,,,,,,,9.2554,26.2166,7.4755,0.0,0.7512,0.009307,0.358,0.14,13.0,,,,,,3.17914,PASS,
220,s05_vel_pi_leg_cycling,g000027_c2,27,,,,,,0.334181829510229,0.001,0.10703090513648922,,,,,,,9.4527,27.137,7.5443,0.0,0.7434,0.009322,0.358,0.136,13.0,,,,,,3.17547,PASS,
221,s05_vel_pi_leg_cycling,g000027_c3,27,,,,,,0.25079492351742383,0.001,0.1,,,,,,,8.7204,23.5984,7.1847,0.0,0.7427,0.009264,0.358,0.15,13.0,,,,,,3.10014,PASS,
222,s05_vel_pi_leg_cycling,g000027_c4,27,,,,,,0.29508590423378245,0.0010282698536614252,0.1072578953997357,,,,,,,9.179,25.8522,7.4141,0.0,0.7424,0.0093,0.358,0.142,13.0,,,,,,3.1451,PASS,
223,s05_vel_pi_leg_cycling,g000027_c5,27,,,,,,0.2600807720542799,0.0010382560315365479,0.10888431437872323,,,,,,,8.8486,24.1944,7.2999,0.0,0.7599,0.009275,0.358,0.148,13.0,,,,,,3.16456,PASS,
224,s05_vel_pi_leg_cycling,g000027_c6,27,,,,,,0.3438962511175954,0.0012429950419601736,0.1,,,,,,,9.5099,27.3674,7.508,0.0,0.7229,0.009326,0.358,0.134,13.0,,,,,,3.11969,PASS,
225,s05_vel_pi_leg_cycling,g000027_c7,27,,,,,,0.3182876037583661,0.0010335277126112573,0.1,,,,,,,9.353,26.6883,7.5203,0.0,0.7493,0.009314,0.358,0.138,13.0,,,,,,3.1832,PASS,
226,s05_vel_pi_leg_cycling,g000028_c0,28,,,,,,0.2998204233060524,0.0010670603833922306,0.10590679517440438,,,,,,,9.2134,26.0324,7.3827,0.0,0.7292,0.009302,0.358,0.14,13.0,,,,,,3.10894,PASS,
227,s05_vel_pi_leg_cycling,g000028_c1,28,,,,,,0.26631615915310813,0.001,0.10031618036097999,,,,,,,8.9037,24.4936,7.2806,0.0,0.7432,0.009278,0.358,0.146,13.0,,,,,,3.11997,PASS,
228,s05_vel_pi_leg_cycling,g000028_c2,28,,,,,,0.2697342898645753,0.001,0.10742969811263174,,,,,,,8.9327,24.6802,7.2892,0.0,0.742,0.009279,0.358,0.146,13.0,,,,,,3.11927,PASS,
229,s05_vel_pi_leg_cycling,g000028_c3,28,,,,,,0.34938238681925904,0.001,0.1,,,,,,,9.5351,27.4984,7.5472,0.0,0.7331,0.009329,0.358,0.132,13.0,,,,,,3.15281,PASS,
230,s05_vel_pi_leg_cycling,g000028_c4,28,,,,,,0.2714821800337491,0.0010525130846845052,0.10508258778163523,,,,,,,8.9532,24.7741,7.291,0.0,0.7387,0.009281,0.358,0.146,13.0,,,,,,3.11142,PASS,
231,s05_vel_pi_leg_cycling,g000028_c5,28,,,,,,0.31238387750181096,0.0010128139725193949,0.10286280124762973,,,,,,,9.2999,26.4867,7.4332,0.0,0.7337,0.009309,0.358,0.138,13.0,,,,,,3.13109,PASS,
232,s05_vel_pi_leg_cycling,g000028_c6,28,,,,,,0.3048667858724775,0.001099266479337386,0.10295745361735907,,,,,,,9.257,26.2269,7.446,0.0,0.7413,0.009306,0.358,0.14,13.0,,,,,,3.1496,PASS,
233,s05_vel_pi_leg_cycling,g000028_c7,28,,,,,,0.27293072643535465,0.0011354772511551444,0.1,,,,,,,8.9636,24.8262,7.291,0.0,0.7393,0.009282,0.358,0.146,13.0,,,,,,3.11426,PASS,
234,s05_vel_pi_leg_cycling,g000029_c0,29,,,,,,0.31201306919105626,0.0010603120899485723,0.1,,,,,,,9.3066,26.4641,7.4083,0.0,0.722,0.00931,0.358,0.138,13.0,,,,,,3.09666,PASS,
235,s05_vel_pi_leg_cycling,g000029_c1,29,,,,,,0.30909917119654895,0.001,0.1,,,,,,,9.2848,26.3856,7.4549,0.0,0.7409,0.009308,0.358,0.14,13.0,,,,,,3.15118,PASS,
236,s05_vel_pi_leg_cycling,g000029_c2,29,,,,,,0.2696371072704471,0.0011135848346002977,0.10344783651012823,,,,,,,8.9467,24.6816,7.2964,0.0,0.7422,0.009282,0.358,0.148,13.0,,,,,,3.12127,PASS,
237,s05_vel_pi_leg_cycling,g000029_c3,29,,,,,,0.318146494835068,0.001,0.10489438581783579,,,,,,,9.3496,26.6591,7.4636,0.0,0.7319,0.009314,0.358,0.138,13.0,,,,,,3.13066,PASS,
238,s05_vel_pi_leg_cycling,g000029_c4,29,,,,,,0.2924704315906839,0.0010359928973842196,0.1,,,,,,,9.1446,25.7437,7.3731,0.0,0.7366,0.009296,0.358,0.142,13.0,,,,,,3.12426,PASS,
239,s05_vel_pi_leg_cycling,g000029_c5,29,,,,,,0.2917042672284597,0.0010784431367221357,0.1,,,,,,,9.1496,25.7032,7.3513,0.0,0.7277,0.009297,0.358,0.14,13.0,,,,,,3.09806,PASS,
240,s05_vel_pi_leg_cycling,g000029_c6,29,,,,,,0.2751826891067752,0.001,0.10956778233060833,,,,,,,8.9876,24.9648,7.3124,0.0,0.7394,0.009284,0.358,0.146,13.0,,,,,,3.11696,PASS,
241,s05_vel_pi_leg_cycling,g000029_c7,29,,,,,,0.2785210873339771,0.001,0.11640841457592262,,,,,,,9.0326,25.115,7.3595,0.0,0.7502,0.009289,0.358,0.144,13.0,,,,,,3.15386,PASS,
242,s05_vel_pi_leg_cycling,g000030_c0,30,,,,,,0.29606994857014846,0.0010184754240555333,0.1,,,,,,,9.1708,25.8801,7.3432,0.0,0.7221,0.009298,0.358,0.142,13.0,,,,,,3.08338,PASS,
243,s05_vel_pi_leg_cycling,g000030_c1,30,,,,,,0.332570890216467,0.001,0.1,,,,,,,9.4417,27.0774,7.5083,0.0,0.7323,0.009321,0.358,0.136,13.0,,,,,,3.14107,PASS,
244,s05_vel_pi_leg_cycling,g000030_c2,30,,,,,,0.2917472689264723,0.001,0.10278354155287953,,,,,,,9.1364,25.7265,7.376,0.0,0.7391,0.009296,0.358,0.144,13.0,,,,,,3.13094,PASS,
245,s05_vel_pi_leg_cycling,g000030_c3,30,,,,,,0.2574317591257618,0.0010763180594548386,0.1,,,,,,,8.8038,24.072,7.2566,0.0,0.7506,0.00927,0.358,0.148,13.0,,,,,,3.13218,PASS,
246,s05_vel_pi_leg_cycling,g000030_c4,30,,,,,,0.3085842073938433,0.001,0.10071057375119437,,,,,,,9.2705,26.349,7.3904,0.0,0.7232,0.009306,0.358,0.14,13.0,,,,,,3.09665,PASS,
247,s05_vel_pi_leg_cycling,g000030_c5,30,,,,,,0.2998515766426006,0.001,0.10639402912559894,,,,,,,9.2105,26.038,7.3919,0.0,0.7315,0.009302,0.358,0.142,13.0,,,,,,3.11555,PASS,
248,s05_vel_pi_leg_cycling,g000030_c6,30,,,,,,0.2637869548143563,0.001,0.10986500501097485,,,,,,,8.8828,24.36,7.2506,0.0,0.7379,0.009277,0.358,0.148,13.0,,,,,,3.10198,PASS,
249,s05_vel_pi_leg_cycling,g000030_c7,30,,,,,,0.3138913303177839,0.001,0.1,,,,,,,9.3209,26.5396,7.4624,0.0,0.7373,0.009311,0.358,0.138,13.0,,,,,,3.14399,PASS,
250,s05_vel_pi_leg_cycling,g000031_c0,31,,,,,,0.284643913582129,0.001050101443417263,0.10663487646899178,,,,,,,9.0909,25.4088,7.3978,0.0,0.752,0.009293,0.358,0.144,13.0,,,,,,3.16509,PASS,
251,s05_vel_pi_leg_cycling,g000031_c1,31,,,,,,0.28392247556087613,0.001007447417386796,0.1,,,,,,,9.0705,25.3726,7.3389,0.0,0.7351,0.00929,0.358,0.144,13.0,,,,,,3.11235,PASS,
252,s05_vel_pi_leg_cycling,g000031_c2,31,,,,,,0.30372296173956986,0.0010431636418953413,0.10246196326304273,,,,,,,9.2447,26.1779,7.4046,0.0,0.7308,0.009305,0.358,0.142,13.0,,,,,,3.11687,PASS,
253,s05_vel_pi_leg_cycling,g000031_c3,31,,,,,,0.2863015123949086,0.0010072091174071506,0.10572068139863865,,,,,,,9.0953,25.4855,7.3692,0.0,0.7424,0.009293,0.358,0.144,13.0,,,,,,3.13673,PASS,
254,s05_vel_pi_leg_cycling,g000031_c4,31,,,,,,0.3097358414727679,0.001,0.1,,,,,,,9.292,26.395,7.4903,0.0,0.7501,0.00931,0.358,0.14,13.0,,,,,,3.1795,PASS,
255,s05_vel_pi_leg_cycling,g000031_c5,31,,,,,,0.27969550342163046,0.0010011665634448263,0.1,,,,,,,9.046,25.1759,7.3807,0.0,0.7541,0.00929,0.358,0.144,13.0,,,,,,3.1669,PASS,
256,s05_vel_pi_leg_cycling,g000031_c6,31,,,,,,0.30228054853841624,0.0010772963734480311,0.10025447500617253,,,,,,,9.2236,26.1245,7.3794,0.0,0.7259,0.009302,0.358,0.14,13.0,,,,,,3.10006,PASS,
257,s05_vel_pi_leg_cycling,g000031_c7,31,,,,,,0.3104762747856959,0.001,0.1,,,,,,,9.2968,26.4164,7.4591,0.0,0.7388,0.009309,0.358,0.14,13.0,,,,,,3.14608,PASS,
258,s05_vel_pi_leg_cycling,g000032_c0,32,,,,,,0.30384469442635054,0.001,0.1,,,,,,,9.2453,26.1833,7.4112,0.0,0.7326,0.009305,0.358,0.14,13.0,,,,,,3.12233,PASS,
259,s05_vel_pi_leg_cycling,g000032_c1,32,,,,,,0.29043117682344094,0.001030254622801814,0.10337660251105255,,,,,,,9.1222,25.6407,7.2896,0.0,0.7141,0.009293,0.358,0.142,13.0,,,,,,3.05452,PASS,
260,s05_vel_pi_leg_cycling,g000032_c2,32,,,,,,0.2862486774592348,0.001,0.1035585806922981,,,,,,,9.1024,25.4788,7.377,0.0,0.7438,0.009294,0.358,0.142,13.0,,,,,,3.14164,PASS,
261,s05_vel_pi_leg_cycling,g000032_c3,32,,,,,,0.2772042678895685,0.0010212732211721078,0.100710731121405,,,,,,,9.0176,25.0699,7.3361,0.0,0.7449,0.009287,0.358,0.144,13.0,,,,,,3.13646,PASS,
262,s05_vel_pi_leg_cycling,g000032_c4,32,,,,,,0.2869992574612426,0.0010131409802810439,0.1,,,,,,,9.0943,25.5029,7.3133,0.0,0.7247,0.009292,0.358,0.144,13.0,,,,,,3.08353,PASS,
263,s05_vel_pi_leg_cycling,g000032_c5,32,,,,,,0.28320326042369154,0.0010140966309310033,0.10112420025853301,,,,,,,9.0783,25.3427,7.3964,0.0,0.7535,0.009293,0.358,0.144,13.0,,,,,,3.16833,PASS,
264,s05_vel_pi_leg_cycling,g000032_c6,32,,,,,,0.31007148517728345,0.001,0.1,,,,,,,9.292,26.4104,7.4296,0.0,0.7334,0.009309,0.358,0.14,13.0,,,,,,3.1294,PASS,
265,s05_vel_pi_leg_cycling,g000032_c7,32,,,,,,0.29748025651512777,0.0010134066993503293,0.10370757869935648,,,,,,,9.1924,25.9285,7.3817,0.0,0.7334,0.009301,0.358,0.142,13.0,,,,,,3.11944,PASS,
266,s05_vel_pi_leg_cycling,g000033_c0,33,,,,,,0.2894068630073184,0.001128425676067336,0.1049880711073905,,,,,,,9.1328,25.6285,7.4036,0.0,0.7473,0.009297,0.358,0.144,13.0,,,,,,3.15518,PASS,
267,s05_vel_pi_leg_cycling,g000033_c1,33,,,,,,0.28762008719170457,0.0010152649796675403,0.1,,,,,,,9.101,25.5392,7.3553,0.0,0.7377,0.009292,0.358,0.142,13.0,,,,,,3.1232,PASS,
268,s05_vel_pi_leg_cycling,g000033_c2,33,,,,,,0.2998477314129123,0.0010218076430583696,0.10580997621573676,,,,,,,9.2162,26.0403,7.4187,0.0,0.7386,0.009303,0.358,0.14,13.0,,,,,,3.13742,PASS,
269,s05_vel_pi_leg_cycling,g000033_c3,33,,,,,,0.28714620917090167,0.0010548318856574374,0.10258641913018582,,,,,,,9.1134,25.5159,7.4057,0.0,0.751,0.009295,0.358,0.142,13.0,,,,,,3.16434,PASS,
270,s05_vel_pi_leg_cycling,g000033_c4,33,,,,,,0.2977434204657666,0.0010041745932827062,0.10545610350381172,,,,,,,9.1853,25.9528,7.3727,0.0,0.7303,0.009299,0.358,0.142,13.0,,,,,,3.10943,PASS,
271,s05_vel_pi_leg_cycling,g000033_c5,33,,,,,,0.2941949150250486,0.0010587790664597794,0.10435128933201364,,,,,,,9.1735,25.8147,7.4285,0.0,0.7495,0.0093,0.358,0.142,13.0,,,,,,3.16585,PASS,
272,s05_vel_pi_leg_cycling,g000033_c6,33,,,,,,0.28156181641395306,0.0010166238259354105,0.10077878586703688,,,,,,,9.0436,25.2605,7.2951,0.0,0.7263,0.009288,0.358,0.144,13.0,,,,,,3.08326,PASS,
273,s05_vel_pi_leg_cycling,g000033_c7,33,,,,,,0.3174057427115413,0.001027591793739508,0.10378801218897114,,,,,,,9.3456,26.6505,7.4708,0.0,0.7364,0.009313,0.358,0.138,13.0,,,,,,3.14376,PASS,
274,s05_vel_pi_leg_cycling,g000034_c0,34,,,,,,0.28749506404836694,0.0010364551407646809,0.10603802595993743,,,,,,,9.0992,25.5263,7.3238,0.0,0.7264,0.009292,0.358,0.144,13.0,,,,,,3.08912,PASS,
275,s05_vel_pi_leg_cycling,g000034_c1,34,,,,,,0.2740087137771982,0.001059979600246818,0.10328833712104885,,,,,,,8.9733,24.9011,7.2837,0.0,0.7336,0.009282,0.358,0.144,13.0,,,,,,3.09813,PASS,
276,s05_vel_pi_leg_cycling,g000034_c2,34,,,,,,0.29925070088182715,0.001025762169304916,0.10166265601181579,,,,,,,9.2003,26.0092,7.3741,0.0,0.7269,0.0093,0.358,0.14,13.0,,,,,,3.10073,PASS,
277,s05_vel_pi_leg_cycling,g000034_c3,34,,,,,,0.2819051405050692,0.001003837422591656,0.1047771551810883,,,,,,,9.0653,25.2845,7.3779,0.0,0.7497,0.009292,0.358,0.144,13.0,,,,,,3.15563,PASS,
278,s05_vel_pi_leg_cycling,g000034_c4,34,,,,,,0.2863691611220783,0.001022733124034769,0.10361499673985629,,,,,,,9.1034,25.482,7.3702,0.0,0.741,0.009294,0.358,0.142,13.0,,,,,,3.13334,PASS,
279,s05_vel_pi_leg_cycling,g000034_c5,34,,,,,,0.29037253003745656,0.001,0.10325808169647091,,,,,,,9.1398,25.6489,7.403,0.0,0.7473,0.009297,0.358,0.142,13.0,,,,,,3.15588,PASS,
280,s05_vel_pi_leg_cycling,g000034_c6,34,,,,,,0.2990435767520192,0.0010160409160512448,0.10265834241487223,,,,,,,9.2101,25.9945,7.3995,0.0,0.7329,0.009303,0.358,0.14,13.0,,,,,,3.11971,PASS,
281,s05_vel_pi_leg_cycling,g000034_c7,34,,,,,,0.28552380257761173,0.0010308227399030614,0.10558158183826509,,,,,,,9.0837,25.4396,7.3163,0.0,0.7265,0.009291,0.358,0.144,13.0,,,,,,3.08787,PASS,
282,s05_vel_pi_leg_cycling,g000035_c0,35,,,,,,0.28959262336913827,0.0010321569083301908,0.10623957122610204,,,,,,,9.1178,25.6173,7.3178,0.0,0.7213,0.009293,0.358,0.144,13.0,,,,,,3.07568,PASS,
283,s05_vel_pi_leg_cycling,g000035_c1,35,,,,,,0.2866429691637401,0.0010110033835600608,0.10179794782585679,,,,,,,9.1079,25.4943,7.3861,0.0,0.7447,0.009295,0.358,0.144,13.0,,,,,,3.14489,PASS,
284,s05_vel_pi_leg_cycling,g000035_c2,35,,,,,,0.2869464026230046,0.0010092726995933022,0.10493729426462291,,,,,,,9.1107,25.51,7.3961,0.0,0.7478,0.009295,0.358,0.144,13.0,,,,,,3.15447,PASS,
285,s05_vel_pi_leg_cycling,g000035_c3,35,,,,,,0.28372207005941585,0.0010292213736378445,0.10349770552254882,,,,,,,9.0671,25.3668,7.3304,0.0,0.734,0.00929,0.358,0.144,13.0,,,,,,3.10871,PASS,
286,s05_vel_pi_leg_cycling,g000035_c4,35,,,,,,0.29599566937834226,0.0010396924310821217,0.10147098023734236,,,,,,,9.1871,25.8809,7.4082,0.0,0.7391,0.009301,0.358,0.142,13.0,,,,,,3.13601,PASS,
287,s05_vel_pi_leg_cycling,g000035_c5,35,,,,,,0.2855478180509416,0.0010527295085320685,0.10218720675216673,,,,,,,9.0981,25.4337,7.3424,0.0,0.7335,0.009294,0.358,0.144,13.0,,,,,,3.11031,PASS,
288,s05_vel_pi_leg_cycling,g000035_c6,35,,,,,,0.2984630724340066,0.0010498539269822565,0.10477708004445635,,,,,,,9.2058,25.9683,7.3805,0.0,0.7287,0.009302,0.358,0.142,13.0,,,,,,3.10668,PASS,
289,s05_vel_pi_leg_cycling,g000035_c7,35,,,,,,0.3005286190952371,0.0010533524599755937,0.10236064910927511,,,,,,,9.223,26.0532,7.4269,0.0,0.7395,0.009304,0.358,0.14,13.0,,,,,,3.1408,PASS,
290,s05_vel_pi_leg_cycling,g000036_c0,36,,,,,,0.29297175112670193,0.0010450343900416483,0.10426764329178645,,,,,,,9.1489,25.7644,7.3654,0.0,0.7317,0.009296,0.358,0.142,13.0,,,,,,3.10999,PASS,
291,s05_vel_pi_leg_cycling,g000036_c1,36,,,,,,0.2898659270662001,0.001,0.1019770177656076,,,,,,,9.1183,25.6314,7.3415,0.0,0.7297,0.009294,0.358,0.142,13.0,,,,,,3.10093,PASS,
292,s05_vel_pi_leg_cycling,g000036_c2,36,,,,,,0.2860341033077368,0.0010341582337116968,0.10661202350705107,,,,,,,9.0865,25.4612,7.2956,0.0,0.7196,0.009291,0.358,0.144,13.0,,,,,,3.06745,PASS,
293,s05_vel_pi_leg_cycling,g000036_c3,36,,,,,,0.28936413127171,0.0010596753474642884,0.10683838878475536,,,,,,,9.1179,25.6158,7.3592,0.0,0.7361,0.009294,0.358,0.142,13.0,,,,,,3.12009,PASS,
294,s05_vel_pi_leg_cycling,g000036_c4,36,,,,,,0.297915547745997,0.001,0.1,,,,,,,9.1974,25.9585,7.3714,0.0,0.7276,0.009301,0.358,0.142,13.0,,,,,,3.10254,PASS,
295,s05_vel_pi_leg_cycling,g000036_c5,36,,,,,,0.29264677951250834,0.0010207109978776286,0.10096321935492619,,,,,,,9.1524,25.7526,7.3779,0.0,0.7364,0.009297,0.358,0.142,13.0,,,,,,3.12444,PASS,
296,s05_vel_pi_leg_cycling,g000036_c6,36,,,,,,0.2933368481929608,0.0010374273855864233,0.10654148860745104,,,,,,,9.1613,25.7814,7.3812,0.0,0.736,0.009298,0.358,0.142,13.0,,,,,,3.12413,PASS,
297,s05_vel_pi_leg_cycling,g000036_c7,36,,,,,,0.28601590776910285,0.0010096549596157072,0.10147681527231496,,,,,,,9.1026,25.4767,7.3939,0.0,0.7485,0.009294,0.358,0.144,13.0,,,,,,3.15576,PASS,
298,s05_vel_pi_leg_cycling,g000037_c0,37,,,,,,0.29852036778638796,0.001062839617119526,0.10477615935747814,,,,,,,9.2081,25.9938,7.4393,0.0,0.7464,0.009303,0.358,0.142,13.0,,,,,,3.16001,PASS,
299,s05_vel_pi_leg_cycling,g000037_c1,37,,,,,,0.2942094956804174,0.001003898638467057,0.1,,,,,,,9.1711,25.8136,7.4104,0.0,0.7431,0.0093,0.358,0.142,13.0,,,,,,3.14641,PASS,
300,s05_vel_pi_leg_cycling,g000037_c2,37,,,,,,0.28137958402264013,0.0010399214931798974,0.10351434832188734,,,,,,,9.0587,25.2499,7.3065,0.0,0.7286,0.00929,0.358,0.144,13.0,,,,,,3.09167,PASS,
301,s05_vel_pi_leg_cycling,g000037_c3,37,,,,,,0.27517112961992846,0.0010675063977880204,0.1032519601323207,,,,,,,9.004,24.9608,7.37,0.0,0.7574,0.009287,0.358,0.144,13.0,,,,,,3.1726,PASS,
302,s05_vel_pi_leg_cycling,g000037_c4,37,,,,,,0.299843563497716,0.001007423274820964,0.1042057408929346,,,,,,,9.2169,26.0382,7.4367,0.0,0.7445,0.009303,0.358,0.142,13.0,,,,,,3.15519,PASS,
303,s05_vel_pi_leg_cycling,g000037_c5,37,,,,,,0.289226963653138,0.0010512748637883916,0.10191454946356084,,,,,,,9.1269,25.5773,7.3294,0.0,0.7273,0.009295,0.358,0.144,13.0,,,,,,3.09459,PASS,
304,s05_vel_pi_leg_cycling,g000037_c6,37,,,,,,0.2933188639765618,0.001015683483810498,0.1050677526014012,,,,,,,9.1502,25.7771,7.3735,0.0,0.7369,0.009296,0.358,0.142,13.0,,,,,,3.12572,PASS,
305,s05_vel_pi_leg_cycling,g000037_c7,37,,,,,,0.2924052329352276,0.001,0.10097496980381983,,,,,,,9.154,25.7549,7.4016,0.0,0.7435,0.009298,0.358,0.142,13.0,,,,,,3.1459,PASS,
306,s05_vel_pi_leg_cycling,g000038_c0,38,,,,,,0.2977833669240045,0.0010811441244848168,0.10226215760014955,,,,,,,9.1984,25.9217,7.3575,0.0,0.7251,0.009301,0.358,0.142,13.0,,,,,,3.09514,PASS,
307,s05_vel_pi_leg_cycling,g000038_c1,38,,,,,,0.28901764833936333,0.001008320450870866,0.10012377718143442,,,,,,,9.1256,25.5903,7.3488,0.0,0.7303,0.009296,0.358,0.142,13.0,,,,,,3.10346,PASS,
308,s05_vel_pi_leg_cycling,g000038_c2,38,,,,,,0.29793179653666285,0.0010292871710571203,0.1014957540910127,,,,,,,9.2022,25.9631,7.4359,0.0,0.7474,0.009302,0.358,0.142,13.0,,,,,,3.16242,PASS,
309,s05_vel_pi_leg_cycling,g000038_c3,38,,,,,,0.2722151996797923,0.0010503168497559654,0.10608744211776751,,,,,,,8.9736,24.8527,7.343,0.0,0.7522,0.009284,0.358,0.144,13.0,,,,,,3.15396,PASS,
310,s05_vel_pi_leg_cycling,g000038_c4,38,,,,,,0.2832441157751,0.0010346721140041789,0.10458323412931389,,,,,,,9.0623,25.3399,7.3154,0.0,0.7288,0.009289,0.358,0.142,13.0,,,,,,3.09263,PASS,
311,s05_vel_pi_leg_cycling,g000038_c5,38,,,,,,0.29400098840861777,0.001038288161384025,0.10144659302764898,,,,,,,9.1558,25.8019,7.34,0.0,0.7231,0.009297,0.358,0.142,13.0,,,,,,3.08488,PASS,
312,s05_vel_pi_leg_cycling,g000038_c6,38,,,,,,0.2832854731718572,0.001020732747597413,0.10709370301153122,,,,,,,9.0742,25.3479,7.3532,0.0,0.7411,0.009292,0.358,0.144,13.0,,,,,,3.13072,PASS,
313,s05_vel_pi_leg_cycling,g000038_c7,38,,,,,,0.28845340199592,0.0010283719378034828,0.10092823063721103,,,,,,,9.1243,25.577,7.4266,0.0,0.7564,0.009296,0.358,0.144,13.0,,,,,,3.18163,PASS,
314,s05_vel_pi_leg_cycling,g000039_c0,39,,,,,,0.29323117846642444,0.0010326200806173786,0.10539621147518398,,,,,,,9.1603,25.7436,7.3305,0.0,0.722,0.009298,0.358,0.142,13.0,,,,,,3.08203,PASS,
315,s05_vel_pi_leg_cycling,g000039_c1,39,,,,,,0.2914224353037576,0.0010739866995656596,0.10449499476345993,,,,,,,9.1499,25.7011,7.4105,0.0,0.7458,0.009298,0.358,0.142,13.0,,,,,,3.15239,PASS,
316,s05_vel_pi_leg_cycling,g000039_c2,39,,,,,,0.2811435286153457,0.0010400758910575046,0.10582902526203615,,,,,,,9.0446,25.2491,7.3472,0.0,0.7432,0.009288,0.358,0.144,13.0,,,,,,3.13406,PASS,
317,s05_vel_pi_leg_cycling,g000039_c3,39,,,,,,0.2790769752423586,0.00101975985716207,0.10134697882892756,,,,,,,9.0357,25.1493,7.3501,0.0,0.747,0.009289,0.358,0.144,13.0,,,,,,3.14457,PASS,
318,s05_vel_pi_leg_cycling,g000039_c4,39,,,,,,0.2910072467616623,0.001,0.10537213798264891,,,,,,,9.1401,25.674,7.3335,0.0,0.7241,0.009296,0.358,0.144,13.0,,,,,,3.08631,PASS,
319,s05_vel_pi_leg_cycling,g000039_c5,39,,,,,,0.28991678022723993,0.0010609775815461282,0.10865492816252126,,,,,,,9.133,25.6366,7.3814,0.0,0.7418,0.009296,0.358,0.144,13.0,,,,,,3.1387,PASS,
320,s05_vel_pi_leg_cycling,g000039_c6,39,,,,,,0.2933048147226479,0.0010381870268484595,0.10628720556533038,,,,,,,9.1486,25.7804,7.3787,0.0,0.7387,0.009296,0.358,0.142,13.0,,,,,,3.13096,PASS,
321,s05_vel_pi_leg_cycling,g000039_c7,39,,,,,,0.2874508776043577,0.0010332932483188009,0.1,,,,,,,9.0995,25.5318,7.3363,0.0,0.7309,0.009292,0.358,0.142,13.0,,,,,,3.10265,PASS,
322,s05_vel_pi_leg_cycling,g000040_c0,40,,,,,,0.29173308428171796,0.0010058890717518697,0.10259297239614443,,,,,,,9.1432,25.7109,7.3686,0.0,0.7338,0.009297,0.358,0.142,13.0,,,,,,3.11572,PASS,
323,s05_vel_pi_leg_cycling,g000040_c1,40,,,,,,0.2845267677486447,0.0010178932462902206,0.10551627303250403,,,,,,,9.0725,25.4001,7.3121,0.0,0.7275,0.00929,0.358,0.144,13.0,,,,,,3.08975,PASS,
324,s05_vel_pi_leg_cycling,g000040_c2,40,,,,,,0.2789702780624457,0.0010546400967500922,0.10430840413758664,,,,,,,9.04,25.1353,7.3828,0.0,0.7564,0.00929,0.358,0.144,13.0,,,,,,3.1732,PASS,
325,s05_vel_pi_leg_cycling,g000040_c3,40,,,,,,0.29343590659869323,0.0010277859864523666,0.10292414501599738,,,,,,,9.1608,25.7777,7.3611,0.0,0.7299,0.009298,0.358,0.142,13.0,,,,,,3.10578,PASS,
326,s05_vel_pi_leg_cycling,g000040_c4,40,,,,,,0.2947493979006148,0.001,0.10406710247151672,,,,,,,9.167,25.8319,7.374,0.0,0.7338,0.009298,0.358,0.142,13.0,,,,,,3.1181,PASS,
327,s05_vel_pi_leg_cycling,g000040_c5,40,,,,,,0.2930266125725268,0.0010047701906663775,0.10394433450184704,,,,,,,9.1624,25.7764,7.4278,0.0,0.7505,0.009299,0.358,0.142,13.0,,,,,,3.16774,PASS,
328,s05_vel_pi_leg_cycling,g000040_c6,40,,,,,,0.2856027661266434,0.001,0.10453241804004101,,,,,,,9.0939,25.4131,7.319,0.0,0.7297,0.009293,0.358,0.144,13.0,,,,,,3.09849,PASS,
329,s05_vel_pi_leg_cycling,g000040_c7,40,,,,,,0.29623432291395246,0.001021771778421537,0.10242355415843547,,,,,,,9.1723,25.8852,7.3168,0.0,0.7146,0.009298,0.358,0.142,13.0,,,,,,3.06103,PASS,
330,s05_vel_pi_leg_cycling,g000041_c0,41,,,,,,0.28454649696804635,0.0010534919832519537,0.10164920656940764,,,,,,,9.0811,25.4073,7.3536,0.0,0.7389,0.009292,0.358,0.144,13.0,,,,,,3.12481,PASS,
331,s05_vel_pi_leg_cycling,g000041_c1,41,,,,,,0.2850513037111601,0.0010814527139995731,0.10187994503234574,,,,,,,9.0777,25.4243,7.3155,0.0,0.7274,0.00929,0.358,0.144,13.0,,,,,,3.08997,PASS,
332,s05_vel_pi_leg_cycling,g000041_c2,41,,,,,,0.2913638182101384,0.0010574082371098013,0.10298472936493848,,,,,,,9.1502,25.7025,7.4182,0.0,0.749,0.009298,0.358,0.144,13.0,,,,,,3.16202,PASS,
333,s05_vel_pi_leg_cycling,g000041_c3,41,,,,,,0.2829185088415707,0.0010744858572393462,0.10870876805264389,,,,,,,9.0641,25.3452,7.3592,0.0,0.743,0.00929,0.358,0.144,13.0,,,,,,3.13541,PASS,
334,s05_vel_pi_leg_cycling,g000041_c4,41,,,,,,0.29708784785626735,0.001035829787772531,0.10519340533787166,,,,,,,9.1968,25.9433,7.4564,0.0,0.7538,0.009302,0.358,0.142,13.0,,,,,,3.18108,PASS,
335,s05_vel_pi_leg_cycling,g000041_c5,41,,,,,,0.28540675012961364,0.0010475646309117657,0.10409948590553868,,,,,,,9.0811,25.4353,7.3243,0.0,0.7291,0.009291,0.358,0.142,13.0,,,,,,3.09541,PASS,
336,s05_vel_pi_leg_cycling,g000041_c6,41,,,,,,0.2772040989797562,0.0010262693528583563,0.10296682066884331,,,,,,,9.006,25.0581,7.3082,0.0,0.7358,0.009285,0.358,0.144,13.0,,,,,,3.108,PASS,
337,s05_vel_pi_leg_cycling,g000041_c7,41,,,,,,0.2932591389148368,0.0010114464474280753,0.10679620531441118,,,,,,,9.165,25.7844,7.4345,0.0,0.7519,0.009299,0.358,0.142,13.0,,,,,,3.1722,PASS,
338,s05_vel_pi_leg_cycling,g000042_c0,42,,,,,,0.2852374238153822,0.001,0.10006403126545284,,,,,,,9.0932,25.4425,7.3804,0.0,0.7466,0.009294,0.358,0.144,13.0,,,,,,3.14912,PASS,
