run_id,scenario,label,gen,timestamp,Q_PITCH,Q_PITCH_RATE,Q_VEL,R,KP_V,KI_V,KFF_V,KP_YAW,KI_YAW,LEG_K_S,LEG_B_S,LEG_K_ROLL,LEG_D_ROLL,rms_pitch_deg,max_pitch_deg,wheel_travel_m,wheel_liftoff_s,vel_track_rms_ms,hip_track_rms_rad,hip_cmd_rate_rms,settle_time_s,survived_s,fitness_balance,fitness_disturbance,fitness_drive_slow,fitness_drive_med,fitness_obstacle,fitness,status,fail_reason
1,s08_terrain_compliance,evo_seed,0,,,,,,,,,,,7.4883874,0.57853659,0.026971063,3.251271,4.6261,11.7588,12.8296,0.294,0.3557,0.066068,2.9657,1.276,12.0,,,,,,1.181268,PASS,
2,s08_terrain_compliance,g000000_c0,0,,,,,,,,,,,0.343379154493795,0.01,0.03211253496959366,1.491947877311102,4.0182,18.8238,12.5372,0.38,0.4136,0.316768,5.3907,1.308,12.0,,,,,,8.947843,PASS,
3,s08_terrain_compliance,g000000_c1,0,,,,,,,,,,,20.336364745312597,0.05020384728500699,0.31040232442491134,0.015563589890008092,4.4572,10.2921,12.732,0.29,0.3051,0.024689,0.2095,1.272,12.0,,,,,,5.871817,PASS,
4,s08_terrain_compliance,g000000_c2,0,,,,,,,,,,,12.955538163059126,0.732029836724747,0.0209370120243743,2.2907472966932336,4.64,11.0271,12.7931,0.296,0.3378,0.038922,5.2664,1.274,12.0,,,,,,1.41526,PASS,
5,s08_terrain_compliance,g000000_c3,0,,,,,,,,,,,54.15743607380701,0.07217047683283748,0.02884611717760832,88.20701963764158,6.6074,16.0931,22.8572,1.236,2.1056,0.292173,347.2062,12.0,12.0,,,,,,9.364286,PASS,
6,s08_terrain_compliance,g000000_c4,0,,,,,,,,,,,26.979944718639103,21.673190119919877,0.011333095941221744,14.040261108031453,5.2064,12.1479,19.2248,0.4,1.7835,0.295591,340.3983,12.0,12.0,,,,,,5.921093,PASS,
7,s08_terrain_compliance,g000000_c5,0,,,,,,,,,,,30.08386025418844,0.5810742454261235,0.008213273229204133,1.9943243467567526,5.8172,14.2974,21.9215,0.502,2.024,0.123164,245.0314,12.0,12.0,,,,,,4.555993,PASS,
8,s08_terrain_compliance,g000000_c6,0,,,,,,,,,,,0.1,0.09182422144418145,0.04108113261712546,1.211246181202184,3.9661,17.9968,12.5406,0.266,0.4274,0.314115,5.4758,1.312,12.0,,,,,,7.965406,PASS,
9,s08_terrain_compliance,g000000_c7,0,,,,,,,,,,,29.400649138748133,6.547110323888908,0.24776261974598215,5.371229601745096,5.6075,12.612,19.5544,0.358,1.7491,0.238865,330.1855,12.0,12.0,,,,,,4.760629,PASS,
10,s08_terrain_compliance,g000001_c0,1,,,,,,,,,,,0.1,23.19353812784263,0.19921120735592235,4.652264121309638,3.9905,14.5155,13.6908,0.48,0.9503,0.274693,78.3148,12.0,12.0,,,,,,13.28795,PASS,
11,s08_terrain_compliance,g000001_c1,1,,,,,,,,,,,4.570313967666901,1.2368032638031141,0.005459864292381411,0.6489445868646188,4.4846,10.8925,12.8477,0.286,0.3519,0.10298,1.0034,1.282,12.0,,,,,,4.220077,PASS,
12,s08_terrain_compliance,g000001_c2,1,,,,,,,,,,,1.1453644974867265,2.730961739528256,0.06933720198615205,32.22390218166823,4.1018,12.2848,12.9504,0.294,0.4274,0.256642,146.0794,1.276,12.0,,,,,,7.30533,PASS,
13,s08_terrain_compliance,g000001_c3,1,,,,,,,,,,,0.10825694031529123,73.1992603298216,0.0035384836835816503,6.610980854172344,4.3719,17.6676,14.3106,0.46,1.1997,0.28272,139.7661,12.0,12.0,,,,,,16.00881,PASS,
14,s08_terrain_compliance,g000001_c4,1,,,,,,,,,,,0.1580082574520647,0.01,0.13894203932598126,1.315827551922306,4.1862,18.7876,12.5435,1.758,0.4408,0.349887,5.2412,1.304,12.0,,,,,,12.175115,PASS,
15,s08_terrain_compliance,g000001_c5,1,,,,,,,,,,,2.3689858007862483,0.14784472411602373,0.011303158919287655,33.24173702373852,3.8967,17.8288,12.5538,0.318,0.4464,0.296798,339.4518,1.314,12.0,,,,,,4.392443,PASS,
16,s08_terrain_compliance,g000001_c6,1,,,,,,,,,,,8.014609613977822,3.127716363220125,0.021901946774400907,47.76884635139279,3.6717,16.2019,12.7571,0.338,0.8367,0.248289,352.0865,2.846,12.0,,,,,,5.697462,PASS,
17,s08_terrain_compliance,g000001_c7,1,,,,,,,,,,,0.1,1.1082919966389175,0.001,4.726371944943216,4.0822,13.5167,13.0304,0.288,0.5007,0.303901,18.8858,1.348,12.0,,,,,,8.760547,PASS,
18,s08_terrain_compliance,g000002_c0,2,,,,,,,,,,,67.22577157331938,6.316051957681732,0.023252572087166468,0.41206341224362714,3.975,12.8043,13.1789,0.436,0.9022,0.037926,76.6563,12.0,12.0,,,,,,6.478968,PASS,
19,s08_terrain_compliance,g000002_c1,2,,,,,,,,,,,96.45245348895499,0.056775137431245314,0.21868226468785057,0.1377538536149184,4.4494,10.4167,12.7094,0.284,0.2828,0.005377,0.2959,1.272,12.0,,,,,,4.895184,PASS,
20,s08_terrain_compliance,g000002_c2,2,,,,,,,,,,,13.533362958183357,6.080072089679775,0.001,100.0,5.0047,17.6575,17.9184,0.414,1.6482,0.292943,351.1122,12.0,12.0,,,,,,7.316823,PASS,
21,s08_terrain_compliance,g000002_c3,2,,,,,,,,,,,27.267280761694572,0.2989005774483575,1.0857485744190565,1.7286642274870812,6.5042,21.1297,21.6547,0.478,2.0326,0.10157,224.5621,12.0,12.0,,,,,,4.769301,PASS,
22,s08_terrain_compliance,g000002_c4,2,,,,,,,,,,,1.1967031164163544,0.5314667751851605,0.0037341449298111135,0.12661327588597796,4.2345,13.9004,13.0188,0.29,0.439,0.260892,0.3154,1.314,12.0,,,,,,7.469468,PASS,
23,s08_terrain_compliance,g000002_c5,2,,,,,,,,,,,0.13627108545615907,0.22746615484005742,0.43517078345840254,2.02226004097718,4.1555,13.9761,13.0509,0.284,0.4558,0.309134,8.4726,1.318,12.0,,,,,,8.993041,PASS,
24,s08_terrain_compliance,g000002_c6,2,,,,,,,,,,,2.958626516425744,0.9507388907733857,0.001149437502707213,9.123261049948459,4.4649,12.4985,13.1084,0.292,0.4547,0.148926,5.0496,1.292,12.0,,,,,,4.577894,PASS,
25,s08_terrain_compliance,g000002_c7,2,,,,,,,,,,,0.3815435691220123,15.480031793889044,0.0016625787433641496,1.0606122734397185,4.2255,13.555,13.2532,0.398,0.5585,0.184814,3.9099,1.52,12.0,,,,,,9.777841,PASS,
26,s08_terrain_compliance,g000003_c0,3,,,,,,,,,,,1.6484967358662417,0.01,0.005164331260762188,0.137959407037227,4.3623,12.7518,12.8412,0.276,0.3707,0.22259,0.2461,1.284,12.0,,,,,,5.915029,PASS,
27,s08_terrain_compliance,g000003_c1,3,,,,,,,,,,,3.4092488152840534,0.08709840511415219,0.001,7.628471474462009,4.5091,11.2716,12.8104,0.3,0.3546,0.13279,5.1666,1.286,12.0,,,,,,1.124515,PASS,
28,s08_terrain_compliance,g000003_c2,3,,,,,,,,,,,29.90624324690084,0.6433713952203749,0.03464451796946679,3.0075216506256273,8.1929,16.9681,32.9165,0.934,3.121,0.129858,297.5694,12.0,12.0,,,,,,4.128388,PASS,
29,s08_terrain_compliance,g000003_c3,3,,,,,,,,,,,4.449353954555207,3.1154619421567284,0.41123532330616064,27.15983032677037,3.9569,13.8077,13.1242,0.32,0.479,0.264194,349.3878,1.326,12.0,,,,,,6.668901,PASS,
30,s08_terrain_compliance,g000003_c4,3,,,,,,,,,,,96.72368374584123,5.998086968544686,0.18882278915045314,0.46133571617645075,4.4161,16.9416,13.7382,0.456,1.0705,0.04574,85.6437,12.0,12.0,,,,,,7.312767,PASS,
31,s08_terrain_compliance,g000003_c5,3,,,,,,,,,,,5.050567733754659,0.026496711189939494,0.006860529304861864,100.0,4.2365,19.1437,13.0237,0.328,0.5977,0.265488,343.7707,1.03,12.0,,,,,,6.356139,PASS,
32,s08_terrain_compliance,g000003_c6,3,,,,,,,,,,,100.0,1.024202588570588,0.18564095462374983,4.046274144309032,9.2351,22.9099,36.6565,3.262,3.7711,0.136823,302.8711,12.0,12.0,,,,,,6.064094,PASS,
33,s08_terrain_compliance,g000003_c7,3,,,,,,,,,,,3.6520264133576563,0.46777095264883256,0.009289736463322507,2.4390578870174857,4.55,12.2344,13.0395,0.29,0.429,0.125723,1.6846,1.284,12.0,,,,,,2.443055,PASS,
34,s08_terrain_compliance,g000004_c0,4,,,,,,,,,,,2.7234350058356878,0.01669834186718569,0.0013175998991154202,5.603494886421243,4.4402,13.4443,12.9662,0.294,0.4134,0.159232,3.8691,1.278,12.0,,,,,,1.547869,PASS,
35,s08_terrain_compliance,g000004_c1,4,,,,,,,,,,,81.27811640843561,73.14819805459605,0.001,3.015725959083125,5.0217,16.4211,17.3573,0.674,1.602,0.232337,252.7546,12.0,12.0,,,,,,15.04827,PASS,
36,s08_terrain_compliance,g000004_c2,4,,,,,,,,,,,39.15196231606608,0.0797068906564157,0.008789624661327228,4.72213228447935,10.4535,32.001,43.5622,5.38,4.6061,0.191311,296.2274,12.0,12.0,,,,,,23.230319,PASS,
37,s08_terrain_compliance,g000004_c3,4,,,,,,,,,,,6.081873394298758,0.03181232032244875,0.001,100.0,4.2867,18.075,13.2908,0.316,0.6825,0.260586,347.2132,1.186,12.0,,,,,,5.073004,PASS,
38,s08_terrain_compliance,g000004_c4,4,,,,,,,,,,,2.9799835256790224,0.08025168311441512,0.0023094201010451323,100.0,4.012,11.589,12.6965,0.322,0.3316,0.300074,360.3414,1.308,12.0,,,,,,2.713585,PASS,
39,s08_terrain_compliance,g000004_c5,4,,,,,,,,,,,0.14660786708707169,0.4586595366023439,0.0022258478312048927,26.718150315511092,4.1212,13.882,13.0526,0.284,0.4711,0.308042,83.6478,1.326,12.0,,,,,,8.877039,PASS,
40,s08_terrain_compliance,g000004_c6,4,,,,,,,,,,,0.20870641536353277,0.01,0.001,14.355659299979358,4.1375,12.5999,12.944,0.27,0.4127,0.309638,46.6396,1.304,12.0,,,,,,9.171751,PASS,
41,s08_terrain_compliance,g000004_c7,4,,,,,,,,,,,6.5154759842933885,0.01,0.001,8.36882757638333,5.5009,19.9883,14.0755,0.328,0.6968,0.227772,322.3577,12.0,12.0,,,,,,4.998437,PASS,
42,s08_terrain_compliance,g000005_c0,5,,,,,,,,,,,2.233286475575932,0.01,0.001,100.0,4.0718,20.6288,12.5649,0.32,0.4956,0.283348,313.5666,1.286,12.0,,,,,,6.690704,PASS,
43,s08_terrain_compliance,g000005_c1,5,,,,,,,,,,,9.84861605586445,0.14610432122471984,0.00955966467319896,100.0,4.93,15.9212,15.4103,0.412,1.1817,0.248216,352.6614,12.0,12.0,,,,,,4.641931,PASS,
44,s08_terrain_compliance,g000005_c2,5,,,,,,,,,,,0.1,0.26355941714597503,0.001,1.311635242466018,4.1448,13.8261,13.0089,0.286,0.4406,0.3093,5.7001,1.32,12.0,,,,,,8.825934,PASS,
45,s08_terrain_compliance,g000005_c3,5,,,,,,,,,,,1.122914050287295,0.01,0.004480496728216485,2.1129850572984927,4.4515,15.3227,13.008,0.284,0.4429,0.270609,1.891,1.29,12.0,,,,,,4.630253,PASS,
46,s08_terrain_compliance,g000005_c4,5,,,,,,,,,,,1.41042748185242,0.3027399058915144,0.001,0.45650280748799876,4.2196,12.1443,12.913,0.284,0.3942,0.241675,0.7491,1.302,12.0,,,,,,6.215347,PASS,
47,s08_terrain_compliance,g000005_c5,5,,,,,,,,,,,54.50637959884959,0.01,0.001,67.89626154159473,7.3658,16.5359,24.643,0.724,2.334,0.289294,348.9058,12.0,12.0,,,,,,7.106809,PASS,
48,s08_terrain_compliance,g000005_c6,5,,,,,,,,,,,100.0,0.014111260065022937,0.001,5.483966874725025,11.4283,25.9963,40.7053,4.718,4.062,0.206565,305.9601,12.0,12.0,,,,,,10.986598,PASS,
49,s08_terrain_compliance,g000005_c7,5,,,,,,,,,,,7.221894997163387,1.065552408787455,0.001,1.0099487191002772,4.5223,10.4375,12.7806,0.288,0.3325,0.06852,1.1432,1.28,12.0,,,,,,2.571041,PASS,
50,s08_terrain_compliance,g000006_c0,6,,,,,,,,,,,0.13050985558764866,0.01,0.005076508342916542,8.134700832597046,4.168,13.1272,12.9902,0.394,0.4257,0.308171,30.7628,1.304,12.0,,,,,,9.695718,PASS,
51,s08_terrain_compliance,g000006_c1,6,,,,,,,,,,,1.9754274505375258,0.01,0.001,1.5428434350784122,4.5764,14.1201,12.9059,0.29,0.4002,0.199451,1.4322,1.27,12.0,,,,,,2.846586,PASS,
52,s08_terrain_compliance,g000006_c2,6,,,,,,,,,,,0.1,1.4957759081114412,0.001,14.342111159479316,4.078,13.4687,13.0404,0.294,0.5121,0.301296,51.7539,1.288,12.0,,,,,,8.963545,PASS,
53,s08_terrain_compliance,g000006_c3,6,,,,,,,,,,,0.13777803973948868,0.04254144173303645,0.0020212213166195163,2.311678530099102,4.1671,13.4046,13.0181,0.358,0.4355,0.308638,9.7634,1.31,12.0,,,,,,9.065795,PASS,
54,s08_terrain_compliance,g000006_c4,6,,,,,,,,,,,50.15962659311484,0.09052508046477699,0.0489741685764717,49.70994737946808,8.4342,22.2119,26.8326,1.742,2.7038,0.279554,345.5666,12.0,12.0,,,,,,10.821951,PASS,
55,s08_terrain_compliance,g000006_c5,6,,,,,,,,,,,11.960517675745029,0.1567188358456742,0.02439807096749155,14.016807709681231,5.7377,15.1037,18.7871,0.43,1.6343,0.234941,349.3665,12.0,12.0,,,,,,5.065329,PASS,
56,s08_terrain_compliance,g000006_c6,6,,,,,,,,,,,4.810024951304185,0.025066291195459018,0.001,4.016339926486611,4.2423,11.4461,12.6813,0.296,0.2804,0.098542,3.3379,1.282,12.0,,,,,,1.935831,PASS,
57,s08_terrain_compliance,g000006_c7,6,,,,,,,,,,,63.00837439306009,0.061772928272921766,0.001,4.132506317550667,10.7698,24.7444,45.4818,5.14,4.79,0.181904,288.0377,12.0,12.0,,,,,,6.042092,PASS,
58,s08_terrain_compliance,g000007_c0,7,,,,,,,,,,,0.5615860099323223,4.342350228111109,0.001,79.67286010293977,4.0425,12.1085,12.8809,0.288,0.4008,0.282621,250.1589,1.268,12.0,,,,,,8.118003,PASS,
59,s08_terrain_compliance,g000007_c1,7,,,,,,,,,,,73.91475147776363,0.01,0.001,9.867248053825845,11.0272,28.9741,39.5069,2.5,3.9648,0.218207,328.3077,12.0,12.0,,,,,,7.154039,PASS,
60,s08_terrain_compliance,g000007_c2,7,,,,,,,,,,,57.40320211028962,0.036746916984312324,0.001,0.37295683092682635,4.4356,10.3426,12.7119,0.286,0.2798,0.009119,0.4338,1.268,12.0,,,,,,3.530766,PASS,
61,s08_terrain_compliance,g000007_c3,7,,,,,,,,,,,81.956366319755,0.02779248470408804,0.017512531323101033,21.231692245941385,8.9613,25.3018,28.7266,3.528,2.9273,0.249337,337.4666,12.0,12.0,,,,,,17.16822,PASS,
62,s08_terrain_compliance,g000007_c4,7,,,,,,,,,,,1.0183759784629633,0.01144340477146808,0.0011423678370432236,100.0,4.0706,20.4803,12.5493,0.294,0.4379,0.30074,295.461,1.306,12.0,,,,,,6.834984,PASS,
63,s08_terrain_compliance,g000007_c5,7,,,,,,,,,,,48.563847133509825,0.01,0.0037700150360796773,70.98236350064066,7.4124,15.7871,24.4563,2.246,2.3671,0.287029,345.8349,12.0,12.0,,,,,,10.871682,PASS,
64,s08_terrain_compliance,g000007_c6,7,,,,,,,,,,,5.572070096162274,0.5276973591496384,0.001,0.5939254894766111,4.5063,10.3216,12.7882,0.288,0.3313,0.085845,0.8655,1.28,12.0,,,,,,3.066496,PASS,
65,s08_terrain_compliance,g000007_c7,7,,,,,,,,,,,0.23409301235044466,0.3847490969662612,0.008198459767724224,71.01854864622192,3.8754,16.9144,12.5454,0.28,0.4294,0.310199,130.2338,1.324,12.0,,,,,,7.807723,PASS,
66,s08_terrain_compliance,g000008_c0,8,,,,,,,,,,,18.602230593268008,0.13328054947159143,0.001,82.31212263490437,7.3922,17.2888,25.8355,0.592,2.3533,0.281249,346.9154,12.0,12.0,,,,,,8.341257,PASS,
67,s08_terrain_compliance,g000008_c1,8,,,,,,,,,,,100.0,29.425120915348142,0.001,100.0,6.3961,16.2329,22.7499,0.628,2.1046,0.297226,342.9051,12.0,12.0,,,,,,19.987719,PASS,
68,s08_terrain_compliance,g000008_c2,8,,,,,,,,,,,0.5281746695682517,0.056159987527925725,0.0204464818735332,4.564845512101282,4.1225,12.6892,12.9409,0.272,0.4156,0.309131,11.0336,1.316,12.0,,,,,,8.479233,PASS,
69,s08_terrain_compliance,g000008_c3,8,,,,,,,,,,,0.18807769297294732,8.56928732629113,0.001,0.6308336781578432,4.1144,10.9339,12.718,0.282,0.3359,0.24892,1.9567,1.266,12.0,,,,,,8.388107,PASS,
70,s08_terrain_compliance,g000008_c4,8,,,,,,,,,,,100.0,0.05429378356568904,0.0015167952882960082,44.89792589939977,9.9187,24.2018,30.7654,1.206,3.2123,0.28717,343.0189,12.0,12.0,,,,,,15.614432,PASS,
71,s08_terrain_compliance,g000008_c5,8,,,,,,,,,,,22.68147849565966,0.3454419752224837,0.001,63.248869775551306,8.2799,19.5872,27.7767,0.444,2.5986,0.276025,347.3272,12.0,12.0,,,,,,5.578482,PASS,
72,s08_terrain_compliance,g000008_c6,8,,,,,,,,,,,12.961934317346996,1.0653047998585194,0.001,57.7384108540062,5.1703,13.2879,18.2117,0.422,1.5905,0.257429,352.5516,12.0,12.0,,,,,,6.472727,PASS,
73,s08_terrain_compliance,g000008_c7,8,,,,,,,,,,,16.947009954178668,0.09146634871979505,0.09562246103391223,0.4078506060380417,4.5332,10.3289,12.7596,0.292,0.3018,0.029848,0.4616,1.276,12.0,,,,,,3.119391,PASS,
74,s08_terrain_compliance,g000009_c0,9,,,,,,,,,,,0.15566014425480446,0.01,0.0042190235106529216,0.6151777356071746,4.2005,13.592,12.9942,0.394,0.428,0.308187,2.7658,1.308,12.0,,,,,,9.422071,PASS,
75,s08_terrain_compliance,g000009_c1,9,,,,,,,,,,,0.1,0.024202782310517635,0.001,11.727192785732411,4.1653,13.1676,13.0048,0.364,0.4309,0.308727,42.4552,1.302,12.0,,,,,,9.133577,PASS,
76,s08_terrain_compliance,g000009_c2,9,,,,,,,,,,,17.30053241132803,0.01,0.08327022638977749,9.605665178755372,8.1978,18.0838,31.7572,1.512,3.093,0.221325,337.2906,12.0,12.0,,,,,,9.344155,PASS,
77,s08_terrain_compliance,g000009_c3,9,,,,,,,,,,,2.068046284305816,0.05142135465973167,0.01808511264553555,100.0,4.0,19.5425,12.5496,0.316,0.4556,0.28328,306.6324,1.312,12.0,,,,,,6.187524,PASS,
78,s08_terrain_compliance,g000009_c4,9,,,,,,,,,,,8.804382883766417,0.017476078057396795,0.0010074845855178787,27.4009739475375,5.2835,16.925,15.8934,0.45,1.1217,0.242838,341.2179,12.0,12.0,,,,,,6.631164,PASS,
79,s08_terrain_compliance,g000009_c5,9,,,,,,,,,,,2.962944921642985,5.159749950056142,0.004264330172255873,100.0,4.0427,13.2489,13.0215,0.312,0.4717,0.279673,356.4521,1.298,12.0,,,,,,7.718828,PASS,
80,s08_terrain_compliance,g000009_c6,9,,,,,,,,,,,2.4249089542032385,0.5506160465978481,0.001,0.3153553050630767,4.3286,11.3112,12.864,0.288,0.368,0.171204,0.6142,1.296,12.0,,,,,,5.430129,PASS,
81,s08_terrain_compliance,g000009_c7,9,,,,,,,,,,,31.318409637223958,0.5949826207183307,0.001,100.0,7.8112,16.9368,24.8379,0.488,2.2799,0.287072,348.8868,12.0,12.0,,,,,,6.62858,PASS,
82,s08_terrain_compliance,g000010_c0,10,,,,,,,,,,,9.094270132841238,0.024500708500375595,0.001,6.275526429533815,5.6715,20.6349,17.2368,0.376,1.3145,0.21105,319.2805,12.0,12.0,,,,,,5.724687,PASS,
83,s08_terrain_compliance,g000010_c1,10,,,,,,,,,,,1.458142797640986,0.16816361682079786,0.004076670571704617,100.0,3.9882,18.5535,12.5499,0.302,0.4189,0.279052,260.608,1.318,12.0,,,,,,6.123736,PASS,
84,s08_terrain_compliance,g000010_c2,10,,,,,,,,,,,0.6012827077001601,0.5186421883526945,0.001,0.44540333792823733,4.1099,13.6421,13.0207,0.294,0.4539,0.305529,1.3101,1.338,12.0,,,,,,8.678522,PASS,
85,s08_terrain_compliance,g000010_c3,10,,,,,,,,,,,1.2632928895280697,0.9055736998713708,0.001,2.7003638591334442,4.2408,13.488,13.0856,0.294,0.4648,0.252632,2.4853,1.302,12.0,,,,,,6.800072,PASS,
86,s08_terrain_compliance,g000010_c4,10,,,,,,,,,,,0.1,1.8015188600625147,0.013533326019159282,6.954542293962482,4.0976,13.6115,13.0587,0.296,0.5312,0.299236,26.3524,1.28,12.0,,,,,,8.929089,PASS,
87,s08_terrain_compliance,g000010_c5,10,,,,,,,,,,,0.17113666002213404,0.6713469641377203,0.0016503079137495252,1.6011491537345288,4.1007,13.6982,13.0355,0.29,0.4828,0.3066,6.6595,1.338,12.0,,,,,,8.841018,PASS,
88,s08_terrain_compliance,g000010_c6,10,,,,,,,,,,,0.13535541244506658,0.036713172744062945,0.001,100.0,4.1824,13.5561,13.0401,0.382,0.4443,0.308401,123.1216,1.31,12.0,,,,,,9.487224,PASS,
89,s08_terrain_compliance,g000010_c7,10,,,,,,,,,,,3.4077023834767557,2.43254017989363,0.001,25.097306062518417,3.7217,14.8252,12.6503,0.326,0.4099,0.283315,356.8972,1.324,12.0,,,,,,6.237238,PASS,
90,s08_terrain_compliance,g000011_c0,11,,,,,,,,,,,1.4061175492122746,0.15432552958082596,0.001,7.5598978057370525,4.3691,13.5881,13.1395,0.288,0.4825,0.243438,2.6066,1.3,12.0,,,,,,4.162616,PASS,
91,s08_terrain_compliance,g000011_c1,11,,,,,,,,,,,3.433196838403325,0.8216996308090377,0.019603400450221707,100.0,3.7634,15.7345,12.5664,0.328,0.4235,0.285784,350.5632,1.332,12.0,,,,,,4.92663,PASS,
92,s08_terrain_compliance,g000011_c2,11,,,,,,,,,,,8.527431714228262,0.023532375221221286,0.016386006482446647,46.052759627290165,5.8078,18.2303,15.9161,0.418,1.1192,0.247175,346.1191,12.0,12.0,,,,,,5.787381,PASS,
93,s08_terrain_compliance,g000011_c3,11,,,,,,,,,,,4.94647834646653,4.472755981428194,0.001,8.678587006267506,3.5809,14.1219,12.7835,0.322,0.4025,0.239196,329.1089,1.322,12.0,,,,,,5.333008,PASS,
94,s08_terrain_compliance,g000011_c4,11,,,,,,,,,,,0.5907665649924989,0.01,0.001,7.8461892690069615,4.0303,19.4982,12.5384,0.278,0.4222,0.311143,13.8768,1.31,12.0,,,,,,7.525454,PASS,
95,s08_terrain_compliance,g000011_c5,11,,,,,,,,,,,1.7830959840747613,0.017602733565122198,0.001,11.54841719296539,4.5004,13.2606,13.0675,0.292,0.4605,0.213334,6.194,1.28,12.0,,,,,,2.35622,PASS,
96,s08_terrain_compliance,g000011_c6,11,,,,,,,,,,,0.2117481470198996,0.0555846358243772,0.001,48.56432345751582,4.1782,13.5805,13.0095,0.274,0.4351,0.309554,96.1806,1.314,12.0,,,,,,9.162014,PASS,
97,s08_terrain_compliance,g000011_c7,11,,,,,,,,,,,2.4051653967075715,0.05696218231060958,0.001,6.434591903217794,4.4079,14.2107,12.9976,0.294,0.4258,0.174286,4.3972,1.28,12.0,,,,,,1.778535,PASS,
98,s08_terrain_compliance,g000012_c0,12,,,,,,,,,,,5.385439858846243,0.02601371836326778,0.001,10.187054422191679,4.5985,19.1817,13.3205,0.334,0.5985,0.240726,327.9449,12.0,12.0,,,,,,4.791898,PASS,
99,s08_terrain_compliance,g000012_c1,12,,,,,,,,,,,1.3871136656370502,0.03249634170445159,0.0031156876794550654,13.771929014527675,4.4976,15.0742,13.0968,0.288,0.4696,0.245909,5.9168,1.296,12.0,,,,,,3.371185,PASS,
100,s08_terrain_compliance,g000012_c2,12,,,,,,,,,,,24.221928348369154,0.13632518284526113,0.001,100.0,8.1628,18.1645,27.3191,0.808,2.581,0.279844,347.1292,12.0,12.0,,,,,,8.031158,PASS,
101,s08_terrain_compliance,g000012_c3,12,,,,,,,,,,,3.7392072503437466,0.12003939884381484,0.001,9.359266934848042,4.6488,12.7906,12.883,0.3,0.3792,0.128045,137.574,1.284,12.0,,,,,,1.778372,PASS,
102,s08_terrain_compliance,g000012_c4,12,,,,,,,,,,,5.541917060295879,0.03350210310610526,0.001,19.563123935755208,4.0327,19.0674,12.9902,0.33,0.4306,0.26066,352.0818,1.074,12.0,,,,,,3.287498,PASS,
103,s08_terrain_compliance,g000012_c5,12,,,,,,,,,,,30.294252565074828,0.0490572619420693,0.001,4.564393382487412,9.5299,24.0119,42.1596,3.89,4.6539,0.202733,306.8702,12.0,12.0,,,,,,5.644482,PASS,
104,s08_terrain_compliance,g000012_c6,12,,,,,,,,,,,3.3519718383556745,0.21384223154520282,0.001,26.53537934709647,3.8811,17.249,12.5597,0.326,0.4604,0.283805,346.9199,1.318,12.0,,,,,,4.315413,PASS,
105,s08_terrain_compliance,g000012_c7,12,,,,,,,,,,,7.974153837078762,0.05042330899608066,0.001,0.11026130236598872,4.522,11.1124,12.7428,0.28,0.2991,0.062274,0.1816,1.278,12.0,,,,,,5.052082,PASS,
106,s08_terrain_compliance,g000013_c0,13,,,,,,,,,,,2.352371953717665,0.17415313832130422,0.00499939905957242,10.486240578154678,4.5412,13.6569,13.1563,0.294,0.4813,0.176829,6.3208,1.288,12.0,,,,,,3.299732,PASS,
107,s08_terrain_compliance,g000013_c1,13,,,,,,,,,,,2.7435465601364855,0.326640657994529,0.001,36.08609877501927,3.82,16.1681,12.5391,0.316,0.4212,0.297963,350.4623,1.318,12.0,,,,,,3.872052,PASS,
108,s08_terrain_compliance,g000013_c2,13,,,,,,,,,,,13.111038441958582,0.11336826952435353,0.001,5.776732645008823,6.1737,12.9734,20.1872,0.478,1.8643,0.227305,342.3524,12.0,12.0,,,,,,4.291133,PASS,
109,s08_terrain_compliance,g000013_c3,13,,,,,,,,,,,14.303914212112504,0.019351875570461828,0.0014492948310592397,28.259416040630814,6.959,20.8051,23.9716,2.046,2.1962,0.244667,330.3954,12.0,12.0,,,,,,26.212444,PASS,
110,s08_terrain_compliance,g000013_c4,13,,,,,,,,,,,3.493427404099552,0.13491426954998642,0.001,6.710356110665026,4.6685,13.4171,12.9627,0.3,0.4096,0.130186,5.2512,1.282,12.0,,,,,,2.04252,PASS,
111,s08_terrain_compliance,g000013_c5,13,,,,,,,,,,,3.272609429521316,0.042592354798016825,0.001435549214277891,85.04207757046628,4.0187,20.0764,12.6389,0.326,0.5316,0.282418,339.2657,1.268,12.0,,,,,,6.677484,PASS,
112,s08_terrain_compliance,g000013_c6,13,,,,,,,,,,,11.80590103208795,0.03558802458359969,0.001,7.841982904344612,5.8451,16.3014,18.9153,0.522,1.6044,0.222983,337.4931,12.0,12.0,,,,,,5.576158,PASS,
113,s08_terrain_compliance,g000013_c7,13,,,,,,,,,,,13.653931921142755,0.05935795716032603,0.001,4.833022405959715,5.9023,14.6337,20.4753,0.72,1.7543,0.216263,330.9997,12.0,12.0,,,,,,7.791172,PASS,
114,s08_terrain_compliance,g000014_c0,14,,,,,,,,,,,1.7210215153698067,0.23536259492170172,0.0025122534841280505,5.288503237750067,4.4381,13.7196,13.1731,0.292,0.4886,0.21686,2.3414,1.298,12.0,,,,,,3.796312,PASS,
115,s08_terrain_compliance,g000014_c1,14,,,,,,,,,,,2.409930345815476,0.022679775475913523,0.002533535252910287,8.552647896864801,4.195,16.972,12.7389,0.298,0.3696,0.174082,4.0636,1.272,12.0,,,,,,1.708785,PASS,
116,s08_terrain_compliance,g000014_c2,14,,,,,,,,,,,0.8772066878668613,0.28411336613935356,0.001,7.491294988440428,4.0812,12.253,12.8863,0.284,0.3928,0.297795,4.48,1.312,12.0,,,,,,7.60677,PASS,
117,s08_terrain_compliance,g000014_c3,14,,,,,,,,,,,6.05380896019605,0.016508785024415107,0.001,17.306115189606423,5.0354,20.0908,14.1055,0.322,0.5683,0.248653,340.3258,12.0,12.0,,,,,,5.09109,PASS,
118,s08_terrain_compliance,g000014_c4,14,,,,,,,,,,,3.4987444787716013,0.15566090180665432,0.001,15.600645053725232,3.9563,17.2556,12.5993,0.322,0.4387,0.254815,309.4053,1.29,12.0,,,,,,3.451623,PASS,
119,s08_terrain_compliance,g000014_c5,14,,,,,,,,,,,3.243939420624332,0.09028018301309156,0.0011442748273096074,12.543254210083447,4.4484,15.1607,13.0522,0.304,0.453,0.163038,177.8778,1.288,12.0,,,,,,1.714379,PASS,
120,s08_terrain_compliance,g000014_c6,14,,,,,,,,,,,6.8709741301230975,0.05505199081296429,0.0022915707072764194,18.125174668545885,4.181,19.2139,13.5906,0.346,0.5724,0.253823,352.5723,1.226,12.0,,,,,,3.658407,PASS,
121,s08_terrain_compliance,g000014_c7,14,,,,,,,,,,,1.3565577478615758,0.48556585593449575,0.001,5.395288609195786,4.303,13.7112,13.1497,0.292,0.4795,0.246173,2.9515,1.308,12.0,,,,,,5.945961,PASS,
122,s08_terrain_compliance,g000015_c0,15,,,,,,,,,,,0.963104059198786,0.11075980522295438,0.0029886000126051887,4.397137979407439,4.2526,13.8679,12.94,0.282,0.4167,0.289824,2.0538,1.31,12.0,,,,,,6.492568,PASS,
123,s08_terrain_compliance,g000015_c1,15,,,,,,,,,,,3.6186195725723778,0.1016590651742628,0.001,4.985874053970578,4.6717,13.0812,12.9101,0.296,0.3908,0.126354,3.7461,1.284,12.0,,,,,,1.57438,PASS,
124,s08_terrain_compliance,g000015_c2,15,,,,,,,,,,,2.083520810844713,0.043841341935459646,0.0011320161613215356,33.01368845181782,3.9497,18.6127,12.5449,0.308,0.4352,0.280762,305.2509,1.3,12.0,,,,,,5.117606,PASS,
125,s08_terrain_compliance,g000015_c3,15,,,,,,,,,,,5.973680418770398,0.09903787829806227,0.001,3.2489046122479754,4.1794,11.4116,12.6449,0.296,0.2719,0.080618,2.3007,1.28,12.0,,,,,,1.258304,PASS,
126,s08_terrain_compliance,g000015_c4,15,,,,,,,,,,,4.020295361194181,0.10108651426765188,0.001,8.636820355623119,4.4995,11.1519,12.785,0.302,0.3464,0.120883,141.3887,1.282,12.0,,,,,,1.225166,PASS,
127,s08_terrain_compliance,g000015_c5,15,,,,,,,,,,,3.6499955686550787,0.0859999986059678,0.001,9.0522262615969,4.4019,10.9293,12.7532,0.298,0.3348,0.125336,5.984,1.284,12.0,,,,,,1.385236,PASS,
128,s08_terrain_compliance,g000015_c6,15,,,,,,,,,,,6.59026136077679,0.06356885322742832,0.001,2.7264465910701934,4.3345,11.1504,12.7026,0.294,0.2833,0.074087,2.0529,1.28,12.0,,,,,,1.791037,PASS,
129,s08_terrain_compliance,g000015_c7,15,,,,,,,,,,,3.832716908187394,0.08591629720406802,0.001,7.428478268434493,4.7236,13.7388,12.962,0.298,0.4105,0.120609,4.834,1.282,12.0,,,,,,1.905318,PASS,
130,s08_terrain_compliance,g000016_c0,16,,,,,,,,,,,3.44037358805268,0.07792379404089278,0.0024367179451200266,5.884488058798271,4.5347,11.4664,12.8285,0.298,0.3626,0.131761,4.1636,1.288,12.0,,,,,,1.211382,PASS,
131,s08_terrain_compliance,g000016_c1,16,,,,,,,,,,,2.9836246523245418,0.10482115940831974,0.001,3.9951975862882794,4.6237,13.2458,12.9083,0.296,0.392,0.147746,2.8845,1.288,12.0,,,,,,1.844772,PASS,
132,s08_terrain_compliance,g000016_c2,16,,,,,,,,,,,2.8443274039374793,0.21355223318949568,0.001,2.132657027522208,4.5557,12.7939,12.985,0.294,0.4177,0.153071,1.7631,1.288,12.0,,,,,,2.417855,PASS,
133,s08_terrain_compliance,g000016_c3,16,,,,,,,,,,,8.5175517724618,0.057775396887198,0.001,4.153577881329537,4.7674,20.5438,13.9162,0.328,0.7936,0.106932,194.0136,1.31,12.0,,,,,,3.043214,PASS,
134,s08_terrain_compliance,g000016_c4,16,,,,,,,,,,,4.069398906199232,0.05269681987131244,0.001,5.252484342407799,4.4207,11.2053,12.7445,0.298,0.3254,0.114206,4.2653,1.288,12.0,,,,,,1.627736,PASS,
135,s08_terrain_compliance,g000016_c5,16,,,,,,,,,,,3.846648213031128,0.45303160443540386,0.001,7.869671882854399,4.5788,12.4648,13.0677,0.3,0.4391,0.120528,6.6192,1.286,12.0,,,,,,2.827805,PASS,
136,s08_terrain_compliance,g000016_c6,16,,,,,,,,,,,2.843346032192999,0.11792055940863261,0.002060249424220182,11.438882130376648,4.6379,14.2427,12.987,0.3,0.4215,0.153612,11.4464,1.286,12.0,,,,,,2.899479,PASS,
137,s08_terrain_compliance,g000016_c7,16,,,,,,,,,,,4.483981841813087,0.12547398707877327,0.0013002654932430379,6.71854664493784,4.5832,11.6715,12.8034,0.3,0.3527,0.104965,6.2179,1.282,12.0,,,,,,1.090478,PASS,
138,s08_terrain_compliance,g000017_c0,17,,,,,,,,,,,1.258089138788794,0.12775366846235592,0.001,6.655459398962576,4.3517,13.824,13.112,0.286,0.4755,0.257731,3.2568,1.302,12.0,,,,,,4.603322,PASS,
139,s08_terrain_compliance,g000017_c1,17,,,,,,,,,,,3.3628468207805056,0.09816910294795927,0.0010663656391059779,7.092387710922526,4.4064,10.8461,12.7646,0.298,0.3419,0.134201,4.831,1.286,12.0,,,,,,1.395766,PASS,
140,s08_terrain_compliance,g000017_c2,17,,,,,,,,,,,5.288678521419064,0.11971202883899248,0.001,9.47349600057356,3.9554,18.807,13.1027,0.344,0.5599,0.235935,317.6126,1.306,12.0,,,,,,3.854627,PASS,
141,s08_terrain_compliance,g000017_c3,17,,,,,,,,,,,3.6243038375864196,0.20786734857295877,0.001254913278274663,3.7216551031001854,4.656,12.9949,12.9497,0.3,0.4035,0.12607,2.7772,1.284,12.0,,,,,,1.667514,PASS,
142,s08_terrain_compliance,g000017_c4,17,,,,,,,,,,,8.011637808751566,0.10665358931802706,0.001,7.493536291358108,3.9824,16.8938,13.3005,0.334,0.6677,0.229613,335.7532,1.242,12.0,,,,,,3.695345,PASS,
143,s08_terrain_compliance,g000017_c5,17,,,,,,,,,,,3.7262875223743928,0.1695069123864324,0.00195237625900472,3.2754149612145262,4.6557,12.7735,12.9515,0.296,0.4029,0.123105,2.7117,1.282,12.0,,,,,,1.681014,PASS,
144,s08_terrain_compliance,g000017_c6,17,,,,,,,,,,,3.587033111807503,0.04507172718536885,0.001,7.218837243854459,4.6193,12.0101,12.839,0.298,0.362,0.127586,6.1802,1.288,12.0,,,,,,1.372426,PASS,
145,s08_terrain_compliance,g000017_c7,17,,,,,,,,,,,4.524138450014694,0.058969089377858504,0.001622425638553529,7.8799528523972935,4.5873,14.5962,13.0102,0.302,0.4298,0.117189,155.8529,1.288,12.0,,,,,,1.383731,PASS,
146,s08_terrain_compliance,g000018_c0,18,,,,,,,,,,,6.190378524140899,0.17539915212017804,0.001317428916838982,9.999375640080126,3.8541,16.69,12.8917,0.334,0.5053,0.240254,335.5499,1.206,12.0,,,,,,4.959956,PASS,
147,s08_terrain_compliance,g000018_c1,18,,,,,,,,,,,3.987401796601282,0.14444434572593923,0.0011208075072552622,7.250700822370335,4.4695,11.072,12.7809,0.298,0.3448,0.116206,5.2011,1.282,12.0,,,,,,1.225975,PASS,
148,s08_terrain_compliance,g000018_c2,18,,,,,,,,,,,8.098431001305876,0.23564118476751686,0.001635190602710531,6.520845876707775,4.0205,14.6335,13.1472,0.334,0.5102,0.221799,327.0853,1.216,12.0,,,,,,3.934102,PASS,
149,s08_terrain_compliance,g000018_c3,18,,,,,,,,,,,4.24067622253967,0.08408010022772835,0.0011243687746719563,6.036670342808863,4.6196,11.5831,12.8413,0.3,0.3616,0.110429,5.0105,1.282,12.0,,,,,,1.140579,PASS,
150,s08_terrain_compliance,g000018_c4,18,,,,,,,,,,,4.948149434581013,0.11223340879699406,0.001,12.844885784025378,3.9669,17.565,12.8013,0.338,0.5126,0.252528,336.2147,1.218,12.0,,,,,,4.576172,PASS,
151,s08_terrain_compliance,g000018_c5,18,,,,,,,,,,,4.721265962401356,0.17651719783914255,0.0029623509139736375,7.424770476252193,4.5721,11.8943,12.8293,0.306,0.3618,0.11143,153.0513,1.268,12.0,,,,,,1.199619,PASS,
152,s08_terrain_compliance,g000018_c6,18,,,,,,,,,,,5.721380137845855,0.052327101689688224,0.001512101274139276,3.051018549950155,4.6063,11.2523,12.7671,0.296,0.3253,0.084829,2.3968,1.274,12.0,,,,,,1.495511,PASS,
153,s08_terrain_compliance,g000018_c7,18,,,,,,,,,,,6.702446347791034,0.17397739464244905,0.0012466443398813582,8.025405855277665,3.9386,19.2464,12.8337,0.32,0.6085,0.225005,322.8427,1.22,12.0,,,,,,6.128158,PASS,
154,s08_terrain_compliance,g000019_c0,19,,,,,,,,,,,6.676220027989,0.1121494018015426,0.001,6.536173822547599,4.0464,18.7684,13.1565,0.34,0.5847,0.180466,266.4296,1.258,12.0,,,,,,4.388524,PASS,
155,s08_terrain_compliance,g000019_c1,19,,,,,,,,,,,3.1081786190615097,0.09201635941974158,0.0010321217606927158,3.9929906736949508,4.5343,11.917,12.8317,0.296,0.3644,0.142979,3.0763,1.286,12.0,,,,,,1.425475,PASS,
156,s08_terrain_compliance,g000019_c2,19,,,,,,,,,,,4.436978822704885,0.16413340523725709,0.0024937403335494987,6.508409735873033,4.6794,12.3865,12.8717,0.3,0.3726,0.106036,4.9787,1.282,12.0,,,,,,1.260816,PASS,
157,s08_terrain_compliance,g000019_c3,19,,,,,,,,,,,5.1635114991284965,0.1966691729048457,0.0013969475153457853,5.90555781262005,4.5791,11.519,12.7918,0.298,0.3458,0.092476,5.2112,1.276,12.0,,,,,,1.173824,PASS,
158,s08_terrain_compliance,g000019_c4,19,,,,,,,,,,,4.377407921750116,0.07280906732722368,0.0014114041081310623,9.497868945485674,4.3185,19.0529,12.8889,0.31,0.4491,0.149105,195.4203,1.28,12.0,,,,,,2.550519,PASS,
159,s08_terrain_compliance,g000019_c5,19,,,,,,,,,,,4.1476661020277,0.19565712989330344,0.0012619353212293062,4.9049294379572554,4.6096,12.1326,12.8481,0.298,0.3671,0.112322,3.857,1.282,12.0,,,,,,1.211245,PASS,
160,s08_terrain_compliance,g000019_c6,19,,,,,,,,,,,3.782303941217717,0.13042505342874866,0.002458579464232935,7.120337309412377,4.5184,11.5004,12.7985,0.298,0.3519,0.121595,4.9163,1.284,12.0,,,,,,1.075646,PASS,
161,s08_terrain_compliance,g000019_c7,19,,,,,,,,,,,5.45147129116946,0.10833737208178053,0.0020114376951446723,3.824883845087624,4.6573,11.6585,12.8083,0.302,0.3486,0.088253,3.4127,1.28,12.0,,,,,,1.226299,PASS,
162,s08_terrain_compliance,g000020_c0,20,,,,,,,,,,,3.561429901405991,0.12114176668738513,0.002469307939730962,13.78245373035791,4.1289,18.4619,12.6958,0.318,0.4451,0.205451,244.2505,1.284,12.0,,,,,,3.022868,PASS,
163,s08_terrain_compliance,g000020_c1,20,,,,,,,,,,,4.633620146423312,0.1151760220370806,0.003289104413835919,7.561930510750982,4.7054,12.9037,12.9047,0.302,0.387,0.112651,151.7867,1.262,12.0,,,,,,1.514828,PASS,
164,s08_terrain_compliance,g000020_c2,20,,,,,,,,,,,4.8912305180558855,0.07003020959701052,0.002742081824663061,5.080845145466168,4.541,11.1365,12.7683,0.298,0.3291,0.09728,4.1419,1.282,12.0,,,,,,1.397026,PASS,
165,s08_terrain_compliance,g000020_c3,20,,,,,,,,,,,3.496879937542937,0.13305982608206193,0.002122906974132209,4.710714347444441,4.6424,12.8648,12.8989,0.296,0.3874,0.12992,3.591,1.282,12.0,,,,,,1.638183,PASS,
166,s08_terrain_compliance,g000020_c4,20,,,,,,,,,,,4.407082681255843,0.10649660431514002,0.0024905891558897365,5.554009629278534,4.4185,10.8959,12.7387,0.296,0.3227,0.106399,4.505,1.28,12.0,,,,,,1.592067,PASS,
167,s08_terrain_compliance,g000020_c5,20,,,,,,,,,,,5.496322746427541,0.16739329622356963,0.001352737483663212,5.396699898309166,4.7023,12.032,12.8586,0.296,0.3633,0.087555,5.7056,1.28,12.0,,,,,,1.099177,PASS,
168,s08_terrain_compliance,g000020_c6,20,,,,,,,,,,,2.4123677897212112,0.18273135948241645,0.001936892995185228,6.06015335518245,4.5788,14.2562,13.0618,0.298,0.4479,0.1735,4.2927,1.29,12.0,,,,,,3.356162,PASS,
169,s08_terrain_compliance,g000020_c7,20,,,,,,,,,,,3.496861680411616,0.09718038898575564,0.002081896139195533,8.212747169264144,4.6653,13.3354,12.991,0.298,0.4213,0.130159,5.5103,1.284,12.0,,,,,,2.131954,PASS,
170,s08_terrain_compliance,g000021_c0,21,,,,,,,,,,,4.119648822102643,0.20479450072718738,0.0025377240208174666,7.539514333622123,4.67,12.745,12.9112,0.302,0.389,0.1132,5.3618,1.28,12.0,,,,,,1.544243,PASS,
171,s08_terrain_compliance,g000021_c1,21,,,,,,,,,,,3.373010809417013,0.09849248675030647,0.002148943296463473,10.627946363524993,4.6257,13.0022,13.046,0.3,0.4428,0.140012,135.8585,1.288,12.0,,,,,,2.408361,PASS,
172,s08_terrain_compliance,g000021_c2,21,,,,,,,,,,,3.082709502760999,0.10952200660325259,0.0015769843391918602,8.673339939147823,4.3168,16.0927,12.9229,0.296,0.4033,0.144463,6.3393,1.286,12.0,,,,,,1.329345,PASS,
173,s08_terrain_compliance,g000021_c3,21,,,,,,,,,,,3.426657059565771,0.15435274603223367,0.00216579728394076,7.9521368753375805,4.4638,11.513,12.7869,0.3,0.3507,0.132141,5.3257,1.284,12.0,,,,,,1.090816,PASS,
174,s08_terrain_compliance,g000021_c4,21,,,,,,,,,,,4.822900584944874,0.14344120327624424,0.0025242146209578163,5.769196141475389,4.5086,10.8219,12.7704,0.302,0.336,0.098302,4.6249,1.28,12.0,,,,,,1.385458,PASS,
175,s08_terrain_compliance,g000021_c5,21,,,,,,,,,,,2.3283266223848975,0.18747512559819435,0.003257758935421912,7.470311140251465,4.5802,14.5259,13.1093,0.296,0.4645,0.177947,4.9547,1.288,12.0,,,,,,3.622318,PASS,
176,s08_terrain_compliance,g000021_c6,21,,,,,,,,,,,2.860134088711029,0.14527061496679627,0.002519856019563045,8.701180367147456,4.586,13.487,12.9483,0.3,0.4054,0.152805,5.207,1.286,12.0,,,,,,2.561991,PASS,
177,s08_terrain_compliance,g000021_c7,21,,,,,,,,,,,4.248922718958701,0.1336889938229904,0.00193022402320267,10.060290003912952,4.2655,18.5328,12.8449,0.312,0.436,0.157602,202.9509,1.284,12.0,,,,,,2.524789,PASS,
178,s08_terrain_compliance,g000022_c0,22,,,,,,,,,,,3.6716648339222626,0.13996082671590063,0.0028436989246372574,5.703496898915806,4.6703,13.1966,13.0059,0.296,0.4242,0.12483,4.3708,1.286,12.0,,,,,,1.99623,PASS,
179,s08_terrain_compliance,g000022_c1,22,,,,,,,,,,,3.725718418670677,0.16076513264618095,0.001909284174690988,7.08530372194217,4.6547,12.864,12.8949,0.3,0.3833,0.123291,4.8351,1.282,12.0,,,,,,1.698494,PASS,
180,s08_terrain_compliance,g000022_c2,22,,,,,,,,,,,3.022774847023552,0.1385743203357407,0.002365678014868069,6.536687726834587,4.5713,12.6671,13.083,0.296,0.4538,0.14644,4.2599,1.284,12.0,,,,,,2.050947,PASS,
181,s08_terrain_compliance,g000022_c3,22,,,,,,,,,,,4.389292087720835,0.1279119720997774,0.0021892908186411228,9.226161237010992,4.3369,17.9589,12.9536,0.31,0.4341,0.143377,189.1859,1.284,12.0,,,,,,1.777606,PASS,
182,s08_terrain_compliance,g000022_c4,22,,,,,,,,,,,4.06534745619837,0.1404749173860582,0.002538862965658686,5.284026216014077,4.5601,11.8024,12.8118,0.3,0.3573,0.114272,4.2175,1.282,12.0,,,,,,1.14554,PASS,
183,s08_terrain_compliance,g000022_c5,22,,,,,,,,,,,4.607263567335412,0.10434531052100127,0.0033623233677416804,8.052107347475264,4.6651,13.9231,13.0885,0.306,0.4575,0.123757,170.322,1.282,12.0,,,,,,1.705567,PASS,
184,s08_terrain_compliance,g000022_c6,22,,,,,,,,,,,3.7587669561909647,0.14191997353872698,0.0024358714990855867,7.703281821735782,4.5697,11.8196,12.8508,0.3,0.3689,0.122326,4.8133,1.284,12.0,,,,,,1.216767,PASS,
185,s08_terrain_compliance,g000022_c7,22,,,,,,,,,,,3.743333677120265,0.12402312995165983,0.0026376064506598547,9.68647369782749,4.502,11.4932,12.7892,0.302,0.3487,0.132809,155.1837,1.286,12.0,,,,,,1.138469,PASS,
186,s08_terrain_compliance,g000023_c0,23,,,,,,,,,,,3.782477722036909,0.13265949808446265,0.0025606820604140326,8.486980813804392,4.4773,11.2766,12.7827,0.3,0.3478,0.121641,6.0547,1.286,12.0,,,,,,1.089438,PASS,
187,s08_terrain_compliance,g000023_c1,23,,,,,,,,,,,3.5743382014004936,0.1183200362677776,0.0021262241837147386,7.661584405382298,4.6745,13.3297,12.9163,0.3,0.3941,0.127733,5.7334,1.284,12.0,,,,,,1.856813,PASS,
188,s08_terrain_compliance,g000023_c2,23,,,,,,,,,,,4.009799925519582,0.11137651625394893,0.002770605834436354,7.090701794175066,4.6865,13.0219,12.9748,0.298,0.4129,0.115958,5.6606,1.286,12.0,,,,,,1.83597,PASS,
189,s08_terrain_compliance,g000023_c3,23,,,,,,,,,,,3.016558400369751,0.11877022563506602,0.0028146975105234995,8.320481704417539,4.4757,11.6717,12.8467,0.3,0.3678,0.146571,5.5579,1.286,12.0,,,,,,1.597283,PASS,
190,s08_terrain_compliance,g000023_c4,23,,,,,,,,,,,4.514653856331073,0.1157188632553711,0.002597264352455671,7.28490626481852,4.5684,11.3966,12.7997,0.298,0.3486,0.10434,6.7377,1.278,12.0,,,,,,1.097595,PASS,
191,s08_terrain_compliance,g000023_c5,23,,,,,,,,,,,3.8421565886999565,0.12891458640916867,0.0020947154827048575,7.957075162107806,4.6775,13.1492,12.9898,0.296,0.4182,0.120241,6.5584,1.286,12.0,,,,,,2.003008,PASS,
192,s08_terrain_compliance,g000023_c6,23,,,,,,,,,,,3.0673202683743863,0.14333669526192483,0.002903271083147535,5.827236874524968,4.6655,13.9701,12.9721,0.3,0.4167,0.144626,4.5296,1.286,12.0,,,,,,2.444294,PASS,
193,s08_terrain_compliance,g000023_c7,23,,,,,,,,,,,4.168608636065434,0.10385111599141783,0.002509381165369825,6.417174775905234,4.5929,11.5815,12.83,0.3,0.3578,0.111958,4.7782,1.28,12.0,,,,,,1.09384,PASS,
194,s08_terrain_compliance,g000024_c0,24,,,,,,,,,,,3.753459796735979,0.13015919308334845,0.002384016437269887,7.3838969466805535,4.6139,12.1773,12.8598,0.3,0.3697,0.122495,5.0726,1.282,12.0,,,,,,1.39924,PASS,
195,s08_terrain_compliance,g000024_c1,24,,,,,,,,,,,3.8530551301406764,0.13459662078948684,0.002121570361569048,6.611189776889147,4.5528,11.5054,12.8239,0.3,0.3567,0.119765,4.9513,1.282,12.0,,,,,,1.12068,PASS,
196,s08_terrain_compliance,g000024_c2,24,,,,,,,,,,,3.7144647193009437,0.1284641083611504,0.0026498458593546613,7.320716853206919,4.5404,11.3099,12.8365,0.298,0.3613,0.123537,5.0826,1.284,12.0,,,,,,1.123894,PASS,
197,s08_terrain_compliance,g000024_c3,24,,,,,,,,,,,3.179551030524988,0.13475332149720573,0.002440194857022236,7.485983825311482,4.615,13.162,12.9138,0.3,0.3949,0.140553,5.0906,1.284,12.0,,,,,,2.141423,PASS,
198,s08_terrain_compliance,g000024_c4,24,,,,,,,,,,,3.908945861210493,0.1269123384200524,0.0020751054885478123,5.796030737337405,4.5102,11.3358,12.7861,0.298,0.346,0.118171,4.4682,1.282,12.0,,,,,,1.197667,PASS,
199,s08_terrain_compliance,g000024_c5,24,,,,,,,,,,,3.6122011268696146,0.1407131593312173,0.0022087596320206257,6.363106321429158,4.6758,13.3152,12.9597,0.298,0.4083,0.126572,4.6528,1.284,12.0,,,,,,1.907325,PASS,
200,s08_terrain_compliance,g000024_c6,24,,,,,,,,,,,5.179986095912816,0.13590673989512916,0.0023501642831624905,8.606574741854002,4.1763,17.6702,12.8017,0.324,0.4352,0.174502,241.4908,1.29,12.0,,,,,,2.596178,PASS,
201,s08_terrain_compliance,g000024_c7,24,,,,,,,,,,,3.879580636939112,0.1160529537109663,0.0033214097137277835,6.684833843050995,4.4289,10.8176,12.7558,0.298,0.3341,0.118916,5.284,1.284,12.0,,,,,,1.417254,PASS,
202,s08_terrain_compliance,g000025_c0,25,,,,,,,,,,,3.8187975244275383,0.1295135417431305,0.0023208616058292145,5.840310673513463,4.5836,11.9212,12.8187,0.296,0.3577,0.120587,4.5621,1.288,12.0,,,,,,1.138907,PASS,
203,s08_terrain_compliance,g000025_c1,25,,,,,,,,,,,3.88774514815673,0.10673714372384979,0.0024600088268859994,6.676868421916123,4.5665,11.6642,12.8174,0.3,0.3565,0.118854,4.5957,1.286,12.0,,,,,,1.100226,PASS,
204,s08_terrain_compliance,g000025_c2,25,,,,,,,,,,,3.800936470553467,0.15445143606120307,0.0020874109826211013,6.538399388952913,4.5428,11.9247,12.8223,0.3,0.3601,0.121153,5.1314,1.282,12.0,,,,,,1.117026,PASS,
205,s08_terrain_compliance,g000025_c3,25,,,,,,,,,,,4.424758069443793,0.15660353991691484,0.0026784748646878397,6.443287925580161,4.535,11.4368,12.7877,0.298,0.3482,0.10612,6.1464,1.282,12.0,,,,,,1.174779,PASS,
206,s08_terrain_compliance,g000025_c4,25,,,,,,,,,,,3.9454378673485073,0.1447239410470776,0.0034325489432663237,6.681005030407674,4.5711,11.9362,12.8343,0.3,0.3626,0.117321,4.5857,1.286,12.0,,,,,,1.106826,PASS,
207,s08_terrain_compliance,g000025_c5,25,,,,,,,,,,,3.5183739922349715,0.12451679636183968,0.002327866502185815,6.583953218422004,4.6679,13.2798,12.9332,0.3,0.3991,0.129389,4.939,1.282,12.0,,,,,,1.946837,PASS,
208,s08_terrain_compliance,g000025_c6,25,,,,,,,,,,,4.120446340292651,0.11483356884276777,0.0022651471952721165,6.901693226460264,4.4759,10.8918,12.7735,0.298,0.3404,0.112909,5.6977,1.284,12.0,,,,,,1.303429,PASS,
209,s08_terrain_compliance,g000025_c7,25,,,,,,,,,,,4.312720577584711,0.11917290175929507,0.002943330850681927,7.1308830609087845,4.6119,11.5476,12.8379,0.298,0.3596,0.1087,6.3684,1.286,12.0,,,,,,1.061965,PASS,
210,s08_terrain_compliance,g000026_c0,26,,,,,,,,,,,4.331238525147213,0.10987711904574296,0.00291705980562282,6.297788061735595,4.4249,10.8754,12.7488,0.298,0.33,0.108082,5.5669,1.284,12.0,,,,,,1.494426,PASS,
211,s08_terrain_compliance,g000026_c1,26,,,,,,,,,,,4.304172401364196,0.12720532525693523,0.002975368949686381,7.106387143869587,4.55,11.3712,12.7867,0.3,0.3454,0.108777,6.0506,1.282,12.0,,,,,,1.138052,PASS,
212,s08_terrain_compliance,g000026_c2,26,,,,,,,,,,,5.0330590459358175,0.10894913910260334,0.0033903836228991045,7.99628651290957,4.3324,19.0254,12.9236,0.314,0.4615,0.137846,195.6963,1.286,12.0,,,,,,2.645922,PASS,
213,s08_terrain_compliance,g000026_c3,26,,,,,,,,,,,4.563389908640175,0.10508232554784443,0.002397252077683728,7.560049028031637,4.7192,13.055,12.9151,0.3,0.3912,0.111259,144.8312,1.284,12.0,,,,,,1.57612,PASS,
214,s08_terrain_compliance,g000026_c4,26,,,,,,,,,,,4.311261904437032,0.12115830131927251,0.003293889503194668,8.414553510007927,4.4513,17.0149,13.0441,0.304,0.4501,0.123184,161.9873,1.28,12.0,,,,,,1.207124,PASS,
215,s08_terrain_compliance,g000026_c5,26,,,,,,,,,,,4.014518279500693,0.10682165137357803,0.0028298119405568965,7.700777316676543,4.6991,13.0612,12.9008,0.3,0.3868,0.115852,6.0608,1.286,12.0,,,,,,1.571658,PASS,
216,s08_terrain_compliance,g000026_c6,26,,,,,,,,,,,4.147890519986796,0.11199975213030387,0.003210502504078059,7.401264134821778,4.5074,11.024,12.7785,0.298,0.3419,0.112341,6.6786,1.282,12.0,,,,,,1.185123,PASS,
217,s08_terrain_compliance,g000026_c7,26,,,,,,,,,,,3.9256829408771794,0.13068146782840714,0.0031735697780349236,6.85893475928025,4.6471,12.3949,12.8615,0.3,0.3716,0.117921,5.2062,1.282,12.0,,,,,,1.406501,PASS,
218,s08_terrain_compliance,g000027_c0,27,,,,,,,,,,,5.156186807451408,0.1216213733553037,0.0032183705856770376,7.785339418947081,4.3303,18.8374,12.9023,0.314,0.4493,0.136969,196.9216,1.286,12.0,,,,,,2.506753,PASS,
219,s08_terrain_compliance,g000027_c1,27,,,,,,,,,,,4.523650897379897,0.12154011430515796,0.0027896260090856367,7.60308461347237,4.6643,12.2773,12.8568,0.302,0.3694,0.111254,144.3842,1.286,12.0,,,,,,1.383713,PASS,
220,s08_terrain_compliance,g000027_c2,27,,,,,,,,,,,4.743853839189136,0.1136468807925921,0.002723030700519042,6.956899621752182,4.5322,10.9073,12.771,0.298,0.3346,0.102362,131.1988,1.282,12.0,,,,,,1.310283,PASS,
221,s08_terrain_compliance,g000027_c3,27,,,,,,,,,,,5.087405999473383,0.12324768368430888,0.003047643613303194,6.610796474027805,4.6102,11.6824,12.8092,0.302,0.3507,0.100383,140.5579,1.28,12.0,,,,,,1.196882,PASS,
222,s08_terrain_compliance,g000027_c4,27,,,,,,,,,,,4.108655598101235,0.11861628210511514,0.002914192811073712,7.1598871226127905,4.6701,12.5615,12.8751,0.3,0.3754,0.113447,6.3586,1.28,12.0,,,,,,1.45262,PASS,
223,s08_terrain_compliance,g000027_c5,27,,,,,,,,,,,3.7694390585993096,0.14360607073304202,0.003073869398123658,7.298880085048602,4.6007,12.076,12.8743,0.296,0.3752,0.122022,5.8592,1.28,12.0,,,,,,1.446208,PASS,
224,s08_terrain_compliance,g000027_c6,27,,,,,,,,,,,4.158407381444621,0.11437422757041116,0.0027438738491271015,7.4093093665103416,4.4813,10.8775,12.7769,0.298,0.3423,0.112046,5.4172,1.284,12.0,,,,,,1.266986,PASS,
225,s08_terrain_compliance,g000027_c7,27,,,,,,,,,,,4.222168794915951,0.12945935352459217,0.0027066739096949064,6.990663699694985,4.4752,10.8281,12.7643,0.298,0.3368,0.11053,5.076,1.282,12.0,,,,,,1.327979,PASS,
226,s08_terrain_compliance,g000028_c0,28,,,,,,,,,,,4.5358087513591965,0.1321024524115117,0.002521104000907281,8.041570460454707,4.7284,13.7076,12.9461,0.306,0.4061,0.121196,165.8923,1.282,12.0,,,,,,1.911723,PASS,
227,s08_terrain_compliance,g000028_c1,28,,,,,,,,,,,4.328277922025815,0.12263070360317542,0.0035226779785520884,6.4042546779877805,4.5106,11.0783,12.7804,0.3,0.3419,0.108205,5.1439,1.284,12.0,,,,,,1.284149,PASS,
228,s08_terrain_compliance,g000028_c2,28,,,,,,,,,,,4.0790409585456215,0.12386707188741763,0.002883123759888837,7.4232196969455435,4.5727,11.6876,12.8201,0.298,0.3575,0.114022,6.809,1.282,12.0,,,,,,1.046274,PASS,
229,s08_terrain_compliance,g000028_c3,28,,,,,,,,,,,4.410848465945438,0.11523687632205772,0.0028930006941316638,7.15467882319182,4.5874,11.6106,12.8252,0.3,0.3576,0.106583,6.1289,1.286,12.0,,,,,,1.037685,PASS,
230,s08_terrain_compliance,g000028_c4,28,,,,,,,,,,,4.637199392652723,0.14199023273835523,0.0027082726914115208,7.20808847207232,4.7105,12.8307,12.9027,0.3,0.3852,0.105957,136.1172,1.28,12.0,,,,,,1.455394,PASS,
231,s08_terrain_compliance,g000028_c5,28,,,,,,,,,,,4.646238514125809,0.11067345791234305,0.0027724231760390245,8.299763081136204,4.3647,18.5637,12.9468,0.31,0.4466,0.129979,178.9294,1.28,12.0,,,,,,2.13306,PASS,
232,s08_terrain_compliance,g000028_c6,28,,,,,,,,,,,4.397765072917465,0.12268005807332563,0.002987765243487647,7.073584721141772,4.5317,11.1561,12.7819,0.298,0.3429,0.106728,5.5668,1.28,12.0,,,,,,1.164547,PASS,
233,s08_terrain_compliance,g000028_c7,28,,,,,,,,,,,4.491983645268151,0.10866271507048768,0.003237813756988879,7.522780100027733,4.4507,10.8844,12.7531,0.298,0.3286,0.108889,135.1425,1.282,12.0,,,,,,1.478681,PASS,
234,s08_terrain_compliance,g000029_c0,29,,,,,,,,,,,4.520526076217121,0.10811507705699525,0.0035644832834439747,7.241399525852747,4.5802,11.3276,12.7888,0.3,0.3446,0.104283,7.8969,1.282,12.0,,,,,,1.095511,PASS,
235,s08_terrain_compliance,g000029_c1,29,,,,,,,,,,,4.646227522868551,0.11924917465684526,0.0030411098232069737,6.921881474717588,4.5288,11.0189,12.7758,0.298,0.3402,0.10173,7.1193,1.282,12.0,,,,,,1.226693,PASS,
236,s08_terrain_compliance,g000029_c2,29,,,,,,,,,,,4.430040079265906,0.12064058032442428,0.0030105484629762715,7.159297477868313,4.5269,11.022,12.769,0.298,0.3372,0.106044,5.9308,1.282,12.0,,,,,,1.223258,PASS,
237,s08_terrain_compliance,g000029_c3,29,,,,,,,,,,,4.847905917845037,0.10842383334893901,0.0026094310164665358,6.377576542827337,4.5387,10.9393,12.7698,0.296,0.3343,0.097913,6.1124,1.28,12.0,,,,,,1.269454,PASS,
238,s08_terrain_compliance,g000029_c4,29,,,,,,,,,,,3.741936607929705,0.10822809716511753,0.0028159997357507668,7.307509261760858,4.5492,11.5773,12.8272,0.298,0.3588,0.122775,5.6613,1.282,12.0,,,,,,1.100991,PASS,
239,s08_terrain_compliance,g000029_c5,29,,,,,,,,,,,4.483475898948583,0.12515690125082796,0.0028689932663968436,7.2211379838914125,4.4072,10.8236,12.7403,0.298,0.3237,0.104858,6.9053,1.284,12.0,,,,,,1.519772,PASS,
240,s08_terrain_compliance,g000029_c6,29,,,,,,,,,,,4.242762990238223,0.11853088936494584,0.003069451117098142,6.686983774947881,4.4824,10.9442,12.774,0.302,0.3422,0.110189,6.2216,1.282,12.0,,,,,,1.345634,PASS,
241,s08_terrain_compliance,g000029_c7,29,,,,,,,,,,,3.9998891941427535,0.12065959460281131,0.002864400663658797,7.0196644783189175,4.5033,11.0764,12.7699,0.296,0.3389,0.115857,5.1463,1.284,12.0,,,,,,1.204454,PASS,
242,s08_terrain_compliance,g000030_c0,30,,,,,,,,,,,4.286265333850994,0.1062946487695339,0.002727654278091533,6.542964226060409,4.5307,11.2313,12.7886,0.298,0.3456,0.109175,5.652,1.282,12.0,,,,,,1.20871,PASS,
243,s08_terrain_compliance,g000030_c1,30,,,,,,,,,,,4.110118086652799,0.11213274691947336,0.002835272502830078,8.426014185396909,4.5443,11.3977,12.8174,0.302,0.3533,0.118912,142.2494,1.284,12.0,,,,,,1.137126,PASS,
244,s08_terrain_compliance,g000030_c2,30,,,,,,,,,,,3.722600411145899,0.1107316281766825,0.0030178887808501092,7.275026752788679,4.6087,12.1033,12.8626,0.3,0.3708,0.123384,5.168,1.286,12.0,,,,,,1.435144,PASS,
245,s08_terrain_compliance,g000030_c3,30,,,,,,,,,,,4.265514780557658,0.11021065666440255,0.002920196377546294,7.427353389057365,4.7353,13.4568,12.9282,0.3,0.3962,0.109947,6.5407,1.282,12.0,,,,,,1.648859,PASS,
246,s08_terrain_compliance,g000030_c4,30,,,,,,,,,,,4.502060675779323,0.12546849425740553,0.003113695514628271,8.009622288272988,4.6552,12.4512,12.8634,0.304,0.3744,0.119049,161.6966,1.282,12.0,,,,,,1.478582,PASS,
247,s08_terrain_compliance,g000030_c5,30,,,,,,,,,,,3.9687589524051696,0.11683916175621378,0.0028503047774233567,7.418856893895128,4.5055,11.1643,12.7767,0.298,0.3416,0.116675,5.4814,1.286,12.0,,,,,,1.175848,PASS,
248,s08_terrain_compliance,g000030_c6,30,,,,,,,,,,,4.8240393921748606,0.12311715412244051,0.002745272477687924,7.507615894173283,4.7337,13.352,13.0769,0.306,0.4535,0.117261,166.7846,1.282,12.0,,,,,,1.878811,PASS,
249,s08_terrain_compliance,g000030_c7,30,,,,,,,,,,,5.112528200070139,0.1264646391868965,0.0028849822031803514,7.806100055108983,4.3394,18.8485,12.9364,0.314,0.4581,0.135486,194.4735,1.284,12.0,,,,,,2.474831,PASS,
250,s08_terrain_compliance,g000031_c0,31,,,,,,,,,,,4.825627146366017,0.11729456604904963,0.002945699118349643,7.0119852063618815,4.5403,11.1494,12.7744,0.306,0.341,0.10443,139.6861,1.282,12.0,,,,,,1.410651,PASS,
251,s08_terrain_compliance,g000031_c1,31,,,,,,,,,,,4.870858740200001,0.11440807258679656,0.002942589835233537,6.563021533222251,4.5916,11.2087,12.7902,0.298,0.3431,0.09759,6.8815,1.278,12.0,,,,,,1.128717,PASS,
252,s08_terrain_compliance,g000031_c2,31,,,,,,,,,,,4.479103231065702,0.10718859865226281,0.0028560083212076756,6.25492229863705,4.5841,11.3117,12.7934,0.3,0.3442,0.105106,5.9659,1.284,12.0,,,,,,1.109909,PASS,
253,s08_terrain_compliance,g000031_c3,31,,,,,,,,,,,4.262378007608828,0.11831994483901272,0.0029833686378382975,7.8401937213632875,4.5339,11.2864,12.7852,0.298,0.3449,0.111814,131.792,1.282,12.0,,,,,,1.206989,PASS,
254,s08_terrain_compliance,g000031_c4,31,,,,,,,,,,,4.304254921076576,0.14217315183045343,0.0027529703452532934,7.2475643200603885,4.697,12.9016,12.8956,0.296,0.3829,0.108913,6.118,1.282,12.0,,,,,,1.460408,PASS,
255,s08_terrain_compliance,g000031_c5,31,,,,,,,,,,,4.2366447975102695,0.11509807287842222,0.0028384918648942173,7.502606206659361,4.5156,11.1348,12.7819,0.298,0.3434,0.110324,6.276,1.28,12.0,,,,,,1.176326,PASS,
256,s08_terrain_compliance,g000031_c6,31,,,,,,,,,,,4.335256877223792,0.10869644988881605,0.00274358165320623,7.757081223154767,4.5739,11.4248,12.8118,0.296,0.3512,0.111244,135.1545,1.284,12.0,,,,,,1.108288,PASS,
257,s08_terrain_compliance,g000031_c7,31,,,,,,,,,,,4.775741601295212,0.12398556939745185,0.0028953107208011947,6.839459586512789,4.6475,11.6569,12.8307,0.3,0.3577,0.099395,7.0912,1.282,12.0,,,,,,1.022713,PASS,
258,s08_terrain_compliance,g000032_c0,32,,,,,,,,,,,4.7446530103378715,0.12779574533621446,0.0028293106183392047,7.03003888619568,4.5376,11.1578,12.7829,0.298,0.3422,0.103654,135.1199,1.28,12.0,,,,,,1.294859,PASS,
259,s08_terrain_compliance,g000032_c1,32,,,,,,,,,,,4.966621187301871,0.12794942500315848,0.0026338442928868877,6.410173317791667,4.5358,11.0162,12.7813,0.3,0.3407,0.095833,5.6273,1.28,12.0,,,,,,1.307487,PASS,
260,s08_terrain_compliance,g000032_c2,32,,,,,,,,,,,4.601613680455695,0.12158049852382231,0.0026769322219815468,6.955557243666719,4.1943,10.8665,12.6796,0.296,0.2918,0.102319,5.9719,1.282,12.0,,,,,,1.730629,PASS,
261,s08_terrain_compliance,g000032_c3,32,,,,,,,,,,,3.827225835202127,0.13147482123880808,0.0030983320537342532,7.553151263727564,4.5467,11.4985,12.8362,0.3,0.3621,0.120469,5.3384,1.286,12.0,,,,,,1.101816,PASS,
262,s08_terrain_compliance,g000032_c4,32,,,,,,,,,,,4.884163859582258,0.13238438978910064,0.0029927856269488583,7.976502244644507,4.3572,18.4877,12.9436,0.31,0.448,0.13044,184.349,1.284,12.0,,,,,,2.162402,PASS,
263,s08_terrain_compliance,g000032_c5,32,,,,,,,,,,,4.582205997224109,0.1181146275602608,0.0031008108181922616,6.610414374063256,4.5924,11.4977,12.8019,0.296,0.3496,0.102973,5.3594,1.286,12.0,,,,,,1.043742,PASS,
264,s08_terrain_compliance,g000032_c6,32,,,,,,,,,,,5.874883181405618,0.12408783957831857,0.002663507172640319,6.800740143321562,4.4324,17.938,13.1293,0.322,0.4993,0.137628,207.9463,1.288,12.0,,,,,,1.589241,PASS,
265,s08_terrain_compliance,g000032_c7,32,,,,,,,,,,,5.053483690207271,0.12219883321682715,0.002745220509345316,7.885858126149779,4.3533,18.8712,12.9447,0.314,0.4548,0.135198,193.0967,1.28,12.0,,,,,,2.333583,PASS,
266,s08_terrain_compliance,g000033_c0,33,,,,,,,,,,,4.491284861572032,0.11442257183515679,0.003122869464024224,6.0395090053314915,4.6658,12.0903,12.8529,0.3,0.3655,0.104963,5.2401,1.28,12.0,,,,,,1.129402,PASS,
267,s08_terrain_compliance,g000033_c1,33,,,,,,,,,,,5.146185655717231,0.16127613906772595,0.0031650317263050504,7.135916053919283,4.4226,18.1492,13.0175,0.308,0.4539,0.116563,172.4979,1.28,12.0,,,,,,1.600667,PASS,
268,s08_terrain_compliance,g000033_c2,33,,,,,,,,,,,4.911415163679611,0.14864987668203547,0.0025693337107929376,6.314740804587681,4.2679,10.7477,12.6922,0.296,0.3003,0.096567,5.3707,1.284,12.0,,,,,,1.713584,PASS,
269,s08_terrain_compliance,g000033_c3,33,,,,,,,,,,,5.164817735112913,0.14135051753243885,0.0028536521008373133,6.917017494323226,4.68,13.6841,13.0922,0.306,0.4572,0.111785,166.3129,1.28,12.0,,,,,,1.65896,PASS,
270,s08_terrain_compliance,g000033_c4,33,,,,,,,,,,,5.440127388416873,0.11738169521288183,0.003318097336390786,6.609861627190379,4.6897,14.8956,13.1182,0.308,0.4683,0.111454,170.369,1.282,12.0,,,,,,1.466985,PASS,
271,s08_terrain_compliance,g000033_c5,33,,,,,,,,,,,3.8823725125218513,0.10487508648211623,0.0034931402839120333,7.236512130906238,4.5347,11.3521,12.7855,0.298,0.3438,0.118953,5.6176,1.286,12.0,,,,,,1.110301,PASS,
272,s08_terrain_compliance,g000033_c6,33,,,,,,,,,,,4.465384958043463,0.12626211096861698,0.003015067930693678,6.506654359264727,4.7217,13.0179,13.0166,0.298,0.4276,0.105686,4.8351,1.284,12.0,,,,,,1.604571,PASS,
273,s08_terrain_compliance,g000033_c7,33,,,,,,,,,,,4.978160017821361,0.1095021744343265,0.002496092808905895,7.219627642667697,4.7564,13.5682,13.0745,0.306,0.4532,0.114472,165.2383,1.278,12.0,,,,,,1.847258,PASS,
274,s08_terrain_compliance,g000034_c0,34,,,,,,,,,,,4.35774065138514,0.14829476475779302,0.0027321153959868985,7.626289242852827,4.6724,12.457,12.8642,0.3,0.3726,0.109793,131.3838,1.284,12.0,,,,,,1.455887,PASS,
275,s08_terrain_compliance,g000034_c1,34,,,,,,,,,,,4.60887213590034,0.10103487747900197,0.0030009912596685564,5.89269119236849,4.663,11.9433,12.8541,0.3,0.3651,0.102659,5.4056,1.284,12.0,,,,,,1.132656,PASS,
276,s08_terrain_compliance,g000034_c2,34,,,,,,,,,,,4.44724468065783,0.13026269819077427,0.003225108903869412,7.781384900187751,4.5693,11.6588,12.7919,0.302,0.3492,0.112981,145.3608,1.282,12.0,,,,,,1.190296,PASS,
277,s08_terrain_compliance,g000034_c3,34,,,,,,,,,,,5.416620247312258,0.13118727377677172,0.0030533699072332744,6.43707870575128,4.534,11.0609,12.7648,0.308,0.3347,0.103158,157.0177,1.278,12.0,,,,,,1.481468,PASS,
278,s08_terrain_compliance,g000034_c4,34,,,,,,,,,,,3.9267978919423645,0.13289990251661668,0.0023954654508179267,7.868903607907891,4.5559,11.6196,12.8276,0.298,0.3594,0.117855,6.6538,1.284,12.0,,,,,,1.061491,PASS,
279,s08_terrain_compliance,g000034_c5,34,,,,,,,,,,,5.5288416613674665,0.1604845142255933,0.0028100402799771927,6.750874874964661,4.411,18.4973,13.0389,0.314,0.4675,0.118281,181.0556,1.282,12.0,,,,,,1.80393,PASS,
280,s08_terrain_compliance,g000034_c6,34,,,,,,,,,,,4.273273865007785,0.11358426252691735,0.0023758999242621784,7.277582974086064,4.5678,11.4757,12.8059,0.298,0.3513,0.10949,5.2923,1.282,12.0,,,,,,1.088709,PASS,
281,s08_terrain_compliance,g000034_c7,34,,,,,,,,,,,4.0167438755925895,0.14318792342584782,0.002959081292920201,7.219512138339125,4.644,12.3319,12.8634,0.298,0.3725,0.115599,6.4419,1.284,12.0,,,,,,1.400712,PASS,
282,s08_terrain_compliance,g000035_c0,35,,,,,,,,,,,4.913470957642841,0.11999094211088761,0.0032170253601497977,7.418613796041056,4.4908,10.9556,12.7647,0.308,0.3379,0.115884,167.3846,1.284,12.0,,,,,,1.526683,PASS,
283,s08_terrain_compliance,g000035_c1,35,,,,,,,,,,,5.386066814223826,0.14811103108747442,0.003040670069092659,7.409780761467905,4.2991,18.3314,12.873,0.316,0.4456,0.135709,199.3674,1.286,12.0,,,,,,2.502667,PASS,
284,s08_terrain_compliance,g000035_c2,35,,,,,,,,,,,3.56835030355858,0.12973537783345346,0.0036710177265715433,5.257516114315788,4.4668,11.2834,12.7818,0.298,0.3472,0.127658,4.1777,1.282,12.0,,,,,,1.316599,PASS,
285,s08_terrain_compliance,g000035_c3,35,,,,,,,,,,,6.051421920003486,0.12089919389072519,0.003322286208788092,5.984014992682095,4.508,17.9674,13.1332,0.312,0.4849,0.110356,178.7797,1.282,12.0,,,,,,1.338163,PASS,
286,s08_terrain_compliance,g000035_c4,35,,,,,,,,,,,4.337758200583866,0.1406402913036364,0.002585746952131859,5.3136942890222905,4.7178,13.117,13.0095,0.298,0.4247,0.108281,4.6526,1.284,12.0,,,,,,1.758057,PASS,
287,s08_terrain_compliance,g000035_c5,35,,,,,,,,,,,4.159537179798228,0.11949126808654317,0.003422652996426701,6.3738419048302815,4.4499,10.8217,12.7641,0.298,0.3371,0.111982,5.1113,1.282,12.0,,,,,,1.416768,PASS,
288,s08_terrain_compliance,g000035_c6,35,,,,,,,,,,,4.9791881792502295,0.14139309954453902,0.001986500618707273,4.9466664348869545,4.5634,11.227,12.7893,0.298,0.345,0.095548,4.211,1.28,12.0,,,,,,1.270899,PASS,
289,s08_terrain_compliance,g000035_c7,35,,,,,,,,,,,6.087794219487827,0.157834239757162,0.002961438197592394,6.472924103759295,4.3298,18.1729,12.9987,0.32,0.4695,0.13331,206.1126,1.29,12.0,,,,,,2.104306,PASS,
290,s08_terrain_compliance,g000036_c0,36,,,,,,,,,,,4.042580094795472,0.1464252966281394,0.0026892469218427243,6.166785106730105,4.5601,11.8412,12.8186,0.298,0.357,0.114844,4.9727,1.286,12.0,,,,,,1.094877,PASS,
291,s08_terrain_compliance,g000036_c1,36,,,,,,,,,,,5.178840122823723,0.11674468594524072,0.0031161759416028197,7.5372114797600025,4.3758,18.8508,12.9764,0.312,0.4598,0.12957,188.5477,1.284,12.0,,,,,,2.210588,PASS,
