run_id,scenario,label,gen,timestamp,Q_PITCH,Q_PITCH_RATE,Q_VEL,R,KP_V,KI_V,KFF_V,KP_YAW,KI_YAW,LEG_K_S,LEG_B_S,LEG_K_ROLL,LEG_D_ROLL,rms_pitch_deg,max_pitch_deg,wheel_travel_m,wheel_liftoff_s,vel_track_rms_ms,hip_track_rms_rad,hip_cmd_rate_rms,settle_time_s,survived_s,fitness_balance,fitness_disturbance,fitness_drive_slow,fitness_drive_med,fitness_obstacle,fitness,status,fail_reason
1,s06_yaw_pi_turn,evo_seed,0,,,,,,,,,0.193246,0.221219,,,,,3.3775,9.6221,1.6936,0.0,0.2604,0.005172,0.0,0.0,8.0,,,,,,0.47575,PASS,
2,s06_yaw_pi_turn,g000000_c0,0,,,,,,,,,0.6531338445705138,0.03862004567675677,,,,,3.3791,9.6275,1.6935,0.0,0.2606,0.005172,0.0,0.0,8.0,,,,,,0.43211,PASS,
3,s06_yaw_pi_turn,g000000_c1,0,,,,,,,,,0.24562990786998867,68.9122989695651,,,,,3.3708,9.6173,1.7005,0.0,0.2605,0.005172,0.0,0.0,8.0,,,,,,0.46188,PASS,
4,s06_yaw_pi_turn,g000000_c2,0,,,,,,,,,1.1847353435715662,0.8261379233684452,,,,,3.3775,9.6213,1.6934,0.0,0.2605,0.005172,0.0,0.0,8.0,,,,,,0.41395,PASS,
5,s06_yaw_pi_turn,g000000_c3,0,,,,,,,,,5.142408008418989,1.098662541556991,,,,,3.503,8.9258,3.4218,0.0,0.6829,0.005274,0.0,0.0,8.0,,,,,,0.5462,PASS,
6,s06_yaw_pi_turn,g000000_c4,0,,,,,,,,,1.3705800034759528,100.0,,,,,3.3765,9.6226,1.6933,0.0,0.2602,0.005172,0.0,0.0,8.0,,,,,,0.42375,PASS,
7,s06_yaw_pi_turn,g000000_c5,0,,,,,,,,,0.06916920153978809,0.2494200890425516,,,,,3.377,9.6234,1.6934,0.0,0.2603,0.005172,0.0,0.0,8.0,,,,,,0.5534,PASS,
8,s06_yaw_pi_turn,g000000_c6,0,,,,,,,,,0.2143307574040268,0.08143605636777666,,,,,3.3801,9.6336,1.6944,0.0,0.2606,0.005172,0.0,0.0,8.0,,,,,,0.48471,PASS,
9,s06_yaw_pi_turn,g000000_c7,0,,,,,,,,,0.608580444245953,9.23028801436414,,,,,3.3775,9.6233,1.6936,0.0,0.2605,0.005172,0.0,0.0,8.0,,,,,,0.41815,PASS,
10,s06_yaw_pi_turn,g000001_c0,1,,,,,,,,,0.5690001132064245,0.05759302997013329,,,,,3.3798,9.6293,1.6938,0.0,0.2606,0.005172,0.0,0.0,8.0,,,,,,0.43458,PASS,
11,s06_yaw_pi_turn,g000001_c1,1,,,,,,,,,0.07027629862090314,0.23678554877959623,,,,,3.3768,9.6218,1.6932,0.0,0.2604,0.005172,0.0,0.0,8.0,,,,,,0.55278,PASS,
12,s06_yaw_pi_turn,g000001_c2,1,,,,,,,,,0.2172609165213509,2.3389940593006093,,,,,3.3771,9.6215,1.6936,0.0,0.2604,0.005172,0.0,0.0,8.0,,,,,,0.45951,PASS,
13,s06_yaw_pi_turn,g000001_c3,1,,,,,,,,,2.101137492415116,2.3983346437595996,,,,,3.3772,9.6175,1.6933,0.0,0.2605,0.005172,0.0,0.0,8.0,,,,,,0.41332,PASS,
14,s06_yaw_pi_turn,g000001_c4,1,,,,,,,,,100.0,0.026199916919000695,,,,,3.6953,10.1682,3.74,0.0,0.6222,0.005264,0.0,8.0,8.0,,,,,,0.65453,PASS,
15,s06_yaw_pi_turn,g000001_c5,1,,,,,,,,,1.083249810133476,1.75881993718115,,,,,3.3778,9.6257,1.6935,0.0,0.2605,0.005172,0.0,0.0,8.0,,,,,,0.41398,PASS,
16,s06_yaw_pi_turn,g000001_c6,1,,,,,,,,,3.485520096306713,0.010066946347741102,,,,,3.3781,9.6232,1.6933,0.0,0.2606,0.005172,0.0,0.0,8.0,,,,,,0.41431,PASS,
17,s06_yaw_pi_turn,g000001_c7,1,,,,,,,,,0.3389566099941046,0.09174752174880502,,,,,3.3797,9.6278,1.6942,0.0,0.2606,0.005172,0.0,0.0,8.0,,,,,,0.45407,PASS,
18,s06_yaw_pi_turn,g000002_c0,2,,,,,,,,,0.023580853159888674,3.4073885278138616,,,,,3.3773,9.6216,1.694,0.0,0.2604,0.005172,0.0,0.0,8.0,,,,,,0.64163,PASS,
19,s06_yaw_pi_turn,g000002_c1,2,,,,,,,,,58.98980342562126,1.407796645981203,,,,,3.3539,8.9867,3.4638,0.0,0.5673,0.005254,0.0,8.0,8.0,,,,,,0.60899,PASS,
20,s06_yaw_pi_turn,g000002_c2,2,,,,,,,,,0.42316163615970026,0.08251903286117916,,,,,3.3793,9.6306,1.6939,0.0,0.2606,0.005172,0.0,0.0,8.0,,,,,,0.44383,PASS,
21,s06_yaw_pi_turn,g000002_c3,2,,,,,,,,,0.6119290302621816,1.156570928424381,,,,,3.3772,9.6228,1.6932,0.0,0.2605,0.005172,0.0,0.0,8.0,,,,,,0.41812,PASS,
22,s06_yaw_pi_turn,g000002_c4,2,,,,,,,,,89.74185819539383,0.07756653190293784,,,,,3.7394,12.3172,3.4997,0.0,0.587,0.005246,0.0,0.136,8.0,,,,,,0.66044,PASS,
23,s06_yaw_pi_turn,g000002_c5,2,,,,,,,,,0.11139323886363876,20.37687140134821,,,,,3.3771,9.6215,1.6934,0.0,0.2604,0.005172,0.0,0.0,8.0,,,,,,0.50001,PASS,
24,s06_yaw_pi_turn,g000002_c6,2,,,,,,,,,0.0307714180451877,4.853596242270089,,,,,3.3774,9.6233,1.6938,0.0,0.2604,0.005172,0.0,0.0,8.0,,,,,,0.61374,PASS,
25,s06_yaw_pi_turn,g000002_c7,2,,,,,,,,,6.077807691923988,2.613847180795699,,,,,3.5792,9.5796,3.4845,0.0,0.6311,0.005236,0.0,0.862,8.0,,,,,,0.57872,PASS,
26,s06_yaw_pi_turn,g000003_c0,3,,,,,,,,,0.20464091321438443,100.0,,,,,3.5473,9.7038,1.7863,0.0,0.3683,0.005181,0.0,0.0,8.0,,,,,,0.58843,PASS,
27,s06_yaw_pi_turn,g000003_c1,3,,,,,,,,,0.4004438711983031,2.0046598681676295,,,,,3.3773,9.6229,1.6935,0.0,0.2604,0.005172,0.0,0.0,8.0,,,,,,0.43043,PASS,
28,s06_yaw_pi_turn,g000003_c2,3,,,,,,,,,23.79758384953247,1.0977585005944561,,,,,3.5614,9.8061,3.321,0.0,0.573,0.005251,0.0,6.088,8.0,,,,,,0.62224,PASS,
29,s06_yaw_pi_turn,g000003_c3,3,,,,,,,,,1.584547326459915,6.491599566601122,,,,,3.378,9.6265,1.6936,0.0,0.2606,0.005172,0.0,0.0,8.0,,,,,,0.4137,PASS,
30,s06_yaw_pi_turn,g000003_c4,3,,,,,,,,,36.96640395983679,25.324400470027307,,,,,3.4889,10.3813,3.5848,0.0,0.6106,0.005252,0.0,7.372,8.0,,,,,,0.62069,PASS,
31,s06_yaw_pi_turn,g000003_c5,3,,,,,,,,,43.69247965401123,0.5513951452814214,,,,,3.5687,8.7541,3.675,0.0,0.6045,0.005256,0.0,8.0,8.0,,,,,,0.62567,PASS,
32,s06_yaw_pi_turn,g000003_c6,3,,,,,,,,,4.156881342537057,3.0172206500350938,,,,,3.3778,9.6244,1.6936,0.0,0.2605,0.005172,0.0,0.0,8.0,,,,,,0.41338,PASS,
33,s06_yaw_pi_turn,g000003_c7,3,,,,,,,,,100.0,0.7770383907854056,,,,,3.509,9.554,3.7534,0.0,0.6139,0.005266,0.0,8.0,8.0,,,,,,0.6353,PASS,
34,s06_yaw_pi_turn,g000004_c0,4,,,,,,,,,2.2000946633963285,0.9462068641769477,,,,,3.3774,9.6248,1.6932,0.0,0.2606,0.005172,0.0,0.0,8.0,,,,,,0.41364,PASS,
35,s06_yaw_pi_turn,g000004_c1,4,,,,,,,,,0.45332942828917117,2.885768363901782,,,,,3.3773,9.621,1.6936,0.0,0.2605,0.005172,0.0,0.0,8.0,,,,,,0.42533,PASS,
36,s06_yaw_pi_turn,g000004_c2,4,,,,,,,,,100.0,1.4032177352689408,,,,,3.6668,10.6145,3.7187,0.0,0.6275,0.005248,0.0,8.0,8.0,,,,,,0.64568,PASS,
37,s06_yaw_pi_turn,g000004_c3,4,,,,,,,,,22.871172637785513,6.844339951035374,,,,,3.4818,11.1844,3.4307,0.0,0.6013,0.005257,0.0,7.13,8.0,,,,,,0.60948,PASS,
38,s06_yaw_pi_turn,g000004_c4,4,,,,,,,,,100.0,0.13480673470790797,,,,,3.6528,10.9648,3.6449,0.0,0.6001,0.005251,0.0,8.0,8.0,,,,,,0.64338,PASS,
39,s06_yaw_pi_turn,g000004_c5,4,,,,,,,,,1.790503425356515,14.93961708503122,,,,,3.378,9.626,1.6937,0.0,0.2606,0.005172,0.0,0.0,8.0,,,,,,0.4143,PASS,
40,s06_yaw_pi_turn,g000004_c6,4,,,,,,,,,0.248751179983112,2.873350986903681,,,,,3.3777,9.6252,1.6937,0.0,0.2604,0.005172,0.0,0.0,8.0,,,,,,0.45207,PASS,
41,s06_yaw_pi_turn,g000004_c7,4,,,,,,,,,1.786101547207589,0.10211759700741697,,,,,3.3784,9.6231,1.6936,0.0,0.2606,0.005172,0.0,0.0,8.0,,,,,,0.41554,PASS,
42,s06_yaw_pi_turn,g000005_c0,5,,,,,,,,,2.349433197811618,0.5927147417216354,,,,,3.3779,9.6244,1.6934,0.0,0.2605,0.005172,0.0,0.0,8.0,,,,,,0.41369,PASS,
43,s06_yaw_pi_turn,g000005_c1,5,,,,,,,,,18.878534724051004,1.0943821349402523,,,,,3.585,9.2534,3.4402,0.0,0.5792,0.00526,0.0,8.0,8.0,,,,,,0.6228,PASS,
44,s06_yaw_pi_turn,g000005_c2,5,,,,,,,,,0.828496793443332,0.6387322873845245,,,,,3.3779,9.6218,1.6935,0.0,0.2605,0.005172,0.0,0.0,8.0,,,,,,0.41549,PASS,
45,s06_yaw_pi_turn,g000005_c3,5,,,,,,,,,0.29029797472589813,0.13160916313434012,,,,,3.3786,9.6286,1.6938,0.0,0.2605,0.005172,0.0,0.0,8.0,,,,,,0.45756,PASS,
46,s06_yaw_pi_turn,g000005_c4,5,,,,,,,,,12.154008384182715,4.608250123525262,,,,,3.6064,10.6983,3.4137,0.0,0.5946,0.005255,0.0,1.0,8.0,,,,,,0.61834,PASS,
47,s06_yaw_pi_turn,g000005_c5,5,,,,,,,,,0.7059051444760278,28.757160216895887,,,,,3.3776,9.622,1.6938,0.0,0.2606,0.005172,0.0,0.0,8.0,,,,,,0.41936,PASS,
48,s06_yaw_pi_turn,g000005_c6,5,,,,,,,,,0.09025999559293481,0.9670277320326254,,,,,3.3773,9.6216,1.6941,0.0,0.2604,0.005172,0.0,0.0,8.0,,,,,,0.52013,PASS,
49,s06_yaw_pi_turn,g000005_c7,5,,,,,,,,,0.09421026274569262,3.5637270495921185,,,,,3.3774,9.6231,1.6938,0.0,0.2604,0.005172,0.0,0.0,8.0,,,,,,0.51414,PASS,
50,s06_yaw_pi_turn,g000006_c0,6,,,,,,,,,0.3038644557777634,3.5646864814149657,,,,,3.3774,9.6209,1.694,0.0,0.2604,0.005172,0.0,0.0,8.0,,,,,,0.44184,PASS,
51,s06_yaw_pi_turn,g000006_c1,6,,,,,,,,,1.0255374572087725,14.824256825549572,,,,,3.3775,9.6249,1.6931,0.0,0.2605,0.005172,0.0,0.0,8.0,,,,,,0.41515,PASS,
52,s06_yaw_pi_turn,g000006_c2,6,,,,,,,,,0.021768091051442257,4.829689092614983,,,,,3.3773,9.6246,1.6939,0.0,0.2604,0.005172,0.0,0.0,8.0,,,,,,0.64733,PASS,
53,s06_yaw_pi_turn,g000006_c3,6,,,,,,,,,1.908486736300766,5.2678054306581386,,,,,3.3776,9.6248,1.6934,0.0,0.2605,0.005172,0.0,0.0,8.0,,,,,,0.41366,PASS,
54,s06_yaw_pi_turn,g000006_c4,6,,,,,,,,,0.35738312119890997,100.0,,,,,3.3694,9.6156,1.7277,0.0,0.2741,0.005173,0.0,0.0,8.0,,,,,,0.46744,PASS,
55,s06_yaw_pi_turn,g000006_c5,6,,,,,,,,,100.0,88.42408091184436,,,,,3.5412,9.2734,3.7396,0.0,0.6193,0.005271,0.0,8.0,8.0,,,,,,0.63012,PASS,
56,s06_yaw_pi_turn,g000006_c6,6,,,,,,,,,82.24283925806911,9.124783833029595,,,,,3.6561,12.9691,3.6117,0.0,0.6189,0.005256,0.0,1.076,8.0,,,,,,0.63591,PASS,
57,s06_yaw_pi_turn,g000006_c7,6,,,,,,,,,0.7446705632866496,0.9837805100514567,,,,,3.3776,9.627,1.6934,0.0,0.2605,0.005172,0.0,0.0,8.0,,,,,,0.41606,PASS,
58,s06_yaw_pi_turn,g000007_c0,7,,,,,,,,,7.423117104052913,3.07343291392792,,,,,3.6353,9.4642,3.7321,0.0,0.6557,0.005271,0.0,8.0,8.0,,,,,,0.59693,PASS,
59,s06_yaw_pi_turn,g000007_c1,7,,,,,,,,,0.02358231090573256,0.7067829821974383,,,,,3.3772,9.6219,1.6943,0.0,0.2604,0.005172,0.0,0.0,8.0,,,,,,0.64732,PASS,
60,s06_yaw_pi_turn,g000007_c2,7,,,,,,,,,0.030035909684364058,6.315338205579917,,,,,3.3771,9.6222,1.6937,0.0,0.2604,0.005172,0.0,0.0,8.0,,,,,,0.61491,PASS,
61,s06_yaw_pi_turn,g000007_c3,7,,,,,,,,,0.013469980755062977,0.41316511438615444,,,,,3.3774,9.6278,1.6939,0.0,0.2604,0.005172,0.0,0.0,8.0,,,,,,0.70764,PASS,
62,s06_yaw_pi_turn,g000007_c4,7,,,,,,,,,2.830222698461801,27.930350847868382,,,,,3.3777,9.6234,1.6932,0.0,0.2606,0.005172,0.0,0.0,8.0,,,,,,0.41457,PASS,
63,s06_yaw_pi_turn,g000007_c5,7,,,,,,,,,50.15590614089375,2.1127800830902386,,,,,3.4618,9.1832,3.6395,0.0,0.6113,0.005266,0.0,8.0,8.0,,,,,,0.62338,PASS,
64,s06_yaw_pi_turn,g000007_c6,7,,,,,,,,,0.8053487224831283,79.78714081063829,,,,,3.3756,9.623,1.6936,0.0,0.26,0.005172,0.0,0.0,8.0,,,,,,0.42756,PASS,
65,s06_yaw_pi_turn,g000007_c7,7,,,,,,,,,0.2510187054042946,1.0213059266829447,,,,,3.3774,9.6234,1.6937,0.0,0.2604,0.005172,0.0,0.0,8.0,,,,,,0.45294,PASS,
66,s06_yaw_pi_turn,g000008_c0,8,,,,,,,,,0.306222231058471,0.3503004294927501,,,,,3.3774,9.6195,1.6937,0.0,0.2604,0.005172,0.0,0.0,8.0,,,,,,0.44664,PASS,
67,s06_yaw_pi_turn,g000008_c1,8,,,,,,,,,11.469508763839453,11.48335491389388,,,,,3.5838,11.3965,3.301,0.0,0.569,0.005243,0.0,6.98,8.0,,,,,,0.61188,PASS,
68,s06_yaw_pi_turn,g000008_c2,8,,,,,,,,,2.5046551146247924,67.38154405057469,,,,,3.3777,9.6207,1.6938,0.0,0.2605,0.005172,0.0,0.0,8.0,,,,,,0.41727,PASS,
69,s06_yaw_pi_turn,g000008_c3,8,,,,,,,,,5.918044523241157,1.7911557760788657,,,,,3.7916,10.511,3.5947,0.0,0.6541,0.005255,0.0,1.016,8.0,,,,,,0.59816,PASS,
70,s06_yaw_pi_turn,g000008_c4,8,,,,,,,,,1.2494227776663003,100.0,,,,,3.3758,9.6212,1.6937,0.0,0.2601,0.005172,0.0,0.0,8.0,,,,,,0.42488,PASS,
71,s06_yaw_pi_turn,g000008_c5,8,,,,,,,,,5.725114445402155,0.021405615509206534,,,,,3.6152,9.4457,3.4661,0.0,0.6235,0.005253,0.0,2.212,8.0,,,,,,0.56972,PASS,
72,s06_yaw_pi_turn,g000008_c6,8,,,,,,,,,0.6144175210598252,1.3933025849633365,,,,,3.3779,9.6283,1.6937,0.0,0.2605,0.005172,0.0,0.0,8.0,,,,,,0.41789,PASS,
73,s06_yaw_pi_turn,g000008_c7,8,,,,,,,,,0.012017173532310528,20.030392115354694,,,,,3.377,9.6271,1.6938,0.0,0.2604,0.005172,0.0,0.0,8.0,,,,,,0.6728,PASS,
74,s06_yaw_pi_turn,g000009_c0,9,,,,,,,,,0.7620484908577421,0.6624057947728194,,,,,3.3776,9.621,1.6936,0.0,0.2605,0.005172,0.0,0.0,8.0,,,,,,0.41636,PASS,
75,s06_yaw_pi_turn,g000009_c1,9,,,,,,,,,0.9477877760172245,3.354925873416319,,,,,3.3774,9.6157,1.6936,0.0,0.2605,0.005172,0.0,0.0,8.0,,,,,,0.41424,PASS,
76,s06_yaw_pi_turn,g000009_c2,9,,,,,,,,,0.7367743000358685,35.71807734807122,,,,,3.3774,9.6222,1.6932,0.0,0.2605,0.005172,0.0,0.0,8.0,,,,,,0.42024,PASS,
77,s06_yaw_pi_turn,g000009_c3,9,,,,,,,,,10.401375872688169,0.11596603914351099,,,,,3.4698,8.4183,3.3365,0.0,0.5782,0.005248,0.0,8.0,8.0,,,,,,0.59928,PASS,
78,s06_yaw_pi_turn,g000009_c4,9,,,,,,,,,0.9204481720377345,0.04367511834768887,,,,,3.3788,9.6262,1.6937,0.0,0.2607,0.005172,0.0,0.0,8.0,,,,,,0.42308,PASS,
79,s06_yaw_pi_turn,g000009_c5,9,,,,,,,,,16.933012890997116,22.82145730335358,,,,,3.7224,13.3166,3.4553,0.0,0.6005,0.005248,0.0,0.0,8.0,,,,,,0.63264,PASS,
80,s06_yaw_pi_turn,g000009_c6,9,,,,,,,,,0.4043224410741265,2.473943817927289,,,,,3.3775,9.6229,1.6937,0.0,0.2605,0.005172,0.0,0.0,8.0,,,,,,0.42985,PASS,
81,s06_yaw_pi_turn,g000009_c7,9,,,,,,,,,0.2573945440507149,99.41555326979527,,,,,3.3841,9.6098,1.7437,0.0,0.2995,0.005175,0.0,0.0,8.0,,,,,,0.49201,PASS,
82,s06_yaw_pi_turn,g000010_c0,10,,,,,,,,,11.849649517976324,3.3504526275642044,,,,,3.5219,10.6392,3.2815,0.0,0.5661,0.005243,0.0,8.0,8.0,,,,,,0.60539,PASS,
83,s06_yaw_pi_turn,g000010_c1,10,,,,,,,,,4.6262183801004415,83.72977523477635,,,,,3.3763,9.6267,1.6936,0.0,0.2602,0.005172,0.0,0.0,8.0,,,,,,0.41653,PASS,
84,s06_yaw_pi_turn,g000010_c2,10,,,,,,,,,0.34002709246420504,2.2315366055035692,,,,,3.3771,9.6206,1.6937,0.0,0.2604,0.005172,0.0,0.0,8.0,,,,,,0.43701,PASS,
85,s06_yaw_pi_turn,g000010_c3,10,,,,,,,,,12.633602624031164,0.012026610673900758,,,,,3.5196,9.9792,3.4088,0.0,0.5852,0.005244,0.0,7.094,8.0,,,,,,0.60696,PASS,
86,s06_yaw_pi_turn,g000010_c4,10,,,,,,,,,1.4794198775871341,3.306048997831989,,,,,3.3775,9.6235,1.6935,0.0,0.2605,0.005172,0.0,0.0,8.0,,,,,,0.41365,PASS,
87,s06_yaw_pi_turn,g000010_c5,10,,,,,,,,,0.22301409121968313,1.744814186422073,,,,,3.3776,9.6281,1.6936,0.0,0.2604,0.005172,0.0,0.0,8.0,,,,,,0.45836,PASS,
88,s06_yaw_pi_turn,g000010_c6,10,,,,,,,,,63.7649279000972,70.50055810694248,,,,,3.7205,9.4672,3.71,0.0,0.6379,0.005262,0.0,8.0,8.0,,,,,,0.64985,PASS,
89,s06_yaw_pi_turn,g000010_c7,10,,,,,,,,,59.824570591740226,1.54089060670376,,,,,3.7502,10.7226,3.7107,0.0,0.6134,0.005271,0.0,8.0,8.0,,,,,,0.64982,PASS,
90,s06_yaw_pi_turn,g000011_c0,11,,,,,,,,,0.435394506407959,2.514401556774475,,,,,3.3777,9.6264,1.6936,0.0,0.2605,0.005172,0.0,0.0,8.0,,,,,,0.42687,PASS,
91,s06_yaw_pi_turn,g000011_c1,11,,,,,,,,,39.527041895079485,2.2381484891825125,,,,,3.4408,9.2704,3.4998,0.0,0.5812,0.005247,0.0,0.0,8.0,,,,,,0.62098,PASS,
92,s06_yaw_pi_turn,g000011_c2,11,,,,,,,,,2.1511793568178863,1.6552197066644467,,,,,3.3778,9.6233,1.6936,0.0,0.2606,0.005172,0.0,0.0,8.0,,,,,,0.41338,PASS,
93,s06_yaw_pi_turn,g000011_c3,11,,,,,,,,,0.5600979974998319,40.50905872764406,,,,,3.3773,9.6255,1.6934,0.0,0.2606,0.005172,0.0,0.0,8.0,,,,,,0.42353,PASS,
94,s06_yaw_pi_turn,g000011_c4,11,,,,,,,,,2.1537010169569495,0.11902082417511743,,,,,3.3781,9.6237,1.6935,0.0,0.2606,0.005172,0.0,0.0,8.0,,,,,,0.41491,PASS,
95,s06_yaw_pi_turn,g000011_c5,11,,,,,,,,,3.7311254984989524,0.4690731263667897,,,,,3.3776,9.6229,1.6934,0.0,0.2606,0.005172,0.0,0.0,8.0,,,,,,0.41366,PASS,
96,s06_yaw_pi_turn,g000011_c6,11,,,,,,,,,16.682733300106324,0.8215391587440428,,,,,3.3539,9.1686,3.261,0.0,0.5674,0.005239,0.0,0.0,8.0,,,,,,0.59819,PASS,
97,s06_yaw_pi_turn,g000011_c7,11,,,,,,,,,10.125552208554558,20.216423188064965,,,,,3.7019,11.3253,3.4727,0.0,0.6244,0.005245,0.0,2.314,8.0,,,,,,0.62549,PASS,
98,s06_yaw_pi_turn,g000012_c0,12,,,,,,,,,0.3564799145914829,7.7047137801585635,,,,,3.3776,9.6242,1.6938,0.0,0.2605,0.005172,0.0,0.0,8.0,,,,,,0.43466,PASS,
99,s06_yaw_pi_turn,g000012_c1,12,,,,,,,,,26.116070263871713,4.471342320133426,,,,,3.3182,9.7106,3.4147,0.0,0.5739,0.005249,0.0,8.0,8.0,,,,,,0.59672,PASS,
100,s06_yaw_pi_turn,g000012_c2,12,,,,,,,,,1.2975548826720464,4.0827933960777285,,,,,3.3777,9.6227,1.6936,0.0,0.2605,0.005172,0.0,0.0,8.0,,,,,,0.41367,PASS,
101,s06_yaw_pi_turn,g000012_c3,12,,,,,,,,,5.503149917971452,3.961868103530582,,,,,3.5122,11.0282,3.6093,0.0,0.6314,0.005262,0.0,0.874,8.0,,,,,,0.56062,PASS,
102,s06_yaw_pi_turn,g000012_c4,12,,,,,,,,,0.7276004246203028,1.0586475645631908,,,,,3.3777,9.6259,1.6935,0.0,0.2605,0.005172,0.0,0.0,8.0,,,,,,0.41637,PASS,
103,s06_yaw_pi_turn,g000012_c5,12,,,,,,,,,7.201306135412888,3.1918175440215273,,,,,3.5377,8.3616,3.5927,0.0,0.63,0.005256,0.0,6.592,8.0,,,,,,0.58267,PASS,
104,s06_yaw_pi_turn,g000012_c6,12,,,,,,,,,2.31619989611333,7.834378300933797,,,,,3.3774,9.6234,1.6933,0.0,0.2605,0.005172,0.0,0.0,8.0,,,,,,0.41364,PASS,
105,s06_yaw_pi_turn,g000012_c7,12,,,,,,,,,3.0494565176814716,7.892893565432665,,,,,3.3776,9.6196,1.6937,0.0,0.2605,0.005172,0.0,0.0,8.0,,,,,,0.41366,PASS,
106,s06_yaw_pi_turn,g000013_c0,13,,,,,,,,,5.198407443323132,2.3918749525660066,,,,,3.69,11.1792,3.6129,0.0,0.6979,0.00527,0.0,0.0,8.0,,,,,,0.5646,PASS,
107,s06_yaw_pi_turn,g000013_c1,13,,,,,,,,,2.4346604374356353,3.253766108664592,,,,,3.3775,9.624,1.6934,0.0,0.2606,0.005172,0.0,0.0,8.0,,,,,,0.41335,PASS,
108,s06_yaw_pi_turn,g000013_c2,13,,,,,,,,,1.7500896198620786,2.305152969387554,,,,,3.3774,9.6192,1.6935,0.0,0.2605,0.005172,0.0,0.0,8.0,,,,,,0.41334,PASS,
109,s06_yaw_pi_turn,g000013_c3,13,,,,,,,,,1.2098205605135002,0.7571342817409654,,,,,3.378,9.627,1.6937,0.0,0.2606,0.005172,0.0,0.0,8.0,,,,,,0.414,PASS,
110,s06_yaw_pi_turn,g000013_c4,13,,,,,,,,,0.3668677486296242,7.657751550618972,,,,,3.3773,9.6216,1.6934,0.0,0.2605,0.005172,0.0,0.0,8.0,,,,,,0.43343,PASS,
111,s06_yaw_pi_turn,g000013_c5,13,,,,,,,,,2.875086683886991,10.527746979470745,,,,,3.3777,9.6246,1.6935,0.0,0.2606,0.005172,0.0,0.0,8.0,,,,,,0.41367,PASS,
112,s06_yaw_pi_turn,g000013_c6,13,,,,,,,,,0.28634811206987165,2.061060257653431,,,,,3.3771,9.62,1.6935,0.0,0.2604,0.005172,0.0,0.0,8.0,,,,,,0.44511,PASS,
113,s06_yaw_pi_turn,g000013_c7,13,,,,,,,,,5.830404763136715,0.6839608383558634,,,,,3.7816,11.2107,3.5243,0.0,0.6496,0.00524,0.0,8.0,8.0,,,,,,0.60796,PASS,
114,s06_yaw_pi_turn,g000014_c0,14,,,,,,,,,2.087878447913947,5.253899274285939,,,,,3.3781,9.6252,1.6935,0.0,0.2606,0.005172,0.0,0.0,8.0,,,,,,0.41341,PASS,
115,s06_yaw_pi_turn,g000014_c1,14,,,,,,,,,0.1454489631229941,0.5460054555269351,,,,,3.3775,9.6247,1.694,0.0,0.2604,0.005172,0.0,0.0,8.0,,,,,,0.48775,PASS,
116,s06_yaw_pi_turn,g000014_c2,14,,,,,,,,,0.9681757537659501,2.6548909533437284,,,,,3.3777,9.6262,1.6934,0.0,0.2605,0.005172,0.0,0.0,8.0,,,,,,0.41427,PASS,
117,s06_yaw_pi_turn,g000014_c3,14,,,,,,,,,0.9506084741697822,7.409034483954604,,,,,3.3775,9.6239,1.6937,0.0,0.2606,0.005172,0.0,0.0,8.0,,,,,,0.41485,PASS,
118,s06_yaw_pi_turn,g000014_c4,14,,,,,,,,,2.435818109659884,1.5677169884687239,,,,,3.3776,9.6215,1.6933,0.0,0.2606,0.005172,0.0,0.0,8.0,,,,,,0.41336,PASS,
119,s06_yaw_pi_turn,g000014_c5,14,,,,,,,,,1.8839141113154034,5.26496425971211,,,,,3.3776,9.6241,1.6935,0.0,0.2606,0.005172,0.0,0.0,8.0,,,,,,0.41336,PASS,
120,s06_yaw_pi_turn,g000014_c6,14,,,,,,,,,5.823235306780713,5.691326469208679,,,,,3.8064,12.5747,3.7769,0.0,0.6834,0.005264,0.0,8.0,8.0,,,,,,0.59874,PASS,
121,s06_yaw_pi_turn,g000014_c7,14,,,,,,,,,1.7407492840134304,12.144489859419139,,,,,3.3777,9.6242,1.6936,0.0,0.2606,0.005172,0.0,0.0,8.0,,,,,,0.41427,PASS,
122,s06_yaw_pi_turn,g000015_c0,15,,,,,,,,,1.2259512057792794,1.2673166516511074,,,,,3.3779,9.6245,1.6933,0.0,0.2605,0.005172,0.0,0.0,8.0,,,,,,0.41369,PASS,
123,s06_yaw_pi_turn,g000015_c1,15,,,,,,,,,2.3429397383119666,3.9395322613753114,,,,,3.3773,9.6199,1.6935,0.0,0.2606,0.005172,0.0,0.0,8.0,,,,,,0.41333,PASS,
124,s06_yaw_pi_turn,g000015_c2,15,,,,,,,,,2.801436393376728,3.0883308415410182,,,,,3.3777,9.6252,1.6933,0.0,0.2605,0.005172,0.0,0.0,8.0,,,,,,0.41337,PASS,
125,s06_yaw_pi_turn,g000015_c3,15,,,,,,,,,8.689796233325316,2.559202780431459,,,,,3.7213,11.4894,3.4105,0.0,0.6059,0.005251,0.0,2.14,8.0,,,,,,0.61573,PASS,
126,s06_yaw_pi_turn,g000015_c4,15,,,,,,,,,2.515278060310878,1.2246695817186288,,,,,3.3776,9.6211,1.6931,0.0,0.2605,0.005172,0.0,0.0,8.0,,,,,,0.41336,PASS,
127,s06_yaw_pi_turn,g000015_c5,15,,,,,,,,,1.0386016433766874,4.101856812135028,,,,,3.3775,9.6206,1.6935,0.0,0.2606,0.005172,0.0,0.0,8.0,,,,,,0.41395,PASS,
128,s06_yaw_pi_turn,g000015_c6,15,,,,,,,,,1.4885177496856863,2.79355453950176,,,,,3.3775,9.6215,1.6935,0.0,0.2605,0.005172,0.0,0.0,8.0,,,,,,0.41335,PASS,
129,s06_yaw_pi_turn,g000015_c7,15,,,,,,,,,0.6915517617001604,3.1106838052468704,,,,,3.3777,9.6244,1.6935,0.0,0.2605,0.005172,0.0,0.0,8.0,,,,,,0.41637,PASS,
130,s06_yaw_pi_turn,g000016_c0,16,,,,,,,,,0.6593326955045207,4.5392475978284,,,,,3.3773,9.6228,1.6934,0.0,0.2604,0.005172,0.0,0.0,8.0,,,,,,0.41663,PASS,
131,s06_yaw_pi_turn,g000016_c1,16,,,,,,,,,0.9920620889723397,3.829625675490049,,,,,3.3773,9.6198,1.6931,0.0,0.2605,0.005172,0.0,0.0,8.0,,,,,,0.41423,PASS,
132,s06_yaw_pi_turn,g000016_c2,16,,,,,,,,,1.66127464007564,2.0204829352394498,,,,,3.3776,9.6248,1.6935,0.0,0.2605,0.005172,0.0,0.0,8.0,,,,,,0.41336,PASS,
133,s06_yaw_pi_turn,g000016_c3,16,,,,,,,,,1.1893449575067014,3.134959804404482,,,,,3.3778,9.624,1.694,0.0,0.2606,0.005172,0.0,0.0,8.0,,,,,,0.41368,PASS,
134,s06_yaw_pi_turn,g000016_c4,16,,,,,,,,,0.7058161470834999,1.6276798967305532,,,,,3.3777,9.6233,1.6932,0.0,0.2605,0.005172,0.0,0.0,8.0,,,,,,0.41637,PASS,
135,s06_yaw_pi_turn,g000016_c5,16,,,,,,,,,1.558440036228467,1.9697665301273766,,,,,3.3776,9.6242,1.6931,0.0,0.2605,0.005172,0.0,0.0,8.0,,,,,,0.41336,PASS,
136,s06_yaw_pi_turn,g000016_c6,16,,,,,,,,,1.5839367137828535,5.713507435698392,,,,,3.3777,9.6268,1.6935,0.0,0.2605,0.005172,0.0,0.0,8.0,,,,,,0.41367,PASS,
137,s06_yaw_pi_turn,g000016_c7,16,,,,,,,,,1.5195328310927083,1.9802616254487866,,,,,3.3775,9.621,1.6935,0.0,0.2606,0.005172,0.0,0.0,8.0,,,,,,0.41335,PASS,
138,s06_yaw_pi_turn,g000017_c0,17,,,,,,,,,1.7550340201174184,1.6976274591947749,,,,,3.3775,9.6228,1.6931,0.0,0.2606,0.005172,0.0,0.0,8.0,,,,,,0.41335,PASS,
139,s06_yaw_pi_turn,g000017_c1,17,,,,,,,,,1.7320446994712397,3.0979654989369645,,,,,3.3777,9.6248,1.6932,0.0,0.2605,0.005172,0.0,0.0,8.0,,,,,,0.41337,PASS,
140,s06_yaw_pi_turn,g000017_c2,17,,,,,,,,,1.9192593123332082,3.515433541178565,,,,,3.3774,9.6212,1.6935,0.0,0.2606,0.005172,0.0,0.0,8.0,,,,,,0.41334,PASS,
141,s06_yaw_pi_turn,g000017_c3,17,,,,,,,,,1.1359049798392056,1.4912135553103607,,,,,3.3775,9.6197,1.6934,0.0,0.2605,0.005172,0.0,0.0,8.0,,,,,,0.41395,PASS,
142,s06_yaw_pi_turn,g000017_c4,17,,,,,,,,,1.3199410115009913,2.666105364639996,,,,,3.3774,9.6243,1.6932,0.0,0.2606,0.005172,0.0,0.0,8.0,,,,,,0.41364,PASS,
143,s06_yaw_pi_turn,g000017_c5,17,,,,,,,,,3.1496795034613023,1.7821217094461304,,,,,3.3773,9.623,1.6933,0.0,0.2606,0.005172,0.0,0.0,8.0,,,,,,0.41333,PASS,
144,s06_yaw_pi_turn,g000017_c6,17,,,,,,,,,1.0342561773921275,2.2357577437757725,,,,,3.3776,9.6234,1.6935,0.0,0.2605,0.005172,0.0,0.0,8.0,,,,,,0.41396,PASS,
145,s06_yaw_pi_turn,g000017_c7,17,,,,,,,,,1.7749399240257753,1.945418921368788,,,,,3.3776,9.6238,1.6935,0.0,0.2606,0.005172,0.0,0.0,8.0,,,,,,0.41336,PASS,
146,s06_yaw_pi_turn,g000018_c0,18,,,,,,,,,1.9701190154952861,1.3172795192295774,,,,,3.3773,9.6182,1.6934,0.0,0.2605,0.005172,0.0,0.0,8.0,,,,,,0.41333,PASS,
147,s06_yaw_pi_turn,g000018_c1,18,,,,,,,,,2.2783226835928505,5.150003164540866,,,,,3.3775,9.6245,1.6932,0.0,0.2606,0.005172,0.0,0.0,8.0,,,,,,0.41335,PASS,
148,s06_yaw_pi_turn,g000018_c2,18,,,,,,,,,2.965797997403733,1.7800655274226234,,,,,3.378,9.6268,1.6936,0.0,0.2606,0.005172,0.0,0.0,8.0,,,,,,0.4134,PASS,
149,s06_yaw_pi_turn,g000018_c3,18,,,,,,,,,2.2636069131988013,1.1173800557533375,,,,,3.3778,9.6269,1.6934,0.0,0.2606,0.005172,0.0,0.0,8.0,,,,,,0.41338,PASS,
150,s06_yaw_pi_turn,g000018_c4,18,,,,,,,,,2.318391151389999,1.9439440240970132,,,,,3.3775,9.6217,1.6933,0.0,0.2605,0.005172,0.0,0.0,8.0,,,,,,0.41335,PASS,
151,s06_yaw_pi_turn,g000018_c5,18,,,,,,,,,1.8459119407839417,1.839996443436648,,,,,3.3774,9.6194,1.6935,0.0,0.2606,0.005172,0.0,0.0,8.0,,,,,,0.41334,PASS,
152,s06_yaw_pi_turn,g000018_c6,18,,,,,,,,,2.415643963435338,2.099417262829532,,,,,3.378,9.6246,1.6935,0.0,0.2606,0.005172,0.0,0.0,8.0,,,,,,0.4134,PASS,
153,s06_yaw_pi_turn,g000018_c7,18,,,,,,,,,1.438768112052265,2.4617653695767934,,,,,3.3777,9.6282,1.6933,0.0,0.2605,0.005172,0.0,0.0,8.0,,,,,,0.41337,PASS,
154,s06_yaw_pi_turn,g000019_c0,19,,,,,,,,,2.827234769252348,4.651659444463557,,,,,3.3777,9.6267,1.6934,0.0,0.2606,0.005172,0.0,0.0,8.0,,,,,,0.41337,PASS,
155,s06_yaw_pi_turn,g000019_c1,19,,,,,,,,,1.8558606957460375,4.446337391987198,,,,,3.3777,9.624,1.6936,0.0,0.2606,0.005172,0.0,0.0,8.0,,,,,,0.41337,PASS,
156,s06_yaw_pi_turn,g000019_c2,19,,,,,,,,,2.1402707559417515,1.910701865627991,,,,,3.3777,9.6282,1.6934,0.0,0.2605,0.005172,0.0,0.0,8.0,,,,,,0.41337,PASS,
157,s06_yaw_pi_turn,g000019_c3,19,,,,,,,,,3.314180260502977,2.520095040187097,,,,,3.3779,9.6233,1.6939,0.0,0.2606,0.005172,0.0,0.0,8.0,,,,,,0.41339,PASS,
158,s06_yaw_pi_turn,g000019_c4,19,,,,,,,,,2.0728336791678563,3.2814026406984795,,,,,3.3773,9.6234,1.6936,0.0,0.2606,0.005172,0.0,0.0,8.0,,,,,,0.41333,PASS,
159,s06_yaw_pi_turn,g000019_c5,19,,,,,,,,,2.6409684505374895,1.9180213391276326,,,,,3.3776,9.6222,1.6935,0.0,0.2606,0.005172,0.0,0.0,8.0,,,,,,0.41336,PASS,
160,s06_yaw_pi_turn,g000019_c6,19,,,,,,,,,1.989353513051746,2.007735323410847,,,,,3.3773,9.6182,1.6933,0.0,0.2606,0.005172,0.0,0.0,8.0,,,,,,0.41333,PASS,
161,s06_yaw_pi_turn,g000019_c7,19,,,,,,,,,1.474049060694585,3.519602756300797,,,,,3.3776,9.627,1.6934,0.0,0.2605,0.005172,0.0,0.0,8.0,,,,,,0.41366,PASS,
162,s06_yaw_pi_turn,g000020_c0,20,,,,,,,,,2.4578397974707706,2.8134682266508255,,,,,3.3775,9.6236,1.6933,0.0,0.2605,0.005172,0.0,0.0,8.0,,,,,,0.41335,PASS,
163,s06_yaw_pi_turn,g000020_c1,20,,,,,,,,,1.6044273114283105,3.1734436742561245,,,,,3.377,9.6203,1.693,0.0,0.2605,0.005172,0.0,0.0,8.0,,,,,,0.4133,PASS,
164,s06_yaw_pi_turn,g000020_c2,20,,,,,,,,,1.8359296350195,2.801077716842011,,,,,3.3777,9.6247,1.6938,0.0,0.2606,0.005172,0.0,0.0,8.0,,,,,,0.41337,PASS,
165,s06_yaw_pi_turn,g000020_c3,20,,,,,,,,,1.3687470829921131,1.7740439546906008,,,,,3.3776,9.6233,1.6933,0.0,0.2605,0.005172,0.0,0.0,8.0,,,,,,0.41366,PASS,
166,s06_yaw_pi_turn,g000020_c4,20,,,,,,,,,2.769249065249697,2.46799957764788,,,,,3.3777,9.6213,1.6935,0.0,0.2606,0.005172,0.0,0.0,8.0,,,,,,0.41337,PASS,
167,s06_yaw_pi_turn,g000020_c5,20,,,,,,,,,1.1483689650057156,1.7408834595360843,,,,,3.3775,9.6261,1.6933,0.0,0.2606,0.005172,0.0,0.0,8.0,,,,,,0.41365,PASS,
168,s06_yaw_pi_turn,g000020_c6,20,,,,,,,,,3.389940533910295,2.6698272172832294,,,,,3.3777,9.6261,1.6935,0.0,0.2606,0.005172,0.0,0.0,8.0,,,,,,0.41337,PASS,
169,s06_yaw_pi_turn,g000020_c7,20,,,,,,,,,3.2490859000007357,2.121161728916442,,,,,3.3777,9.6246,1.6936,0.0,0.2605,0.005172,0.0,0.0,8.0,,,,,,0.41337,PASS,
170,s06_yaw_pi_turn,g000021_c0,21,,,,,,,,,1.7438507906768543,2.8234555630343436,,,,,3.3779,9.6249,1.6936,0.0,0.2605,0.005172,0.0,0.0,8.0,,,,,,0.41339,PASS,
171,s06_yaw_pi_turn,g000021_c1,21,,,,,,,,,1.795765333925392,4.407723546012066,,,,,3.3773,9.6232,1.6932,0.0,0.2605,0.005172,0.0,0.0,8.0,,,,,,0.41363,PASS,
172,s06_yaw_pi_turn,g000021_c2,21,,,,,,,,,1.6717199574152286,3.5162254100407675,,,,,3.3776,9.6244,1.6932,0.0,0.2605,0.005172,0.0,0.0,8.0,,,,,,0.41336,PASS,
173,s06_yaw_pi_turn,g000021_c3,21,,,,,,,,,1.4092270802764904,4.108312314172363,,,,,3.3777,9.6215,1.6936,0.0,0.2606,0.005172,0.0,0.0,8.0,,,,,,0.41367,PASS,
174,s06_yaw_pi_turn,g000021_c4,21,,,,,,,,,1.7795270823267493,4.541810197199965,,,,,3.3774,9.623,1.6935,0.0,0.2606,0.005172,0.0,0.0,8.0,,,,,,0.41364,PASS,
175,s06_yaw_pi_turn,g000021_c5,21,,,,,,,,,1.7241644019522642,2.9690344073511907,,,,,3.3772,9.6177,1.6936,0.0,0.2606,0.005172,0.0,0.0,8.0,,,,,,0.41332,PASS,
176,s06_yaw_pi_turn,g000021_c6,21,,,,,,,,,1.3114305588329083,3.917453867941163,,,,,3.3776,9.6245,1.6935,0.0,0.2606,0.005172,0.0,0.0,8.0,,,,,,0.41366,PASS,
177,s06_yaw_pi_turn,g000021_c7,21,,,,,,,,,1.5833301325441345,3.8584255866450166,,,,,3.3773,9.6216,1.6934,0.0,0.2606,0.005172,0.0,0.0,8.0,,,,,,0.41363,PASS,
178,s06_yaw_pi_turn,g000022_c0,22,,,,,,,,,2.218504744837394,3.595458071564951,,,,,3.3772,9.6234,1.6933,0.0,0.2605,0.005172,0.0,0.0,8.0,,,,,,0.41332,PASS,
179,s06_yaw_pi_turn,g000022_c1,22,,,,,,,,,1.7829788890126408,4.074491009447093,,,,,3.3776,9.6226,1.6934,0.0,0.2606,0.005172,0.0,0.0,8.0,,,,,,0.41336,PASS,
180,s06_yaw_pi_turn,g000022_c2,22,,,,,,,,,1.1882268232507351,3.4692618324257687,,,,,3.3774,9.618,1.6935,0.0,0.2606,0.005172,0.0,0.0,8.0,,,,,,0.41364,PASS,
181,s06_yaw_pi_turn,g000022_c3,22,,,,,,,,,1.4321865332121815,3.0094660187059064,,,,,3.3776,9.6242,1.6934,0.0,0.2605,0.005172,0.0,0.0,8.0,,,,,,0.41336,PASS,
182,s06_yaw_pi_turn,g000022_c4,22,,,,,,,,,1.134717633509507,3.7394112465243845,,,,,3.3774,9.6197,1.6935,0.0,0.2605,0.005172,0.0,0.0,8.0,,,,,,0.41364,PASS,
183,s06_yaw_pi_turn,g000022_c5,22,,,,,,,,,1.7488414325932278,3.824856557960836,,,,,3.3776,9.6205,1.6937,0.0,0.2606,0.005172,0.0,0.0,8.0,,,,,,0.41336,PASS,
184,s06_yaw_pi_turn,g000022_c6,22,,,,,,,,,1.5813958864947708,2.6675062517413233,,,,,3.3776,9.6256,1.6932,0.0,0.2605,0.005172,0.0,0.0,8.0,,,,,,0.41336,PASS,
185,s06_yaw_pi_turn,g000022_c7,22,,,,,,,,,1.7339576878313598,3.325650762928934,,,,,3.3775,9.6246,1.6937,0.0,0.2606,0.005172,0.0,0.0,8.0,,,,,,0.41335,PASS,
186,s06_yaw_pi_turn,g000023_c0,23,,,,,,,,,2.217854933562158,2.5387703790991503,,,,,3.3777,9.6243,1.6935,0.0,0.2606,0.005172,0.0,0.0,8.0,,,,,,0.41337,PASS,
187,s06_yaw_pi_turn,g000023_c1,23,,,,,,,,,1.7390143584704552,3.714090718932694,,,,,3.3776,9.6272,1.6934,0.0,0.2606,0.005172,0.0,0.0,8.0,,,,,,0.41336,PASS,
188,s06_yaw_pi_turn,g000023_c2,23,,,,,,,,,1.7226916547306763,3.5906776682052324,,,,,3.3777,9.6242,1.6934,0.0,0.2605,0.005172,0.0,0.0,8.0,,,,,,0.41337,PASS,
189,s06_yaw_pi_turn,g000023_c3,23,,,,,,,,,1.5237311280149073,2.8822872926086447,,,,,3.3773,9.6216,1.6934,0.0,0.2605,0.005172,0.0,0.0,8.0,,,,,,0.41363,PASS,
190,s06_yaw_pi_turn,g000023_c4,23,,,,,,,,,1.4645312759344575,3.3301560037920686,,,,,3.3773,9.6198,1.6933,0.0,0.2606,0.005172,0.0,0.0,8.0,,,,,,0.41363,PASS,
191,s06_yaw_pi_turn,g000023_c5,23,,,,,,,,,1.5136648413738416,3.0834454960697704,,,,,3.3773,9.6248,1.6932,0.0,0.2605,0.005172,0.0,0.0,8.0,,,,,,0.41333,PASS,
192,s06_yaw_pi_turn,g000023_c6,23,,,,,,,,,1.6168879740554833,2.6484673017818476,,,,,3.3777,9.6241,1.6935,0.0,0.2606,0.005172,0.0,0.0,8.0,,,,,,0.41337,PASS,
193,s06_yaw_pi_turn,g000023_c7,23,,,,,,,,,1.6862263471573642,3.2111408397807906,,,,,3.3779,9.6278,1.6935,0.0,0.2606,0.005172,0.0,0.0,8.0,,,,,,0.41339,PASS,
194,s06_yaw_pi_turn,g000024_c0,24,,,,,,,,,1.5203998765327997,2.7283770237587515,,,,,3.3774,9.6247,1.6931,0.0,0.2605,0.005172,0.0,0.0,8.0,,,,,,0.41364,PASS,
195,s06_yaw_pi_turn,g000024_c1,24,,,,,,,,,1.6586054145493287,3.006744440067438,,,,,3.3776,9.6232,1.6936,0.0,0.2606,0.005172,0.0,0.0,8.0,,,,,,0.41336,PASS,
196,s06_yaw_pi_turn,g000024_c2,24,,,,,,,,,1.6266016899503575,3.406964705659557,,,,,3.3776,9.625,1.6934,0.0,0.2606,0.005172,0.0,0.0,8.0,,,,,,0.41336,PASS,
197,s06_yaw_pi_turn,g000024_c3,24,,,,,,,,,1.6337199912750446,3.2075874059855196,,,,,3.3776,9.6231,1.6936,0.0,0.2606,0.005172,0.0,0.0,8.0,,,,,,0.41336,PASS,
198,s06_yaw_pi_turn,g000024_c4,24,,,,,,,,,1.324500005392939,3.4690663193198494,,,,,3.3776,9.6245,1.6936,0.0,0.2606,0.005172,0.0,0.0,8.0,,,,,,0.41366,PASS,
199,s06_yaw_pi_turn,g000024_c5,24,,,,,,,,,1.599688417243004,3.1652322464520073,,,,,3.3775,9.6221,1.6935,0.0,0.2606,0.005172,0.0,0.0,8.0,,,,,,0.41335,PASS,
200,s06_yaw_pi_turn,g000024_c6,24,,,,,,,,,1.7015480308185895,3.3442644210367063,,,,,3.3775,9.6255,1.6933,0.0,0.2605,0.005172,0.0,0.0,8.0,,,,,,0.41335,PASS,
201,s06_yaw_pi_turn,g000024_c7,24,,,,,,,,,1.7187379153494862,3.2096638448288815,,,,,3.377,9.62,1.6934,0.0,0.2605,0.005172,0.0,0.0,8.0,,,,,,0.4133,PASS,
202,s06_yaw_pi_turn,g000025_c0,25,,,,,,,,,1.5273589817160758,2.618618366530508,,,,,3.3773,9.6266,1.6933,0.0,0.2606,0.005172,0.0,0.0,8.0,,,,,,0.41333,PASS,
203,s06_yaw_pi_turn,g000025_c1,25,,,,,,,,,1.4157742662923742,3.1424040308665186,,,,,3.3776,9.6241,1.6935,0.0,0.2606,0.005172,0.0,0.0,8.0,,,,,,0.41366,PASS,
204,s06_yaw_pi_turn,g000025_c2,25,,,,,,,,,1.610444723292536,3.435898743937185,,,,,3.3781,9.6282,1.6937,0.0,0.2605,0.005172,0.0,0.0,8.0,,,,,,0.41341,PASS,
205,s06_yaw_pi_turn,g000025_c3,25,,,,,,,,,1.6202584044363386,3.463761268949809,,,,,3.3776,9.6198,1.6938,0.0,0.2606,0.005172,0.0,0.0,8.0,,,,,,0.41336,PASS,
206,s06_yaw_pi_turn,g000025_c4,25,,,,,,,,,1.6598393905644186,2.8245583180618787,,,,,3.3776,9.6227,1.6935,0.0,0.2606,0.005172,0.0,0.0,8.0,,,,,,0.41336,PASS,
207,s06_yaw_pi_turn,g000025_c5,25,,,,,,,,,1.8534499840656367,3.182693750716525,,,,,3.3775,9.6211,1.6932,0.0,0.2606,0.005172,0.0,0.0,8.0,,,,,,0.41335,PASS,
208,s06_yaw_pi_turn,g000025_c6,25,,,,,,,,,1.8077601205586273,3.216876763504572,,,,,3.3778,9.6251,1.6935,0.0,0.2605,0.005172,0.0,0.0,8.0,,,,,,0.41338,PASS,
209,s06_yaw_pi_turn,g000025_c7,25,,,,,,,,,1.5463512230957848,2.9723254725954362,,,,,3.3774,9.6202,1.6934,0.0,0.2605,0.005172,0.0,0.0,8.0,,,,,,0.41334,PASS,
210,s06_yaw_pi_turn,g000026_c0,26,,,,,,,,,1.6989883891735649,2.8768348817400575,,,,,3.3772,9.6232,1.6933,0.0,0.2605,0.005172,0.0,0.0,8.0,,,,,,0.41332,PASS,
211,s06_yaw_pi_turn,g000026_c1,26,,,,,,,,,1.4432987688066679,3.5772618531926352,,,,,3.3774,9.6193,1.6934,0.0,0.2605,0.005172,0.0,0.0,8.0,,,,,,0.41364,PASS,
212,s06_yaw_pi_turn,g000026_c2,26,,,,,,,,,1.6663307462838033,3.18490270376694,,,,,3.3776,9.6253,1.6933,0.0,0.2606,0.005172,0.0,0.0,8.0,,,,,,0.41336,PASS,
213,s06_yaw_pi_turn,g000026_c3,26,,,,,,,,,1.5506093472102087,3.613176845607661,,,,,3.3778,9.6271,1.6935,0.0,0.2606,0.005172,0.0,0.0,8.0,,,,,,0.41368,PASS,
214,s06_yaw_pi_turn,g000026_c4,26,,,,,,,,,1.6845814962660182,3.6451343405452166,,,,,3.3776,9.6241,1.6935,0.0,0.2606,0.005172,0.0,0.0,8.0,,,,,,0.41366,PASS,
215,s06_yaw_pi_turn,g000026_c5,26,,,,,,,,,1.7042607135990533,3.6646017578330414,,,,,3.3775,9.6238,1.6934,0.0,0.2605,0.005172,0.0,0.0,8.0,,,,,,0.41335,PASS,
216,s06_yaw_pi_turn,g000026_c6,26,,,,,,,,,1.4642103672143538,2.6778230172153497,,,,,3.3774,9.6223,1.6932,0.0,0.2605,0.005172,0.0,0.0,8.0,,,,,,0.41364,PASS,
217,s06_yaw_pi_turn,g000026_c7,26,,,,,,,,,1.5833937002764669,3.2323490318304318,,,,,3.3776,9.6237,1.6933,0.0,0.2605,0.005172,0.0,0.0,8.0,,,,,,0.41336,PASS,
218,s06_yaw_pi_turn,g000027_c0,27,,,,,,,,,1.8125764434259606,3.026317194744141,,,,,3.3776,9.6223,1.6934,0.0,0.2605,0.005172,0.0,0.0,8.0,,,,,,0.41336,PASS,
219,s06_yaw_pi_turn,g000027_c1,27,,,,,,,,,1.612975443264675,3.161833608598114,,,,,3.3773,9.6193,1.693,0.0,0.2606,0.005172,0.0,0.0,8.0,,,,,,0.41333,PASS,
220,s06_yaw_pi_turn,g000027_c2,27,,,,,,,,,1.6025282868128912,3.0928875210305327,,,,,3.3776,9.623,1.6933,0.0,0.2605,0.005172,0.0,0.0,8.0,,,,,,0.41336,PASS,
221,s06_yaw_pi_turn,g000027_c3,27,,,,,,,,,1.6200491462880597,3.406688419912492,,,,,3.3772,9.623,1.6934,0.0,0.2605,0.005172,0.0,0.0,8.0,,,,,,0.41362,PASS,
222,s06_yaw_pi_turn,g000027_c4,27,,,,,,,,,1.6083138148413627,3.3108004567808145,,,,,3.3774,9.6219,1.6936,0.0,0.2605,0.005172,0.0,0.0,8.0,,,,,,0.41334,PASS,
223,s06_yaw_pi_turn,g000027_c5,27,,,,,,,,,1.6008767764492642,3.3613513692395203,,,,,3.3776,9.6246,1.6931,0.0,0.2605,0.005172,0.0,0.0,8.0,,,,,,0.41336,PASS,
224,s06_yaw_pi_turn,g000027_c6,27,,,,,,,,,1.6030947056561142,3.2891208209136313,,,,,3.3777,9.6215,1.6935,0.0,0.2605,0.005172,0.0,0.0,8.0,,,,,,0.41337,PASS,
225,s06_yaw_pi_turn,g000027_c7,27,,,,,,,,,1.6388785121094045,3.220330318031356,,,,,3.3777,9.6208,1.6934,0.0,0.2605,0.005172,0.0,0.0,8.0,,,,,,0.41337,PASS,
226,s06_yaw_pi_turn,g000028_c0,28,,,,,,,,,1.7077104019896543,3.1970490507587885,,,,,3.3773,9.6255,1.6933,0.0,0.2606,0.005172,0.0,0.0,8.0,,,,,,0.41333,PASS,
227,s06_yaw_pi_turn,g000028_c1,28,,,,,,,,,1.6988064400484255,3.05190452502884,,,,,3.3776,9.6236,1.6934,0.0,0.2606,0.005172,0.0,0.0,8.0,,,,,,0.41336,PASS,
228,s06_yaw_pi_turn,g000028_c2,28,,,,,,,,,1.6284359887257778,3.115200851095873,,,,,3.3776,9.6274,1.6932,0.0,0.2605,0.005172,0.0,0.0,8.0,,,,,,0.41336,PASS,
229,s06_yaw_pi_turn,g000028_c3,28,,,,,,,,,1.5711288046002536,3.0427511707535784,,,,,3.3776,9.6221,1.6933,0.0,0.2605,0.005172,0.0,0.0,8.0,,,,,,0.41366,PASS,
230,s06_yaw_pi_turn,g000028_c4,28,,,,,,,,,1.6593957476854375,3.2291295754005063,,,,,3.3778,9.6217,1.6938,0.0,0.2606,0.005172,0.0,0.0,8.0,,,,,,0.41338,PASS,
231,s06_yaw_pi_turn,g000028_c5,28,,,,,,,,,1.586975718946501,2.8149596695211434,,,,,3.3776,9.6175,1.6933,0.0,0.2605,0.005172,0.0,0.0,8.0,,,,,,0.41336,PASS,
232,s06_yaw_pi_turn,g000028_c6,28,,,,,,,,,1.5689013649090473,3.115998037713155,,,,,3.3772,9.6216,1.6933,0.0,0.2605,0.005172,0.0,0.0,8.0,,,,,,0.41332,PASS,
233,s06_yaw_pi_turn,g000028_c7,28,,,,,,,,,1.6300212521623736,3.0934733611832175,,,,,3.3775,9.6247,1.6933,0.0,0.2605,0.005172,0.0,0.0,8.0,,,,,,0.41335,PASS,
234,s06_yaw_pi_turn,g000029_c0,29,,,,,,,,,1.6934123632545528,3.0805940219547963,,,,,3.3772,9.622,1.6933,0.0,0.2606,0.005172,0.0,0.0,8.0,,,,,,0.41332,PASS,
235,s06_yaw_pi_turn,g000029_c1,29,,,,,,,,,1.6864892212610385,3.4010402493632204,,,,,3.3776,9.6223,1.6935,0.0,0.2606,0.005172,0.0,0.0,8.0,,,,,,0.41336,PASS,
236,s06_yaw_pi_turn,g000029_c2,29,,,,,,,,,1.6120442305394194,3.0421899464102404,,,,,3.3775,9.6189,1.6936,0.0,0.2606,0.005172,0.0,0.0,8.0,,,,,,0.41335,PASS,
237,s06_yaw_pi_turn,g000029_c3,29,,,,,,,,,1.5119196707862683,3.3121919905983166,,,,,3.3776,9.6242,1.6932,0.0,0.2605,0.005172,0.0,0.0,8.0,,,,,,0.41366,PASS,
238,s06_yaw_pi_turn,g000029_c4,29,,,,,,,,,1.6479569096125215,3.2350476360829417,,,,,3.3774,9.6228,1.6933,0.0,0.2606,0.005172,0.0,0.0,8.0,,,,,,0.41334,PASS,
239,s06_yaw_pi_turn,g000029_c5,29,,,,,,,,,1.6647443114086158,3.201248483647184,,,,,3.3776,9.622,1.6934,0.0,0.2606,0.005172,0.0,0.0,8.0,,,,,,0.41336,PASS,
240,s06_yaw_pi_turn,g000029_c6,29,,,,,,,,,1.5358031311138112,3.2375432834945235,,,,,3.3773,9.6175,1.6935,0.0,0.2606,0.005172,0.0,0.0,8.0,,,,,,0.41333,PASS,
241,s06_yaw_pi_turn,g000029_c7,29,,,,,,,,,1.5354647992107184,3.0339488365377236,,,,,3.3774,9.6256,1.6932,0.0,0.2606,0.005172,0.0,0.0,8.0,,,,,,0.41334,PASS,
242,s06_yaw_pi_turn,g000030_c0,30,,,,,,,,,1.5923319272708465,3.0257824708208645,,,,,3.3777,9.6232,1.6935,0.0,0.2605,0.005172,0.0,0.0,8.0,,,,,,0.41337,PASS,
243,s06_yaw_pi_turn,g000030_c1,30,,,,,,,,,1.6209824819073326,3.1237207089927876,,,,,3.3778,9.6261,1.6936,0.0,0.2606,0.005172,0.0,0.0,8.0,,,,,,0.41338,PASS,
244,s06_yaw_pi_turn,g000030_c2,30,,,,,,,,,1.620065409629458,3.1975531229062573,,,,,3.3777,9.6221,1.6938,0.0,0.2606,0.005172,0.0,0.0,8.0,,,,,,0.41337,PASS,
245,s06_yaw_pi_turn,g000030_c3,30,,,,,,,,,1.6482237297705011,3.2508381103054393,,,,,3.3775,9.6242,1.6934,0.0,0.2606,0.005172,0.0,0.0,8.0,,,,,,0.41335,PASS,
246,s06_yaw_pi_turn,g000030_c4,30,,,,,,,,,1.6310126512574563,3.2819258752108507,,,,,3.3776,9.6214,1.6933,0.0,0.2605,0.005172,0.0,0.0,8.0,,,,,,0.41336,PASS,
247,s06_yaw_pi_turn,g000030_c5,30,,,,,,,,,1.5719641139607228,3.1127474148074934,,,,,3.3774,9.6223,1.6932,0.0,0.2605,0.005172,0.0,0.0,8.0,,,,,,0.41334,PASS,
248,s06_yaw_pi_turn,g000030_c6,30,,,,,,,,,1.6416939368565764,3.137131251990911,,,,,3.3776,9.6243,1.6935,0.0,0.2606,0.005172,0.0,0.0,8.0,,,,,,0.41336,PASS,
249,s06_yaw_pi_turn,g000030_c7,30,,,,,,,,,1.6764564675301097,3.1771615471915506,,,,,3.3779,9.6284,1.6936,0.0,0.2606,0.005172,0.0,0.0,8.0,,,,,,0.41339,PASS,
250,s06_yaw_pi_turn,g000031_c0,31,,,,,,,,,1.5811479733606286,3.103010667837511,,,,,3.3776,9.6246,1.6936,0.0,0.2606,0.005172,0.0,0.0,8.0,,,,,,0.41336,PASS,
251,s06_yaw_pi_turn,g000031_c1,31,,,,,,,,,1.628192544275673,3.1623131888892266,,,,,3.3778,9.6235,1.6936,0.0,0.2606,0.005172,0.0,0.0,8.0,,,,,,0.41338,PASS,
252,s06_yaw_pi_turn,g000031_c2,31,,,,,,,,,1.6539577635474667,3.092484605480206,,,,,3.3777,9.6261,1.6933,0.0,0.2606,0.005172,0.0,0.0,8.0,,,,,,0.41337,PASS,
253,s06_yaw_pi_turn,g000031_c3,31,,,,,,,,,1.5861598883023535,3.079085416417731,,,,,3.3775,9.6194,1.6937,0.0,0.2605,0.005172,0.0,0.0,8.0,,,,,,0.41335,PASS,
254,s06_yaw_pi_turn,g000031_c4,31,,,,,,,,,1.5852188344183347,3.2655086361145806,,,,,3.3778,9.6277,1.6932,0.0,0.2606,0.005172,0.0,0.0,8.0,,,,,,0.41338,PASS,
255,s06_yaw_pi_turn,g000031_c5,31,,,,,,,,,1.61380606325909,3.3244795184571774,,,,,3.3778,9.621,1.6936,0.0,0.2606,0.005172,0.0,0.0,8.0,,,,,,0.41338,PASS,
256,s06_yaw_pi_turn,g000031_c6,31,,,,,,,,,1.6197591718145479,3.144768135565049,,,,,3.3779,9.6263,1.6932,0.0,0.2605,0.005172,0.0,0.0,8.0,,,,,,0.41339,PASS,
257,s06_yaw_pi_turn,g000031_c7,31,,,,,,,,,1.6550585974977134,2.996671397837313,,,,,3.3774,9.6228,1.6933,0.0,0.2606,0.005172,0.0,0.0,8.0,,,,,,0.41334,PASS,
258,s06_yaw_pi_turn,g000032_c0,32,,,,,,,,,1.560131750771007,3.1278306933235087,,,,,3.3774,9.6283,1.6934,0.0,0.2606,0.005172,0.0,0.0,8.0,,,,,,0.41334,PASS,
259,s06_yaw_pi_turn,g000032_c1,32,,,,,,,,,1.6250732121910942,3.191327765433304,,,,,3.3773,9.6206,1.6935,0.0,0.2605,0.005172,0.0,0.0,8.0,,,,,,0.41333,PASS,
260,s06_yaw_pi_turn,g000032_c2,32,,,,,,,,,1.6278487550601572,3.20837006360689,,,,,3.3774,9.6214,1.6935,0.0,0.2606,0.005172,0.0,0.0,8.0,,,,,,0.41334,PASS,
261,s06_yaw_pi_turn,g000032_c3,32,,,,,,,,,1.5918224693808758,3.128861774110925,,,,,3.3775,9.6233,1.693,0.0,0.2606,0.005172,0.0,0.0,8.0,,,,,,0.41335,PASS,
262,s06_yaw_pi_turn,g000032_c4,32,,,,,,,,,1.557508396482821,3.2438484801874443,,,,,3.3774,9.6245,1.6934,0.0,0.2605,0.005172,0.0,0.0,8.0,,,,,,0.41334,PASS,
263,s06_yaw_pi_turn,g000032_c5,32,,,,,,,,,1.5898360884935698,3.130250575457821,,,,,3.3777,9.6219,1.6935,0.0,0.2606,0.005172,0.0,0.0,8.0,,,,,,0.41337,PASS,
264,s06_yaw_pi_turn,g000032_c6,32,,,,,,,,,1.6208034942950624,3.0418961015969654,,,,,3.3774,9.618,1.6937,0.0,0.2605,0.005172,0.0,0.0,8.0,,,,,,0.41364,PASS,
265,s06_yaw_pi_turn,g000032_c7,32,,,,,,,,,1.6364594297068435,3.1342097111172356,,,,,3.3779,9.626,1.6934,0.0,0.2605,0.005172,0.0,0.0,8.0,,,,,,0.41339,PASS,
266,s06_yaw_pi_turn,g000033_c0,33,,,,,,,,,1.5793023032455809,3.221546622761035,,,,,3.3773,9.6232,1.6934,0.0,0.2606,0.005172,0.0,0.0,8.0,,,,,,0.41333,PASS,
267,s06_yaw_pi_turn,g000033_c1,33,,,,,,,,,1.593071214616467,3.1129274667849085,,,,,3.3777,9.6256,1.6935,0.0,0.2606,0.005172,0.0,0.0,8.0,,,,,,0.41337,PASS,
268,s06_yaw_pi_turn,g000033_c2,33,,,,,,,,,1.6017385263367945,3.1924101224800165,,,,,3.3773,9.626,1.6933,0.0,0.2605,0.005172,0.0,0.0,8.0,,,,,,0.41333,PASS,
269,s06_yaw_pi_turn,g000033_c3,33,,,,,,,,,1.580031807876409,3.0251460447144005,,,,,3.3777,9.6249,1.6934,0.0,0.2605,0.005172,0.0,0.0,8.0,,,,,,0.41337,PASS,
270,s06_yaw_pi_turn,g000033_c4,33,,,,,,,,,1.57468229087883,3.19811035122224,,,,,3.3773,9.6172,1.6931,0.0,0.2606,0.005172,0.0,0.0,8.0,,,,,,0.41333,PASS,
271,s06_yaw_pi_turn,g000033_c5,33,,,,,,,,,1.5774943624036557,3.239633501238201,,,,,3.3774,9.6166,1.6935,0.0,0.2606,0.005172,0.0,0.0,8.0,,,,,,0.41334,PASS,
272,s06_yaw_pi_turn,g000033_c6,33,,,,,,,,,1.5881002303081448,3.1960469375439895,,,,,3.3775,9.6222,1.6936,0.0,0.2606,0.005172,0.0,0.0,8.0,,,,,,0.41335,PASS,
273,s06_yaw_pi_turn,g000033_c7,33,,,,,,,,,1.6764855503118474,3.1666273891979153,,,,,3.3778,9.6251,1.6936,0.0,0.2605,0.005172,0.0,0.0,8.0,,,,,,0.41338,PASS,
274,s06_yaw_pi_turn,g000034_c0,34,,,,,,,,,1.6208078807052928,3.0725458945535182,,,,,3.3776,9.6257,1.6935,0.0,0.2605,0.005172,0.0,0.0,8.0,,,,,,0.41336,PASS,
275,s06_yaw_pi_turn,g000034_c1,34,,,,,,,,,1.6502745471024707,3.2612697883171116,,,,,3.3775,9.6264,1.6935,0.0,0.2605,0.005172,0.0,0.0,8.0,,,,,,0.41335,PASS,
276,s06_yaw_pi_turn,g000034_c2,34,,,,,,,,,1.6058877029045768,3.3036821691884155,,,,,3.3778,9.6232,1.6936,0.0,0.2606,0.005172,0.0,0.0,8.0,,,,,,0.41338,PASS,
277,s06_yaw_pi_turn,g000034_c3,34,,,,,,,,,1.5317572298227793,3.1973216353885126,,,,,3.3775,9.6267,1.6933,0.0,0.2605,0.005172,0.0,0.0,8.0,,,,,,0.41335,PASS,
278,s06_yaw_pi_turn,g000034_c4,34,,,,,,,,,1.662707471211545,3.231034572942653,,,,,3.3775,9.626,1.6933,0.0,0.2605,0.005172,0.0,0.0,8.0,,,,,,0.41335,PASS,
279,s06_yaw_pi_turn,g000034_c5,34,,,,,,,,,1.588528461793827,3.0497065464740296,,,,,3.3775,9.6241,1.6936,0.0,0.2605,0.005172,0.0,0.0,8.0,,,,,,0.41335,PASS,
280,s06_yaw_pi_turn,g000034_c6,34,,,,,,,,,1.653815049289852,3.2260481223935935,,,,,3.3774,9.6224,1.6934,0.0,0.2605,0.005172,0.0,0.0,8.0,,,,,,0.41334,PASS,
281,s06_yaw_pi_turn,g000034_c7,34,,,,,,,,,1.6020073895802027,3.2116093185236534,,,,,3.3778,9.6238,1.6932,0.0,0.2605,0.005172,0.0,0.0,8.0,,,,,,0.41368,PASS,
282,s06_yaw_pi_turn,g000035_c0,35,,,,,,,,,1.595984095965056,3.207560819502767,,,,,3.3775,9.6194,1.6931,0.0,0.2605,0.005172,0.0,0.0,8.0,,,,,,0.41335,PASS,
283,s06_yaw_pi_turn,g000035_c1,35,,,,,,,,,1.5860235260726598,3.2516192889782998,,,,,3.3774,9.6193,1.6934,0.0,0.2605,0.005172,0.0,0.0,8.0,,,,,,0.41334,PASS,
284,s06_yaw_pi_turn,g000035_c2,35,,,,,,,,,1.6023288026368452,3.0551759926894717,,,,,3.3772,9.6205,1.6934,0.0,0.2605,0.005172,0.0,0.0,8.0,,,,,,0.41332,PASS,
285,s06_yaw_pi_turn,g000035_c3,35,,,,,,,,,1.5504417660381953,3.141078820433956,,,,,3.3775,9.6197,1.6934,0.0,0.2605,0.005172,0.0,0.0,8.0,,,,,,0.41335,PASS,
286,s06_yaw_pi_turn,g000035_c4,35,,,,,,,,,1.583025733499542,3.0655206527481957,,,,,3.3773,9.6231,1.6931,0.0,0.2605,0.005172,0.0,0.0,8.0,,,,,,0.41333,PASS,
287,s06_yaw_pi_turn,g000035_c5,35,,,,,,,,,1.6152669221631526,3.1465706467664747,,,,,3.3776,9.6259,1.6937,0.0,0.2606,0.005172,0.0,0.0,8.0,,,,,,0.41336,PASS,
288,s06_yaw_pi_turn,g000035_c6,35,,,,,,,,,1.5148205723450823,3.115630013435695,,,,,3.3773,9.6219,1.6933,0.0,0.2606,0.005172,0.0,0.0,8.0,,,,,,0.41363,PASS,
289,s06_yaw_pi_turn,g000035_c7,35,,,,,,,,,1.6075449174980554,3.178277650019273,,,,,3.3775,9.6209,1.6934,0.0,0.2605,0.005172,0.0,0.0,8.0,,,,,,0.41335,PASS,
290,s06_yaw_pi_turn,g000036_c0,36,,,,,,,,,1.5492103080538018,3.2531659035257334,,,,,3.3775,9.6226,1.6935,0.0,0.2606,0.005172,0.0,0.0,8.0,,,,,,0.41365,PASS,
291,s06_yaw_pi_turn,g000036_c1,36,,,,,,,,,1.6642881594868688,3.115895032180623,,,,,3.378,9.626,1.6937,0.0,0.2605,0.005172,0.0,0.0,8.0,,,,,,0.4134,PASS,
292,s06_yaw_pi_turn,g000036_c2,36,,,,,,,,,1.5681252276896736,3.181260762466466,,,,,3.3778,9.6237,1.6936,0.0,0.2606,0.005172,0.0,0.0,8.0,,,,,,0.41368,PASS,
293,s06_yaw_pi_turn,g000036_c3,36,,,,,,,,,1.5164679137701902,3.0999540574833055,,,,,3.3775,9.6229,1.6935,0.0,0.2605,0.005172,0.0,0.0,8.0,,,,,,0.41365,PASS,
294,s06_yaw_pi_turn,g000036_c4,36,,,,,,,,,1.6231726651092662,3.1809327835274366,,,,,3.3776,9.6233,1.6932,0.0,0.2605,0.005172,0.0,0.0,8.0,,,,,,0.41336,PASS,
295,s06_yaw_pi_turn,g000036_c5,36,,,,,,,,,1.5846441755080085,3.116276499990052,,,,,3.3773,9.6265,1.6931,0.0,0.2605,0.005172,0.0,0.0,8.0,,,,,,0.41333,PASS,
296,s06_yaw_pi_turn,g000036_c6,36,,,,,,,,,1.601601174981384,3.1199926296902905,,,,,3.3773,9.6224,1.6932,0.0,0.2606,0.005172,0.0,0.0,8.0,,,,,,0.41333,PASS,
297,s06_yaw_pi_turn,g000036_c7,36,,,,,,,,,1.5501932677418642,3.0537239514662304,,,,,3.3775,9.6253,1.6934,0.0,0.2605,0.005172,0.0,0.0,8.0,,,,,,0.41335,PASS,
298,s06_yaw_pi_turn,g000037_c0,37,,,,,,,,,1.612227562894992,3.122326391938803,,,,,3.3775,9.6209,1.6933,0.0,0.2606,0.005172,0.0,0.0,8.0,,,,,,0.41335,PASS,
299,s06_yaw_pi_turn,g000037_c1,37,,,,,,,,,1.5747619945256208,3.2191545883888026,,,,,3.3778,9.6254,1.6936,0.0,0.2605,0.005172,0.0,0.0,8.0,,,,,,0.41338,PASS,
300,s06_yaw_pi_turn,g000037_c2,37,,,,,,,,,1.6665256863377802,3.1898311187034847,,,,,3.3777,9.6218,1.6936,0.0,0.2605,0.005172,0.0,0.0,8.0,,,,,,0.41337,PASS,
301,s06_yaw_pi_turn,g000037_c3,37,,,,,,,,,1.6391716659566213,3.162573989472543,,,,,3.3773,9.6243,1.6933,0.0,0.2606,0.005172,0.0,0.0,8.0,,,,,,0.41333,PASS,
302,s06_yaw_pi_turn,g000037_c4,37,,,,,,,,,1.6196560978625003,3.150578390152356,,,,,3.3773,9.6189,1.6932,0.0,0.2605,0.005172,0.0,0.0,8.0,,,,,,0.41333,PASS,
303,s06_yaw_pi_turn,g000037_c5,37,,,,,,,,,1.6410807063391915,3.2308584849890876,,,,,3.3774,9.6233,1.6935,0.0,0.2605,0.005172,0.0,0.0,8.0,,,,,,0.41334,PASS,
304,s06_yaw_pi_turn,g000037_c6,37,,,,,,,,,1.6343165778831017,3.2641410526695114,,,,,3.3773,9.623,1.6934,0.0,0.2605,0.005172,0.0,0.0,8.0,,,,,,0.41333,PASS,
305,s06_yaw_pi_turn,g000037_c7,37,,,,,,,,,1.6387592455313889,3.2025629504280717,,,,,3.3775,9.6238,1.6935,0.0,0.2605,0.005172,0.0,0.0,8.0,,,,,,0.41335,PASS,
306,s06_yaw_pi_turn,g000038_c0,38,,,,,,,,,1.6033773702957586,3.0649484569244305,,,,,3.3778,9.6222,1.6938,0.0,0.2605,0.005172,0.0,0.0,8.0,,,,,,0.41338,PASS,
307,s06_yaw_pi_turn,g000038_c1,38,,,,,,,,,1.5530795649924776,3.120616034763821,,,,,3.3779,9.621,1.6935,0.0,0.2606,0.005172,0.0,0.0,8.0,,,,,,0.41339,PASS,
308,s06_yaw_pi_turn,g000038_c2,38,,,,,,,,,1.625578728350354,3.203429117389373,,,,,3.3778,9.6256,1.6937,0.0,0.2606,0.005172,0.0,0.0,8.0,,,,,,0.41368,PASS,
309,s06_yaw_pi_turn,g000038_c3,38,,,,,,,,,1.5493285662395753,3.093872358929941,,,,,3.3776,9.6227,1.6933,0.0,0.2605,0.005172,0.0,0.0,8.0,,,,,,0.41366,PASS,
310,s06_yaw_pi_turn,g000038_c4,38,,,,,,,,,1.6070781040109996,3.3262929762603735,,,,,3.3774,9.6216,1.6935,0.0,0.2605,0.005172,0.0,0.0,8.0,,,,,,0.41334,PASS,
311,s06_yaw_pi_turn,g000038_c5,38,,,,,,,,,1.5881773550256406,3.1207331128310334,,,,,3.3776,9.6234,1.6933,0.0,0.2606,0.005172,0.0,0.0,8.0,,,,,,0.41336,PASS,
312,s06_yaw_pi_turn,g000038_c6,38,,,,,,,,,1.6693552057993433,3.2357074658622316,,,,,3.3776,9.6233,1.6935,0.0,0.2605,0.005172,0.0,0.0,8.0,,,,,,0.41336,PASS,
313,s06_yaw_pi_turn,g000038_c7,38,,,,,,,,,1.594494462480024,3.118715319785396,,,,,3.3776,9.6235,1.6934,0.0,0.2605,0.005172,0.0,0.0,8.0,,,,,,0.41336,PASS,
314,s06_yaw_pi_turn,g000039_c0,39,,,,,,,,,1.6283186211019993,3.2426407641143458,,,,,3.3777,9.6259,1.6935,0.0,0.2605,0.005172,0.0,0.0,8.0,,,,,,0.41337,PASS,
315,s06_yaw_pi_turn,g000039_c1,39,,,,,,,,,1.5682605990964509,3.136048903504075,,,,,3.3774,9.6219,1.6935,0.0,0.2605,0.005172,0.0,0.0,8.0,,,,,,0.41334,PASS,
316,s06_yaw_pi_turn,g000039_c2,39,,,,,,,,,1.560503425624428,3.255327719231302,,,,,3.3776,9.6237,1.6931,0.0,0.2605,0.005172,0.0,0.0,8.0,,,,,,0.41336,PASS,
317,s06_yaw_pi_turn,g000039_c3,39,,,,,,,,,1.5446534760821409,3.0724792497646236,,,,,3.3776,9.6242,1.6933,0.0,0.2605,0.005172,0.0,0.0,8.0,,,,,,0.41336,PASS,
318,s06_yaw_pi_turn,g000039_c4,39,,,,,,,,,1.5710152948007996,3.1188299078808215,,,,,3.3779,9.62,1.6935,0.0,0.2606,0.005172,0.0,0.0,8.0,,,,,,0.41369,PASS,
319,s06_yaw_pi_turn,g000039_c5,39,,,,,,,,,1.627650298549081,3.3193582524287484,,,,,3.3778,9.6259,1.6936,0.0,0.2606,0.005172,0.0,0.0,8.0,,,,,,0.41338,PASS,
320,s06_yaw_pi_turn,g000039_c6,39,,,,,,,,,1.622808293290473,3.0293324332130553,,,,,3.3777,9.6214,1.6934,0.0,0.2605,0.005172,0.0,0.0,8.0,,,,,,0.41337,PASS,
321,s06_yaw_pi_turn,g000039_c7,39,,,,,,,,,1.6474608659417522,3.363064832973039,,,,,3.3778,9.6228,1.6938,0.0,0.2606,0.005172,0.0,0.0,8.0,,,,,,0.41368,PASS,
322,s06_yaw_pi_turn,g000040_c0,40,,,,,,,,,1.6442595349408753,3.0336551349499348,,,,,3.3779,9.6273,1.6934,0.0,0.2606,0.005172,0.0,0.0,8.0,,,,,,0.41339,PASS,
323,s06_yaw_pi_turn,g000040_c1,40,,,,,,,,,1.6391270315268227,3.2062307936053456,,,,,3.3774,9.6193,1.6935,0.0,0.2605,0.005172,0.0,0.0,8.0,,,,,,0.41334,PASS,
324,s06_yaw_pi_turn,g000040_c2,40,,,,,,,,,1.608038390106324,3.096559886348152,,,,,3.3775,9.6242,1.6937,0.0,0.2605,0.005172,0.0,0.0,8.0,,,,,,0.41335,PASS,
325,s06_yaw_pi_turn,g000040_c3,40,,,,,,,,,1.5652895672467633,3.180109044509549,,,,,3.3776,9.6214,1.6936,0.0,0.2605,0.005172,0.0,0.0,8.0,,,,,,0.41366,PASS,
326,s06_yaw_pi_turn,g000040_c4,40,,,,,,,,,1.5425006547125995,3.2754848062652546,,,,,3.3774,9.6211,1.6933,0.0,0.2605,0.005172,0.0,0.0,8.0,,,,,,0.41334,PASS,
327,s06_yaw_pi_turn,g000040_c5,40,,,,,,,,,1.6000321238320472,3.1545944159916575,,,,,3.3775,9.6217,1.6934,0.0,0.2605,0.005172,0.0,0.0,8.0,,,,,,0.41335,PASS,
328,s06_yaw_pi_turn,g000040_c6,40,,,,,,,,,1.5524852844737003,3.139325707978579,,,,,3.3776,9.6232,1.6936,0.0,0.2606,0.005172,0.0,0.0,8.0,,,,,,0.41336,PASS,
329,s06_yaw_pi_turn,g000040_c7,40,,,,,,,,,1.5941912576827626,3.1412199180042184,,,,,3.3773,9.6187,1.6935,0.0,0.2606,0.005172,0.0,0.0,8.0,,,,,,0.41333,PASS,
330,s06_yaw_pi_turn,g000041_c0,41,,,,,,,,,1.5940607349007287,3.183242496311179,,,,,3.378,9.6252,1.6935,0.0,0.2605,0.005172,0.0,0.0,8.0,,,,,,0.4134,PASS,
331,s06_yaw_pi_turn,g000041_c1,41,,,,,,,,,1.5507393216687442,3.1798138565478284,,,,,3.3777,9.6244,1.6935,0.0,0.2606,0.005172,0.0,0.0,8.0,,,,,,0.41337,PASS,
332,s06_yaw_pi_turn,g000041_c2,41,,,,,,,,,1.5815722167656716,3.191382589234798,,,,,3.3773,9.6251,1.6932,0.0,0.2605,0.005172,0.0,0.0,8.0,,,,,,0.41333,PASS,
333,s06_yaw_pi_turn,g000041_c3,41,,,,,,,,,1.5263653656615421,3.252287761260475,,,,,3.3774,9.6223,1.6934,0.0,0.2606,0.005172,0.0,0.0,8.0,,,,,,0.41334,PASS,
334,s06_yaw_pi_turn,g000041_c4,41,,,,,,,,,1.5969478233132048,3.074426524403109,,,,,3.3777,9.6193,1.6936,0.0,0.2606,0.005172,0.0,0.0,8.0,,,,,,0.41367,PASS,
335,s06_yaw_pi_turn,g000041_c5,41,,,,,,,,,1.6094557630162416,3.28927333653327,,,,,3.3775,9.6265,1.6931,0.0,0.2605,0.005172,0.0,0.0,8.0,,,,,,0.41335,PASS,
336,s06_yaw_pi_turn,g000041_c6,41,,,,,,,,,1.6410610460499089,3.1938903469219215,,,,,3.3775,9.6231,1.6935,0.0,0.2605,0.005172,0.0,0.0,8.0,,,,,,0.41335,PASS,
337,s06_yaw_pi_turn,g000041_c7,41,,,,,,,,,1.6574532107466236,3.0229825383485642,,,,,3.3774,9.6255,1.6934,0.0,0.2606,0.005172,0.0,0.0,8.0,,,,,,0.41334,PASS,
338,s06_yaw_pi_turn,g000042_c0,42,,,,,,,,,1.600173501415862,3.1481861056790943,,,,,3.3773,9.6217,1.6932,0.0,0.2605,0.005172,0.0,0.0,8.0,,,,,,0.41333,PASS,
339,s06_yaw_pi_turn,g000042_c1,42,,,,,,,,,1.5356197353637573,3.1417542318390033,,,,,3.3776,9.6229,1.6936,0.0,0.2606,0.005172,0.0,0.0,8.0,,,,,,0.41336,PASS,
340,s06_yaw_pi_turn,g000042_c2,42,,,,,,,,,1.6025468964160352,3.2703342408868012,,,,,3.3774,9.6238,1.6931,0.0,0.2605,0.005172,0.0,0.0,8.0,,,,,,0.41334,PASS,
341,s06_yaw_pi_turn,g000042_c3,42,,,,,,,,,1.5941283481092154,3.0933472535232305,,,,,3.3778,9.6225,1.6933,0.0,0.2605,0.005172,0.0,0.0,8.0,,,,,,0.41338,PASS,
342,s06_yaw_pi_turn,g000042_c4,42,,,,,,,,,1.5923288147110857,3.1818864255410406,,,,,3.3773,9.6208,1.6936,0.0,0.2606,0.005172,0.0,0.0,8.0,,,,,,0.41333,PASS,
343,s06_yaw_pi_turn,g000042_c5,42,,,,,,,,,1.5717482620763452,3.1512421523380327,,,,,3.3777,9.6208,1.6936,0.0,0.2605,0.005172,0.0,0.0,8.0,,,,,,0.41367,PASS,
344,s06_yaw_pi_turn,g000042_c6,42,,,,,,,,,1.6190922781040191,3.102497639265002,,,,,3.3776,9.6237,1.6935,0.0,0.2605,0.005172,0.0,0.0,8.0,,,,,,0.41336,PASS,
345,s06_yaw_pi_turn,g000042_c7,42,,,,,,,,,1.583265782180691,3.3350759584831136,,,,,3.378,9.6246,1.6934,0.0,0.2605,0.005172,0.0,0.0,8.0,,,,,,0.4134,PASS,
346,s06_yaw_pi_turn,g000043_c0,43,,,,,,,,,1.5145733414930196,3.216868416560939,,,,,3.3775,9.6217,1.6934,0.0,0.2605,0.005172,0.0,0.0,8.0,,,,,,0.41335,PASS,
347,s06_yaw_pi_turn,g000043_c1,43,,,,,,,,,1.6171673924683607,3.28650183818273,,,,,3.3779,9.6293,1.6936,0.0,0.2605,0.005172,0.0,0.0,8.0,,,,,,0.41339,PASS,
348,s06_yaw_pi_turn,g000043_c2,43,,,,,,,,,1.6361428124091788,3.1589112219495896,,,,,3.3776,9.6192,1.6934,0.0,0.2606,0.005172,0.0,0.0,8.0,,,,,,0.41336,PASS,
349,s06_yaw_pi_turn,g000043_c3,43,,,,,,,,,1.658745514186081,3.1489575810813557,,,,,3.3776,9.6247,1.6934,0.0,0.2606,0.005172,0.0,0.0,8.0,,,,,,0.41336,PASS,
350,s06_yaw_pi_turn,g000043_c4,43,,,,,,,,,1.5845827390656648,3.119822640788247,,,,,3.3777,9.6235,1.6934,0.0,0.2605,0.005172,0.0,0.0,8.0,,,,,,0.41337,PASS,
351,s06_yaw_pi_turn,g000043_c5,43,,,,,,,,,1.6174967215371143,3.2262177304166455,,,,,3.3777,9.619,1.6934,0.0,0.2605,0.005172,0.0,0.0,8.0,,,,,,0.41337,PASS,
352,s06_yaw_pi_turn,g000043_c6,43,,,,,,,,,1.542507815295651,3.120330151156323,,,,,3.3771,9.6221,1.6933,0.0,0.2606,0.005172,0.0,0.0,8.0,,,,,,0.41331,PASS,
353,s06_yaw_pi_turn,g000043_c7,43,,,,,,,,,1.5961669500708335,3.150491803146809,,,,,3.3774,9.6214,1.6934,0.0,0.2605,0.005172,0.0,0.0,8.0,,,,,,0.41334,PASS,
354,s06_yaw_pi_turn,g000044_c0,44,,,,,,,,,1.5704710176659153,3.146027919020795,,,,,3.3777,9.6213,1.6933,0.0,0.2606,0.005172,0.0,0.0,8.0,,,,,,0.41337,PASS,
355,s06_yaw_pi_turn,g000044_c1,44,,,,,,,,,1.6289386819181757,3.282078839909852,,,,,3.3776,9.6232,1.6936,0.0,0.2605,0.005172,0.0,0.0,8.0,,,,,,0.41336,PASS,
356,s06_yaw_pi_turn,g000044_c2,44,,,,,,,,,1.6709752026356746,3.1328763534094275,,,,,3.3776,9.6221,1.6936,0.0,0.2605,0.005172,0.0,0.0,8.0,,,,,,0.41336,PASS,
357,s06_yaw_pi_turn,g000044_c3,44,,,,,,,,,1.64015905382094,3.065463960861554,,,,,3.3775,9.6227,1.6934,0.0,0.2605,0.005172,0.0,0.0,8.0,,,,,,0.41335,PASS,
358,s06_yaw_pi_turn,g000044_c4,44,,,,,,,,,1.6658279008225998,3.145562828994305,,,,,3.3774,9.6212,1.6933,0.0,0.2606,0.005172,0.0,0.0,8.0,,,,,,0.41334,PASS,
359,s06_yaw_pi_turn,g000044_c5,44,,,,,,,,,1.6335898244502,3.128447103783522,,,,,3.3773,9.6209,1.6932,0.0,0.2605,0.005172,0.0,0.0,8.0,,,,,,0.41333,PASS,
360,s06_yaw_pi_turn,g000044_c6,44,,,,,,,,,1.6178412445444992,3.068327287009517,,,,,3.3777,9.6268,1.6933,0.0,0.2606,0.005172,0.0,0.0,8.0,,,,,,0.41337,PASS,
361,s06_yaw_pi_turn,g000044_c7,44,,,,,,,,,1.6342560997896398,3.3790890017641897,,,,,3.3774,9.6215,1.6935,0.0,0.2605,0.005172,0.0,0.0,8.0,,,,,,0.41334,PASS,
362,s06_yaw_pi_turn,g000045_c0,45,,,,,,,,,1.615967219142873,3.067595806508104,,,,,3.3774,9.6212,1.6934,0.0,0.2606,0.005172,0.0,0.0,8.0,,,,,,0.41334,PASS,
363,s06_yaw_pi_turn,g000045_c1,45,,,,,,,,,1.5349767099381761,3.148402826493037,,,,,3.3774,9.6207,1.6935,0.0,0.2605,0.005172,0.0,0.0,8.0,,,,,,0.41364,PASS,
364,s06_yaw_pi_turn,g000045_c2,45,,,,,,,,,1.5441428277850586,3.0749858212369077,,,,,3.3781,9.6282,1.6937,0.0,0.2605,0.005172,0.0,0.0,8.0,,,,,,0.41341,PASS,
365,s06_yaw_pi_turn,g000045_c3,45,,,,,,,,,1.6738248020509527,3.1008539263728516,,,,,3.3772,9.6222,1.6933,0.0,0.2605,0.005172,0.0,0.0,8.0,,,,,,0.41332,PASS,
366,s06_yaw_pi_turn,g000045_c4,45,,,,,,,,,1.5478120699398077,3.2613434981270037,,,,,3.3774,9.6247,1.6936,0.0,0.2606,0.005172,0.0,0.0,8.0,,,,,,0.41364,PASS,
367,s06_yaw_pi_turn,g000045_c5,45,,,,,,,,,1.5969081342977016,3.2000000910230013,,,,,3.3773,9.6222,1.6932,0.0,0.2605,0.005172,0.0,0.0,8.0,,,,,,0.41333,PASS,
368,s06_yaw_pi_turn,g000045_c6,45,,,,,,,,,1.5834059785387993,3.2412092114500286,,,,,3.3778,9.6207,1.6933,0.0,0.2606,0.005172,0.0,0.0,8.0,,,,,,0.41338,PASS,
369,s06_yaw_pi_turn,g000045_c7,45,,,,,,,,,1.563641051096701,3.170345562078831,,,,,3.3778,9.6275,1.6933,0.0,0.2606,0.005172,0.0,0.0,8.0,,,,,,0.41368,PASS,
370,s06_yaw_pi_turn,g000046_c0,46,,,,,,,,,1.6131902635775537,3.242217415889529,,,,,3.3775,9.6258,1.6931,0.0,0.2606,0.005172,0.0,0.0,8.0,,,,,,0.41335,PASS,
371,s06_yaw_pi_turn,g000046_c1,46,,,,,,,,,1.604281331501717,3.338800297053986,,,,,3.3774,9.6245,1.6933,0.0,0.2605,0.005172,0.0,0.0,8.0,,,,,,0.41334,PASS,
372,s06_yaw_pi_turn,g000046_c2,46,,,,,,,,,1.6100515788497856,3.2184665720057657,,,,,3.3775,9.624,1.6934,0.0,0.2605,0.005172,0.0,0.0,8.0,,,,,,0.41335,PASS,
373,s06_yaw_pi_turn,g000046_c3,46,,,,,,,,,1.6326067413959338,3.188738813405438,,,,,3.3773,9.6212,1.6931,0.0,0.2605,0.005172,0.0,0.0,8.0,,,,,,0.41333,PASS,
374,s06_yaw_pi_turn,g000046_c4,46,,,,,,,,,1.541316910096932,3.0724560104202956,,,,,3.3774,9.6258,1.6935,0.0,0.2606,0.005172,0.0,0.0,8.0,,,,,,0.41334,PASS,
375,s06_yaw_pi_turn,g000046_c5,46,,,,,,,,,1.578293572682613,3.097147742433685,,,,,3.3776,9.6222,1.6934,0.0,0.2606,0.005172,0.0,0.0,8.0,,,,,,0.41336,PASS,
376,s06_yaw_pi_turn,g000046_c6,46,,,,,,,,,1.6064517661205742,3.2068061491457107,,,,,3.3777,9.6204,1.6937,0.0,0.2605,0.005172,0.0,0.0,8.0,,,,,,0.41337,PASS,
377,s06_yaw_pi_turn,g000046_c7,46,,,,,,,,,1.635515656936043,3.1176995838701513,,,,,3.3775,9.6189,1.6936,0.0,0.2605,0.005172,0.0,0.0,8.0,,,,,,0.41335,PASS,
378,s06_yaw_pi_turn,g000047_c0,47,,,,,,,,,1.5678784860224166,3.1811037559466775,,,,,3.3778,9.626,1.6936,0.0,0.2606,0.005172,0.0,0.0,8.0,,,,,,0.41338,PASS,
379,s06_yaw_pi_turn,g000047_c1,47,,,,,,,,,1.6303758195658682,3.188619875679499,,,,,3.3774,9.6218,1.6934,0.0,0.2605,0.005172,0.0,0.0,8.0,,,,,,0.41334,PASS,
380,s06_yaw_pi_turn,g000047_c2,47,,,,,,,,,1.6292362465013404,3.1528617355943807,,,,,3.3776,9.6224,1.6936,0.0,0.2606,0.005172,0.0,0.0,8.0,,,,,,0.41336,PASS,
381,s06_yaw_pi_turn,g000047_c3,47,,,,,,,,,1.6241727358201077,3.313498334490768,,,,,3.3774,9.6199,1.6936,0.0,0.2605,0.005172,0.0,0.0,8.0,,,,,,0.41334,PASS,
382,s06_yaw_pi_turn,g000047_c4,47,,,,,,,,,1.5556787714604567,3.0915527685720483,,,,,3.3776,9.6247,1.6933,0.0,0.2606,0.005172,0.0,0.0,8.0,,,,,,0.41366,PASS,
383,s06_yaw_pi_turn,g000047_c5,47,,,,,,,,,1.5840575578854938,3.1768950426976024,,,,,3.3776,9.6247,1.6932,0.0,0.2605,0.005172,0.0,0.0,8.0,,,,,,0.41336,PASS,
384,s06_yaw_pi_turn,g000047_c6,47,,,,,,,,,1.6203936068619722,3.0909551742419454,,,,,3.3778,9.6235,1.6934,0.0,0.2606,0.005172,0.0,0.0,8.0,,,,,,0.41338,PASS,
385,s06_yaw_pi_turn,g000047_c7,47,,,,,,,,,1.5499994906377716,3.209826704884571,,,,,3.3776,9.6227,1.6935,0.0,0.2606,0.005172,0.0,0.0,8.0,,,,,,0.41366,PASS,
386,s06_yaw_pi_turn,g000048_c0,48,,,,,,,,,1.6567767344189708,3.1647538541865585,,,,,3.3781,9.6221,1.6936,0.0,0.2605,0.005172,0.0,0.0,8.0,,,,,,0.41341,PASS,
