run_id,scenario,label,gen,timestamp,Q_PITCH,Q_PITCH_RATE,Q_VEL,R,KP_V,KI_V,KFF_V,KP_YAW,KI_YAW,LEG_K_S,LEG_B_S,LEG_K_ROLL,LEG_D_ROLL,rms_pitch_deg,max_pitch_deg,wheel_travel_m,wheel_liftoff_s,vel_track_rms_ms,hip_track_rms_rad,hip_cmd_rate_rms,settle_time_s,survived_s,fitness_balance,fitness_disturbance,fitness_drive_slow,fitness_drive_med,fitness_obstacle,fitness,status,fail_reason
1,s09_integrated,evo_seed,0,,5.4025381,0.033407993,0.0016521331,39.646999,0.05,0.1,0.10849846,0.19324586,0.22121895,12.962437,0.10915113,45.255859,0.49191579,0.545,0.9869,0.0024,0.0,0.0,0.216898,6.128,16.0,0.006,,,,,,201.185376,FAIL,vel error exceeded
2,s09_integrated,g000000_c0,0,,10.0,0.002972674733443884,0.0003047579774315977,10.602735045720518,0.0657632212819885,0.03118204685559149,1.2,0.0019263879712388804,2.2522730441037506,9.143591557762388,0.020171895195120235,65.9490847941018,12.822757535324062,0.5521,1.0002,0.0019,0.0,0.0,0.217289,177.8146,16.0,0.006,,,,,,201.218905,FAIL,vel error exceeded
3,s09_integrated,g000000_c1,0,,10.0,0.004863296571117727,0.0032974454403136215,123.34907534308783,0.15,0.1,0.1,0.15661050552189648,0.07772040632532874,2.2159728372113316,0.08560149665242267,6.734915183627275,1.683361399082775,0.8523,1.5505,0.0022,0.0,0.0,0.218424,1.1265,16.0,0.008,,,,,,201.21005,FAIL,vel error exceeded
4,s09_integrated,g000000_c2,0,,10.0,0.006685685469591638,0.006343188342212412,5.171039847759563,0.15,0.015832313609949182,0.10146424481587997,2.2439623313442105,0.02357411036321972,1.1768764100248486,7.09454683455154,5.369135973874072,7.122760144022326,0.878,1.5913,0.0019,0.0,0.0,0.219056,1.0604,16.0,0.008,,,,,,201.22303,FAIL,vel error exceeded
5,s09_integrated,g000000_c3,0,,0.5243137192668019,0.02867340637670222,0.0002060208636218474,307.2301117214709,0.15,0.1,0.26673523881910516,1.22733760072936,0.15437529183246504,0.16409785240478045,8.834479642901712,100.0,0.2730850527956118,0.2404,3.1532,0.6047,0.0,0.1433,0.428026,7.3948,0.024,5.002,,,,,,202.316281,FAIL,vel error exceeded
6,s09_integrated,g000000_c4,0,,5.807305106326715,0.005177060452867542,0.0020853152586999407,122.6713189198906,0.049999999999999996,0.01,0.1,0.2590802404993843,0.993301724761341,3.6138668088398824,0.01,100.0,0.28303178833010156,0.7958,1.4694,0.0025,0.0,0.0,0.218172,12.0205,16.0,0.008,,,,,,201.204146,FAIL,vel error exceeded
7,s09_integrated,g000000_c5,0,,10.0,1.1983550426586174,0.000301709972901196,1.0105333621150616,0.049999999999999996,0.1,0.17580729439369458,0.04761108712262242,0.06362090813001171,2.3676650078189576,5.026921031168889,27.92241399137613,0.06179145644726336,0.8681,1.5548,0.0022,0.0,0.0,0.218825,2.1013,16.0,0.008,,,,,,201.22003,FAIL,vel error exceeded
8,s09_integrated,g000000_c6,0,,10.0,0.0013011434564248383,7.610638379653276e-05,803.637547650323,0.049999999999999996,0.012001358893663838,0.1,0.061329159489369414,11.629018365235149,8.979982114238522,0.07256351717993567,9.936615530678406,0.19176453531893847,0.5584,1.0108,0.0018,0.0,0.0,0.217307,1.6865,16.0,0.006,,,,,,201.180415,FAIL,vel error exceeded
9,s09_integrated,g000000_c7,0,,7.449772523268806,0.4684371228798747,0.000500643291099575,6.818205280561833,0.15,0.1,0.1,3.6800616906611374,0.006832992612932221,3.60662991016181,0.8395740171977266,21.7726602018206,0.03899317564282018,0.8407,1.5313,0.0025,0.0,0.0,0.21828,2.9294,16.0,0.008,,,,,,201.210926,FAIL,vel error exceeded
10,s09_integrated,g000001_c0,1,,2.4812554646414133,0.02063121874458351,0.07022382070224865,111.47597957726691,0.15,0.1,1.2,0.18043226820059735,0.35258068994570707,14.028911205986926,0.010863357626351544,84.36673868571042,0.10801596932984418,0.4247,0.7449,0.0025,0.0,0.0,0.216788,9.5754,16.0,0.006,,,,,,201.171524,FAIL,vel error exceeded
11,s09_integrated,g000001_c1,1,,1.7869525768338612,0.001,0.005037833595537932,26.423930721459513,0.15,0.1,0.6735407985538951,0.06832559665866435,0.635713137520601,29.60772144102846,0.01,100.0,0.09828316978303121,0.3823,0.5846,0.0029,0.0,0.0,0.215846,8.098,16.0,0.006,,,,,,201.180203,FAIL,vel error exceeded
12,s09_integrated,g000001_c2,1,,3.800693826676121,0.00826284857100411,0.01293230992365916,312.60661479564607,0.049999999999999996,0.1,1.2,0.04417013046850524,0.0031576832446303647,5.6770025498410295,0.04941163529639087,92.7902456050397,4.144253507879327,0.5759,1.0401,0.0015,0.0,0.0,0.217655,83.4774,16.0,0.006,,,,,,201.185638,FAIL,vel error exceeded
13,s09_integrated,g000001_c3,1,,10.0,0.08474895359092573,0.0075919507425017815,13.3882231012474,0.049999999999999996,0.07789707751059527,1.2,21.608814521277836,0.009885229836284953,1.3580986161779047,0.5466147442046402,10.067351058908306,0.02668030433259187,0.7684,1.4323,0.0024,0.0,0.0,0.218623,1.1111,16.0,0.008,,,,,,201.198471,FAIL,vel error exceeded
14,s09_integrated,g000001_c4,1,,10.0,0.5545141597203889,0.0009778774198512922,1000.0,0.049999999999999996,0.1,0.1,5.064117397391565,0.08350144287958088,3.8346018025402016,0.11984334998106902,100.0,43.316826537908746,0.8084,1.4876,0.0023,0.0,0.0,0.218153,287.8904,16.0,0.008,,,,,,201.239332,FAIL,vel error exceeded
15,s09_integrated,g000001_c5,1,,10.0,0.013332447921254738,0.0021485239143662887,533.7011186305211,0.15,0.07861178523471213,1.2,0.3638211362168994,0.7813107304092308,21.004389759892693,0.21293230301234622,100.0,1.6222254566538303,0.391,0.6244,0.0024,0.0,0.0,0.216085,3.7816,16.0,0.006,,,,,,201.178166,FAIL,vel error exceeded
16,s09_integrated,g000001_c6,1,,10.0,0.017986722093656742,0.006339050471287597,1000.0,0.049999999999999996,0.0778756623633393,1.0339106903478088,0.3080202157868185,0.47485432939153144,5.933058324167455,0.01,63.44158717381112,1.6624156205128438,0.5864,1.0567,0.0015,0.0,0.0,0.217627,13.6934,16.0,0.006,,,,,,201.179663,FAIL,vel error exceeded
17,s09_integrated,g000001_c7,1,,2.4135498696178104,0.19915471266627113,0.21202776353086253,705.6009047434557,0.049999999999999996,0.1,1.2,0.03243175540156782,0.005690593935114307,21.32349066242586,0.10908332499317391,100.0,1.0859943984643945,0.5093,0.9225,0.003,0.0,0.0,0.216064,17.6287,16.0,0.006,,,,,,201.196322,FAIL,vel error exceeded
18,s09_integrated,g000002_c0,2,,10.0,0.02468399911985125,0.014371086568605243,0.26468722452626664,0.15,0.01,1.2,0.012456148736287573,0.3845563876699289,100.0,0.01,100.0,12.538292151344455,0.316,0.5472,0.0028,0.0,0.0,0.216463,10.7966,16.0,0.004,,,,,,201.182183,FAIL,vel error exceeded
19,s09_integrated,g000002_c1,2,,5.482815753255066,0.0531123110637931,0.008754814953631208,285.22905503540005,0.049999999999999996,0.1,0.7118989418286489,0.5116286234306223,0.016711934120102363,100.0,0.17028600424070836,100.0,0.004043812824277099,0.498,0.9031,0.0029,0.0,0.0,0.215846,8.739,16.0,0.006,,,,,,201.19563,FAIL,vel error exceeded
20,s09_integrated,g000002_c2,2,,0.15281671799790958,0.1664237360372646,0.0002482380225999652,91.5162318367023,0.15,0.01,1.2,0.46678433094789684,0.06139055712934098,2.0634884650363152,0.01,63.17459163663936,0.3174010179809177,0.8655,1.5704,0.0021,0.0,0.0,0.218442,9.4236,16.0,0.008,,,,,,201.211694,FAIL,vel error exceeded
21,s09_integrated,g000002_c3,2,,10.0,0.004758773919014067,0.009898523009960558,55.23713881546556,0.049999999999999996,0.03792768181344394,0.1,0.3279057811066966,0.024460284680957685,9.728971934814066,0.12383996348914508,100.0,1.5592745028287127,0.5721,1.0317,0.0021,0.0,0.0,0.217243,10.9413,16.0,0.006,,,,,,201.183903,FAIL,vel error exceeded
22,s09_integrated,g000002_c4,2,,8.260762999130774,0.00141751515011643,4.818650012103348e-05,375.0851103607043,0.15,0.0165717465197812,0.1,0.06820049101723967,2.0455187794368936,14.920394451044515,0.010528138488353636,100.0,0.04396650122436184,0.4455,0.7975,0.0021,0.0,0.0,0.216679,10.7795,16.0,0.006,,,,,,201.175566,FAIL,vel error exceeded
23,s09_integrated,g000002_c5,2,,10.0,1.9829450790585885,4.892891645902248e-05,1000.0,0.15,0.04040409274545075,1.0294521014872784,6.7960882936795,0.11460848943542745,34.50729471328222,0.308871250319839,29.485036904858003,0.0012856063236869758,0.3839,0.5786,0.0025,0.0,0.0,0.21583,2.1004,16.0,0.006,,,,,,201.180337,FAIL,vel error exceeded
24,s09_integrated,g000002_c6,2,,10.0,0.7387696007122823,6.709141577120493e-05,3.863515854235861,0.049999999999999996,0.1,1.2,0.040507042350576755,0.0022575411094441842,1.152160035229502,0.040508000703597995,4.661763936667688,0.019971041323187656,0.7472,1.4026,0.002,0.0,0.0,0.218603,0.8598,16.0,0.008,,,,,,201.194871,FAIL,vel error exceeded
25,s09_integrated,g000002_c7,2,,10.0,0.017991845496819567,0.0010320582088989385,76.64151884229946,0.13833631117503106,0.1,0.1,0.11039375818851799,0.2699648029892502,94.7411473395236,1.9724959321221898,42.701662386338974,31.221329725029406,0.3835,0.5776,0.0026,0.0,0.0,0.215832,4.0003,16.0,0.006,,,,,,201.180293,FAIL,vel error exceeded
26,s09_integrated,g000003_c0,3,,1.4439815035627492,0.10827835857620988,0.00045836104168223385,37.04051701240298,0.15,0.1,0.1,0.015645532551843935,2.08529879595496,2.4219045441283096,0.01,6.031902830887258,0.15725320054985373,0.8587,1.5595,0.0022,0.0,0.0,0.218381,1.0728,16.0,0.008,,,,,,201.211082,FAIL,vel error exceeded
27,s09_integrated,g000003_c1,3,,0.6612003735169373,0.016863278247632906,0.0013755614594357355,38.3916589844402,0.049999999999999996,0.1,0.1,0.07355618755196772,0.012096790343192694,0.16784966856245373,1.315754987395853,5.004053786133742,0.5646688248157448,0.4389,1.2875,0.7657,0.0,0.1898,0.394987,1.5605,0.0,5.002,,,,,,202.232298,FAIL,vel error exceeded
28,s09_integrated,g000003_c2,3,,10.0,0.017525822189099906,0.0002136335666324771,2.6491600968248785,0.10773272192181615,0.1,1.2,0.06895715848926913,0.9333046278256064,74.69272705948744,0.11648591076186057,100.0,1.3772734255648564,0.4183,0.7341,0.0029,0.0,0.0,0.215848,8.5421,16.0,0.006,,,,,,201.185013,FAIL,vel error exceeded
29,s09_integrated,g000003_c3,3,,7.869976256354074,0.191974667074612,0.0002760783027662172,85.49812239193174,0.049999999999999996,0.09720272323509058,0.1,5.951366271768939,0.5961828990191733,100.0,0.16649823462868077,9.518232765240715,57.10982765658985,0.4998,0.9064,0.0028,0.0,0.0,0.215843,1.1715,16.0,0.006,,,,,,201.195855,FAIL,vel error exceeded
30,s09_integrated,g000003_c4,3,,2.093552172120472,0.2644597509153896,5.349953505889972e-05,36.02970022430315,0.08221062908124374,0.1,1.2,0.0016908321173287728,0.17559921159182837,23.038626434584085,0.8273889033652191,16.27862250941837,2.2353816545473997,0.4397,0.7861,0.0026,0.0,0.0,0.215985,56.1946,16.0,0.006,,,,,,201.202314,FAIL,vel error exceeded
31,s09_integrated,g000003_c5,3,,10.0,0.020653484803293595,0.0006339371694436874,289.1734097317376,0.049999999999999996,0.1,0.22787844408263022,0.027874165941266228,0.08708556783886683,7.8399786543953205,1.2576856470169817,100.0,0.36170901027752755,0.5596,1.0138,0.0016,0.0,0.0,0.217516,8.1199,16.0,0.006,,,,,,201.180345,FAIL,vel error exceeded
32,s09_integrated,g000003_c6,3,,2.543986217133528,0.001047866572439684,0.015851473174015602,80.26970332233833,0.049999999999999996,0.1,0.1,2.4626058368798978,0.001022990431294242,100.0,0.6315012684540637,0.9823113093088589,0.1402710008268188,0.2392,0.373,0.0012,0.0,0.0,0.216409,0.8532,16.0,0.004,,,,,,201.171673,FAIL,vel error exceeded
33,s09_integrated,g000003_c7,3,,0.7085820169705144,0.0027687577047679837,0.00010433179635754603,23.854378542523303,0.15,0.01,0.7620245401986064,0.18009873296660145,0.0191004579671207,5.074078097368843,0.03285535573766654,3.8951453865469774,0.13592693402607478,0.8094,1.4816,0.0026,0.0,0.0,0.217924,1.214,16.0,0.008,,,,,,201.207358,FAIL,vel error exceeded
34,s09_integrated,g000004_c0,4,,5.320753476773144,0.001,0.0017897027631596381,965.3503046263136,0.13782208346328198,0.01,1.2,7.439460973978236,2.261249578973617,6.137447989835296,0.01,100.0,0.07264070517081785,0.5217,0.9499,0.0014,0.0,0.0,0.217599,9.4509,16.0,0.006,,,,,,201.171097,FAIL,vel error exceeded
35,s09_integrated,g000004_c1,4,,10.0,0.05896925520158841,2.8473856673142882e-05,82.30243088081966,0.049999999999999996,0.1,0.1,1.1392128904045318,0.08535868199775745,100.0,0.5317974838666838,66.67156404819595,1.5074920090619153,0.4979,0.9032,0.0028,0.0,0.0,0.215842,3.5705,16.0,0.006,,,,,,201.195597,FAIL,vel error exceeded
36,s09_integrated,g000004_c2,4,,1.731696153457497,0.05416587898653539,6.095266172782557e-06,1000.0,0.15,0.1,0.1,0.22202009207611248,0.858036887580464,4.045709727189037,0.9257930713059687,66.62191523500572,27.51089531917802,0.8289,1.5146,0.0023,0.0,0.0,0.218213,288.2126,16.0,0.008,,,,,,201.246826,FAIL,vel error exceeded
37,s09_integrated,g000004_c3,4,,10.0,2.6513223304059683,0.00018124387238007298,1000.0,0.11611934770802503,0.01,1.2,0.022072454360979717,0.0664761094706971,0.15030524091230088,0.03318925188081488,100.0,7.397845433549548,1.176,2.1193,0.0027,0.0,0.0,0.219269,7.5092,16.0,0.01,,,,,,201.253432,FAIL,vel error exceeded
38,s09_integrated,g000004_c4,4,,1.5561583423967373,0.0013766104171503187,0.0026331166394596823,53.72899055066846,0.049999999999999996,0.1,0.4782076113269218,0.2131468697096438,0.013934391361760046,5.248752300008627,16.336571482095213,65.60938478069622,4.012669027848657,0.7337,1.4803,0.0093,0.0,0.0,0.22867,323.0766,16.0,0.034,,,,,,201.413638,FAIL,vel error exceeded
39,s09_integrated,g000004_c5,4,,10.0,0.09910255624426938,0.0008953406670350919,129.3460725350262,0.049999999999999996,0.1,0.1,0.003460642405991692,0.001070065489173834,2.1365916895875485,0.02216835173084874,54.47335358245626,1.4486254666598817,0.7538,1.4125,0.002,0.0,0.0,0.218429,5.7402,16.0,0.008,,,,,,201.196874,FAIL,vel error exceeded
40,s09_integrated,g000004_c6,4,,0.6341326963056847,0.045399057667890014,0.6096970921900356,1.6921539623965152,0.049999999999999996,0.09312726308343507,0.1,0.16472642074417032,0.838664032864033,28.098772121949562,5.896126930505002,85.21274344495735,1.488739078095371,0.2171,0.338,0.0068,0.0,0.0,0.216788,34.3277,16.0,0.004,,,,,,201.192336,FAIL,vel error exceeded
41,s09_integrated,g000004_c7,4,,10.0,0.010161783362135328,0.0005123897962249626,5.332811571462861,0.049999999999999996,0.01,0.3110069266213817,0.8499140320521961,0.6350308937179032,1.222432126502209,0.11968937456581992,7.647910796127637,1.7610295721818854,0.7456,1.401,0.0021,0.0,0.0,0.218601,1.3045,16.0,0.008,,,,,,201.194803,FAIL,vel error exceeded
42,s09_integrated,g000005_c0,5,,10.0,0.13512364764966797,0.022786589042248086,25.760667351498007,0.08652838964428791,0.0215057245685905,0.8604602920317318,0.04282214666497637,0.030416715891925947,73.38396190743511,11.030548655144942,100.0,0.08614585320594016,0.2255,0.2772,0.0012,0.0,0.0,0.216413,1.5134,16.0,0.004,,,,,,201.196648,FAIL,vel error exceeded
43,s09_integrated,g000005_c1,5,,0.10488358195475732,1.2470228782109352,0.0020748592220086967,1000.0,0.049999999999999996,0.01,0.36743635127258345,0.37005615591433993,0.02218422643045941,100.0,2.01760685637335,100.0,45.07897607413952,0.4942,0.8965,0.0028,0.0,0.0,0.215841,7.2235,16.0,0.006,,,,,,201.195098,FAIL,vel error exceeded
44,s09_integrated,g000005_c2,5,,10.0,0.10034606468021207,0.01779297976947845,6.319816957245536,0.15,0.1,0.1,0.23765659982947437,0.5207738379809215,7.627748509973099,18.126252069323407,8.60712158504544,0.34760724222791123,0.2941,0.5141,0.002,0.0,0.0,0.218851,1.0339,16.0,0.008,,,,,,201.282363,FAIL,vel error exceeded
45,s09_integrated,g000005_c3,5,,0.8716753398321073,0.06335091203860568,0.0005096668282340146,1000.0,0.15,0.01,0.1,0.1161590565326152,0.7520468048677629,17.929226044189893,0.019978823487971593,3.9702216888288224,0.1106228923946272,0.397,0.6455,0.0023,0.0,0.0,0.216358,0.9381,16.0,0.006,,,,,,201.173511,FAIL,vel error exceeded
46,s09_integrated,g000005_c4,5,,10.0,0.007756143086694344,0.014569985876754015,56.67221550312097,0.049999999999999996,0.1,0.3842893776466635,9.264977086308601,0.32958221348926864,12.606241430960855,13.528781400387315,100.0,0.1616738360773122,0.6897,1.2698,0.0025,0.0,0.0,0.218501,3.8922,16.0,0.008,,,,,,201.292481,FAIL,vel error exceeded
47,s09_integrated,g000005_c5,5,,10.0,0.30669106419755904,0.0004067587235231517,26.39095569060286,0.133706907649116,0.05468778341722089,1.2,0.03525094009827942,0.008449661467355233,100.0,0.01,100.0,0.4945815941508682,0.3956,0.6567,0.0027,0.0,0.0,0.215838,8.1058,16.0,0.006,,,,,,201.181937,FAIL,vel error exceeded
48,s09_integrated,g000005_c6,5,,1.332724188497881,0.020167359614701934,0.006275193199319113,1000.0,0.0831186559989532,0.1,1.2,0.6407744354550386,3.12592307613771,4.307286264483627,0.699520230179676,100.0,0.009892659497356909,0.8522,1.5478,0.0025,0.0,0.0,0.218145,9.5234,16.0,0.008,,,,,,201.213225,FAIL,vel error exceeded
49,s09_integrated,g000005_c7,5,,1.0568263517266505,0.03425258208089936,0.0020133483343437713,3.611210187345312,0.049999999999999996,0.1,0.4210945381735979,1.607216442739087,2.1657871420240946,3.077661713488034,5.028632935409666,98.76452954361247,0.12914991430670414,0.8713,1.5803,0.0023,0.0,0.0,0.218744,16.1865,16.0,0.008,,,,,,201.221892,FAIL,vel error exceeded
50,s09_integrated,g000006_c0,6,,3.1000436024538867,0.19766574018468322,0.05397997736806014,640.3592089656809,0.07175621208029943,0.1,0.6553984811392684,0.527705108517849,0.2012778667061932,51.83882944728595,0.04437985098804557,16.269992522681246,0.4677965158587877,0.4528,0.8159,0.0029,0.0,0.0,0.215848,1.2754,16.0,0.006,,,,,,201.189613,FAIL,vel error exceeded
51,s09_integrated,g000006_c1,6,,1.5901093866210085,0.7122954928763177,0.0007849379194381688,7.348033944091659,0.049999999999999996,0.045059621396647674,0.1,0.004764657449528792,0.02108146193528572,0.988386908957177,0.01,65.41789557003419,1.099908506494577,0.7494,1.4068,0.002,0.0,0.0,0.218633,2.0845,16.0,0.008,,,,,,201.194997,FAIL,vel error exceeded
52,s09_integrated,g000006_c2,6,,5.782077250327318,0.032268550875417794,0.0068676710101608805,2.9416927343665407,0.15,0.0451483169006697,0.29272886513714996,0.012248635508691734,0.04588586474492768,100.0,0.01,100.0,0.42920193052635275,0.2881,0.4958,0.0013,0.0,0.0,0.216414,18.057,16.0,0.004,,,,,,201.178218,FAIL,vel error exceeded
53,s09_integrated,g000006_c3,6,,2.5436713415811814,0.03057867738682011,0.00068265270364889,1.6042414864357584,0.049999999999999996,0.02629571485737314,1.2,0.009374867488366391,1.3070584344968141,0.7913425938205253,2.2810122589276896,36.36222786306704,0.0031444492452150923,0.7497,1.4082,0.0019,0.0,0.0,0.21884,6.998,16.0,0.008,,,,,,201.198241,FAIL,vel error exceeded
54,s09_integrated,g000006_c4,6,,0.30485546434128213,0.23468900678637114,0.0037184970756589733,35.834773116785115,0.06703598316304951,0.01,0.1,0.10133503398396662,1.3009163564976025,0.842771028466564,0.2403053250053373,13.71689801712539,0.03571039180464499,0.7753,1.4442,0.002,0.0,0.0,0.218673,2.4015,16.0,0.008,,,,,,201.198456,FAIL,vel error exceeded
55,s09_integrated,g000006_c5,6,,10.0,0.6645248334022126,0.015744615636029483,1000.0,0.11795099016808165,0.1,0.1,0.4151933436694036,0.015046622318758442,0.36286543690007234,0.15556679671179868,38.27123489977521,0.014403896823612676,0.9099,1.6365,0.0019,0.0,0.0,0.218753,1.7979,16.0,0.008,,,,,,201.215854,FAIL,vel error exceeded
56,s09_integrated,g000006_c6,6,,10.0,0.015326203597697298,1.688953917578264e-05,16.220830316063356,0.15,0.026614375052993116,0.1,0.06416355118605813,1.846619052198788,100.0,0.01,3.475988967553999,0.25650207030189925,0.3854,0.5957,0.0026,0.0,0.0,0.215832,0.8909,16.0,0.006,,,,,,201.180547,FAIL,vel error exceeded
57,s09_integrated,g000006_c7,6,,1.1734154190343817,0.00811874310736941,3.413708263297821e-05,6.905201749346819,0.15,0.06852820130725044,1.2,0.12200527150709911,0.7975059538146542,0.6190903811870573,0.31261771276174527,2.5476872439923866,0.013770796967610186,0.9009,1.6237,0.0019,0.0,0.0,0.218719,0.9482,16.0,0.008,,,,,,201.215077,FAIL,vel error exceeded
58,s09_integrated,g000007_c0,7,,2.8718805825559537,0.019857162168400867,0.03954903462798897,111.33988923661327,0.15,0.04069879036660112,0.1,0.03792026687799306,0.031180436752286395,41.0992823431687,0.5813183746675282,2.1267786330188585,0.5468922661767429,0.3852,0.6122,0.003,0.0,0.0,0.215853,0.997,16.0,0.006,,,,,,201.180625,FAIL,vel error exceeded
59,s09_integrated,g000007_c1,7,,5.975342316509591,0.057506056002520074,3.67357350412229e-05,50.38576948774469,0.049999999999999996,0.052488586799964085,0.8945087702907613,2.952484067768085,1.9416355213413325,40.64647178734644,0.04107858491188651,16.16990852202407,1.9325545672495725,0.4921,0.8926,0.0028,0.0,0.0,0.21584,2.4762,16.0,0.006,,,,,,201.194813,FAIL,vel error exceeded
60,s09_integrated,g000007_c2,7,,7.330078327297506,0.0030080516143741426,0.001624337506349196,67.74157847850745,0.049999999999999996,0.019573034646362907,0.1,0.14777928743469748,0.0015987313141799554,2.6275856492245864,0.8453401322541675,100.0,0.00388127823364998,0.7862,1.4587,0.0021,0.0,0.0,0.218435,11.4119,16.0,0.008,,,,,,201.202701,FAIL,vel error exceeded
61,s09_integrated,g000007_c3,7,,10.0,0.08104030930075926,0.00040303846912949365,94.45506680116242,0.049999999999999996,0.1,0.4301457889341249,0.13846166333930773,3.2570086815390065,7.278322337679497,0.18260745847662085,100.0,2.638198003816469,0.5881,1.0587,0.0016,0.0,0.0,0.217498,15.5682,16.0,0.006,,,,,,201.182213,FAIL,vel error exceeded
62,s09_integrated,g000007_c4,7,,0.04781138849603355,2.320545688930953,0.013748683513344379,1000.0,0.15,0.010451775793213618,1.2,1.2992271848849015,0.0877876570220229,6.701579399801068,0.635303936024445,100.0,0.033907484897196735,0.5069,0.9231,0.0015,0.0,0.0,0.217585,15.2633,16.0,0.006,,,,,,201.170902,FAIL,vel error exceeded
63,s09_integrated,g000007_c5,7,,3.446710176966371,0.03060859891262284,0.0027140900221322988,1.9227008924342353,0.15,0.1,0.1,0.3699773773202051,0.09849588653135648,1.7954844180659693,0.41574646405324595,100.0,0.04776012195726915,0.8592,1.5565,0.0029,0.0,0.0,0.218555,20.5179,16.0,0.008,,,,,,201.211391,FAIL,vel error exceeded
64,s09_integrated,g000007_c6,7,,10.0,0.0029106218353095103,4.123803631398258e-05,26.64419914234612,0.15,0.1,0.1,1.305957574395196,0.03563001557934978,100.0,0.01,72.27783318172982,0.005899840538481934,0.3821,0.548,0.0026,0.0,0.0,0.21583,8.3251,16.0,0.006,,,,,,201.180097,FAIL,vel error exceeded
65,s09_integrated,g000007_c7,7,,0.18354258254781572,0.7913390470833895,0.00909707489775889,29.14575777221693,0.0655423016566681,0.01713974686609438,0.37910246275223347,9.352155011575332,0.0035220509217965385,44.6699667358309,2.923785972067283,69.97035586290538,0.5697457780721497,0.2326,0.345,0.0012,0.0,0.0,0.21641,16.6213,16.0,0.004,,,,,,201.170798,FAIL,vel error exceeded
66,s09_integrated,g000008_c0,8,,0.1419446627454319,0.010679291423241977,0.0007806921765142127,48.367013021214056,0.09053155108470227,0.03079068687992062,0.1,16.884339964904562,0.9105153085682527,1.487840925540562,0.11995449709782502,100.0,0.21464518533901789,0.8888,1.6047,0.0022,0.0,0.0,0.218554,3.1084,16.0,0.008,,,,,,201.214204,FAIL,vel error exceeded
67,s09_integrated,g000008_c1,8,,10.0,0.001,0.0019501601240078266,9.128468652531058,0.15,0.1,1.2,0.03760622753318787,0.022749331989672276,100.0,0.01,100.0,1.4291422123661057,0.3834,0.597,0.0029,0.0,0.0,0.215849,15.3497,16.0,0.006,,,,,,201.180365,FAIL,vel error exceeded
68,s09_integrated,g000008_c2,8,,5.735427450176212,0.011508662049840059,0.004620552193785867,251.9838922454968,0.049999999999999996,0.1,0.1,0.5162622993005616,0.023363608189463134,45.45871535625294,0.02273043198775699,34.74277229526283,0.0001,0.5025,0.911,0.0029,0.0,0.0,0.215847,1.5161,16.0,0.006,,,,,,201.196235,FAIL,vel error exceeded
69,s09_integrated,g000008_c3,8,,1.443029585300984,0.005512375516657003,0.005694545583572172,6.002164239529044,0.049999999999999996,0.01,0.4361180610314183,0.07888986415156524,6.535347745347649,100.0,0.4879457086350989,19.99136751926161,11.825811103091702,0.2301,0.3312,0.0013,0.0,0.0,0.21641,1.1478,16.0,0.004,,,,,,201.170465,FAIL,vel error exceeded
70,s09_integrated,g000008_c4,8,,0.16655154418292653,0.005449418061323731,8.425982719164403e-05,0.724856738463482,0.049999999999999996,0.1,0.1,0.03154899407046992,0.0038470230184881847,19.54269363677231,0.03552518290142455,85.19781528581863,0.16130053826120713,0.5024,0.9113,0.0027,0.0,0.0,0.216226,7.7784,16.0,0.006,,,,,,201.190731,FAIL,vel error exceeded
71,s09_integrated,g000008_c5,8,,0.02690280401314224,0.1488754421274174,0.022379886161394802,28.60025682957254,0.14047358289728468,0.026060863263365527,0.1,0.07086289434303318,0.004560937080951145,100.0,0.0458164072919872,100.0,0.03629926426428367,0.2784,0.4759,0.0011,0.0,0.0,0.216409,8.6921,16.0,0.004,,,,,,201.1769,FAIL,vel error exceeded
72,s09_integrated,g000008_c6,8,,10.0,0.02436435757557465,0.0005324247711843645,5.38908996074424,0.15,0.1,1.2,1.6289737691361017,0.40275932524809543,0.6940043304476873,0.01,65.4792262225863,0.1985889217577276,0.8784,1.59,0.0021,0.0,0.0,0.218684,6.4049,16.0,0.008,,,,,,201.21191,FAIL,vel error exceeded
73,s09_integrated,g000008_c7,8,,10.0,0.10066894057456606,0.0006999532750500751,297.9305298810596,0.049999999999999996,0.09971549607805887,1.2,6.317656091667232,1.292221726562803,1.844677486305019,0.16993421502722691,10.61544192472531,0.018792472328196228,0.7417,1.3958,0.0019,0.0,0.0,0.218492,1.8271,16.0,0.008,,,,,,201.194951,FAIL,vel error exceeded
74,s09_integrated,g000009_c0,9,,10.0,0.01920790800739273,0.6168493060207872,18.601659313830922,0.15,0.1,0.2872417339813902,0.02897204250095586,0.2599560029993227,1.5319431774356977,0.8577467483377671,17.240592540305677,5.4257317894308565,0.6029,1.0776,0.0028,0.0,0.0,0.218187,1.3155,16.0,0.006,,,,,,201.175049,FAIL,vel error exceeded
75,s09_integrated,g000009_c1,9,,6.550155854554476,0.8316664898756808,0.021712546343928083,51.977863248571005,0.15,0.01,0.25043140833002236,0.11317085417688114,0.08099238502429333,0.5541770075292326,0.02132087234601733,3.2273280071676105,1.1378680859220967,0.8605,1.5633,0.0022,0.0,0.0,0.218713,1.0368,16.0,0.008,,,,,,201.20937,FAIL,vel error exceeded
76,s09_integrated,g000009_c2,9,,1.7646697776809852,0.24494198290832542,0.0020451236796622434,13.378461558819616,0.15,0.1,0.1,3.2870582470021823,1.291028770353754,100.0,1.7319813916144107,100.0,0.37966439097028604,0.3804,0.5542,0.0028,0.0,0.0,0.215843,11.1427,16.0,0.006,,,,,,201.179935,FAIL,vel error exceeded
77,s09_integrated,g000009_c3,9,,0.42045852127164873,0.026346855362374036,0.008437806792265256,1000.0,0.15,0.1,0.1,0.001,0.06402567102849961,11.033151207236816,0.19711042997783737,24.896634468168084,0.5075238701016662,0.4597,0.8286,0.0019,0.0,0.0,0.2171,2.4417,16.0,0.006,,,,,,201.1707,FAIL,vel error exceeded
78,s09_integrated,g000009_c4,9,,0.22716337523230232,5.847230684989753,3.4822952745089277e-05,1000.0,0.15,0.07508159400013892,1.2,1.335739690407559,0.9567757517307722,100.0,1.3489721485856556,17.77034249813179,1.7133725145175702,0.3878,0.6134,0.0025,0.0,0.0,0.215832,1.6812,16.0,0.006,,,,,,201.180867,FAIL,vel error exceeded
79,s09_integrated,g000009_c5,9,,7.819080728945389,0.0019859983935649377,0.0006248588266703385,37.045210799714106,0.15,0.01,1.0380834746759726,0.28822423226164645,1.4713518601175666,57.178850908560285,1.1808794406928074,74.45278516891312,0.09946109146263764,0.3827,0.5685,0.0026,0.0,0.0,0.215833,8.6198,16.0,0.006,,,,,,201.180192,FAIL,vel error exceeded
80,s09_integrated,g000009_c6,9,,10.0,0.16834738111566672,0.06659547314801863,1.9575314625640345,0.049999999999999996,0.08603604429697657,0.1,1.0550841291295532,0.9458621333323801,1.4224008217448103,0.03845590502317304,81.34679003837192,5.651413210109817,0.5979,1.0703,0.0028,0.0,0.0,0.218163,5.9912,16.0,0.006,,,,,,201.173629,FAIL,vel error exceeded
81,s09_integrated,g000009_c7,9,,10.0,0.3357028139218324,0.00021614488606392978,13.762851572840294,0.049999999999999996,0.1,0.1,0.1711112733496512,0.11236971348491623,34.01707405424607,0.20809093854757577,100.0,1.138066798844739,0.4897,0.8881,0.0029,0.0,0.0,0.215844,19.9917,16.0,0.006,,,,,,201.194513,FAIL,vel error exceeded
82,s09_integrated,g000010_c0,10,,0.28744293210731614,0.01741381318802516,0.0002704300025396289,18.049667634989685,0.049999999999999996,0.1,0.3631023744205523,0.4169611258034744,0.008004347660404938,98.69723716747646,0.01706958275763106,54.55692636772957,11.968833165781968,0.4931,0.8943,0.0029,0.0,0.0,0.215844,1.6285,16.0,0.006,,,,,,201.194967,FAIL,vel error exceeded
83,s09_integrated,g000010_c1,10,,2.179234015271225,0.001595686673386788,0.00012116087301367594,3.2263640291674442,0.049999999999999996,0.1,0.1,0.1404759324607346,0.013791523364939523,14.981082047746057,0.023163891353518998,42.743650802928215,0.5865157767107956,0.5394,0.9769,0.0024,0.0,0.0,0.216685,11.7892,16.0,0.006,,,,,,201.188479,FAIL,vel error exceeded
84,s09_integrated,g000010_c2,10,,10.0,0.11180488491406872,0.003405970011843543,3.153621126644176,0.049999999999999996,0.1,0.1,4.240688317415999,0.046925906070000745,6.796010026477079,0.31499284211656264,1.2326864579893475,1.5439915347079218,0.5786,1.0426,0.002,0.0,0.0,0.217572,0.8926,16.0,0.006,,,,,,201.179764,FAIL,vel error exceeded
85,s09_integrated,g000010_c3,10,,8.173632377856963,0.0019554626374505665,0.056382526668043116,10.134691677036058,0.15,0.1,0.7492090823680063,0.050067299243888544,0.040418232683452564,3.9823577216900072,0.030690133455731513,3.408106397853061,1.9046196978907477,0.5065,0.9215,0.002,0.0,0.0,0.217855,0.8874,16.0,0.006,,,,,,201.165423,FAIL,vel error exceeded
86,s09_integrated,g000010_c4,10,,1.0918126193129738,0.025062273852083778,0.013599014170314193,241.57681280990766,0.15,0.1,0.1,0.15879309730696411,0.6343295836601818,29.647280069726552,0.4327896526666371,100.0,5.516609505058389,0.3811,0.5479,0.0027,0.0,0.0,0.215835,5.0256,16.0,0.006,,,,,,201.179988,FAIL,vel error exceeded
87,s09_integrated,g000010_c5,10,,0.3321963827327421,0.0602656740459377,0.012196346787524955,114.79009176308053,0.15,0.030748846451909034,0.32059231348581096,0.40346021413787286,0.031586109916773186,5.629896898992966,0.4291289481883163,100.0,19.145617849209184,0.4995,0.9093,0.0014,0.0,0.0,0.217683,255.1423,16.0,0.006,,,,,,201.207596,FAIL,vel error exceeded
88,s09_integrated,g000010_c6,10,,3.4643075006586823,0.04388717030045105,0.00013274865616908868,157.84790263539546,0.15,0.08888525772646301,1.1522828833993137,0.3332438395881315,2.0437463089396606,1.4804877627913204,0.029162268511053326,7.867722638747987,0.8644028758765762,0.8813,1.5943,0.002,0.0,0.0,0.218542,1.7533,16.0,0.008,,,,,,201.213086,FAIL,vel error exceeded
89,s09_integrated,g000010_c7,10,,1.0839214494507705,0.013467191901357829,0.0008660101548383657,1.6204092096662857,0.15,0.1,0.1,0.744001039351299,0.011635742111582949,0.5149263916685959,0.06204744703627728,100.0,0.21641208863673844,0.8938,1.6107,0.0023,0.0,0.0,0.21873,5.6377,16.0,0.008,,,,,,201.213858,FAIL,vel error exceeded
90,s09_integrated,g000011_c0,11,,1.074696031513278,0.06922320491802396,0.0023165334888941287,6.062352853430165,0.049999999999999996,0.1,0.1,0.1328937699215805,0.01656218796048997,86.11746099664583,0.12331256525399348,7.406874152741376,3.6000078540180662,0.2442,0.3906,0.0012,0.0,0.0,0.216411,0.8888,16.0,0.004,,,,,,201.17235,FAIL,vel error exceeded
91,s09_integrated,g000011_c1,11,,1.8331601663103265,0.01708502941064388,0.003777320976397227,245.81065502418423,0.049999999999999996,0.1,0.1,0.27406910404130785,0.11252272432002412,21.824790723316834,0.08213393792627163,1.5587921706970662,0.42505829726117167,0.5017,0.9101,0.0027,0.0,0.0,0.215991,0.8501,16.0,0.006,,,,,,201.194048,FAIL,vel error exceeded
92,s09_integrated,g000011_c2,11,,10.0,0.003279959138286864,0.0010359811173817775,1000.0,0.15,0.02796929037672432,0.1,0.05597061919881077,1.2110525171777586,27.42807205032391,0.25461307506472264,100.0,0.5010687688813242,0.3898,0.6258,0.0026,0.0,0.0,0.215833,4.4655,16.0,0.006,,,,,,201.181138,FAIL,vel error exceeded
93,s09_integrated,g000011_c3,11,,4.573405892053811,0.019505974832976128,0.0014012757545024158,43.97249276454266,0.049999999999999996,0.06428820191079766,0.32536343159707587,1.817240766484938,0.4349650311215058,28.52184701416071,0.14633845102484147,100.0,0.8473251191954918,0.4975,0.902,0.0029,0.0,0.0,0.215846,13.1603,16.0,0.006,,,,,,201.195563,FAIL,vel error exceeded
94,s09_integrated,g000011_c4,11,,0.6765411879591933,0.004184287959380102,0.003657543634573035,18.879065495950293,0.049999999999999996,0.03442239742439095,0.1,0.277617289232145,1.35395917483556,0.6494094617517905,0.13844077074091987,100.0,0.3302613319518556,0.7347,1.3856,0.002,0.0,0.0,0.218702,16.4769,16.0,0.008,,,,,,201.192821,FAIL,vel error exceeded
95,s09_integrated,g000011_c5,11,,10.0,0.04779140029282484,0.001987770608401935,43.95658017505573,0.049999999999999996,0.01,0.4606061302146625,2.3584788672655677,0.20967153227642968,66.55300052420124,0.10074344368322537,10.607625876830356,0.5064610599944087,0.4873,0.8835,0.0029,0.0,0.0,0.215847,1.4561,16.0,0.006,,,,,,201.194208,FAIL,vel error exceeded
96,s09_integrated,g000011_c6,11,,0.09154678237496244,0.0024489222952736966,0.00017711069913126155,6.905724022025512,0.15,0.08533234907073571,0.1,0.5143985189330428,0.5293117941126765,84.80881638963847,0.047249896657718046,100.0,0.11997511622742052,0.3857,0.6022,0.0027,0.0,0.0,0.215837,8.4152,16.0,0.006,,,,,,201.180612,FAIL,vel error exceeded
97,s09_integrated,g000011_c7,11,,10.0,0.005835534893415196,0.0009127881531487658,68.55993700513214,0.049999999999999996,0.021340791394682795,0.1,0.8167468297471232,0.1523107035159412,34.941237647545975,0.3240530413000253,95.2443938862422,1.9732794526505697,0.4982,0.9035,0.0028,0.0,0.0,0.215845,15.7784,16.0,0.006,,,,,,201.195652,FAIL,vel error exceeded
98,s09_integrated,g000012_c0,12,,0.5086662185019948,0.0317133522639246,0.009504416379803003,16.23933617158878,0.049999999999999996,0.1,0.11566095247867945,0.4484945226523782,0.3774654368210203,25.540437179125686,0.013259574418850787,49.39697253159605,0.6187243650352747,0.2415,0.382,0.0012,0.0,0.0,0.216412,5.9328,16.0,0.004,,,,,,201.171995,FAIL,vel error exceeded
99,s09_integrated,g000012_c1,12,,0.5688017530852921,0.003274112192358835,0.012179063177178755,11.647447585141899,0.049999999999999996,0.1,0.6668631678763454,0.05035564035856163,0.6885521170766842,14.01973296115095,0.361071487537421,100.0,0.6033164735736156,0.5444,0.9838,0.0028,0.0,0.0,0.216847,13.8079,16.0,0.006,,,,,,201.188314,FAIL,vel error exceeded
100,s09_integrated,g000012_c2,12,,1.6157562429058339,0.04020592888280836,0.002944406525779087,43.86156848232599,0.049999999999999996,0.09695230329480567,0.2895413818153191,1.3094553782123342,0.40107530578925116,77.25310108999987,0.1049420641460692,100.0,3.3443077232681286,0.4984,0.9035,0.003,0.0,0.0,0.215851,17.0478,16.0,0.006,,,,,,201.195708,FAIL,vel error exceeded
101,s09_integrated,g000012_c3,12,,1.1141291490096692,0.008058551739359043,0.0003869736898627526,20.219813498039507,0.049999999999999996,0.1,0.49422584479333126,0.3870259935613943,0.13015008187523586,17.969044046858002,0.5695683752794517,33.714476831234336,0.219146171986116,0.5142,0.9335,0.0026,0.0,0.0,0.216443,4.1734,16.0,0.006,,,,,,201.190145,FAIL,vel error exceeded
102,s09_integrated,g000012_c4,12,,1.1367263008117183,0.006711667748376896,0.009009595656834436,26.99829825894736,0.15,0.1,0.3225622183687978,0.5938528258016919,0.15981811282452846,2.8283988993482847,0.054501373726860945,7.524953805840319,3.1334762202799884,0.8407,1.5301,0.0026,0.0,0.0,0.218326,1.2492,16.0,0.008,,,,,,201.209199,FAIL,vel error exceeded
103,s09_integrated,g000012_c5,12,,3.5795860382610027,0.016692144953011107,0.001174668261268777,89.65735613315285,0.049999999999999996,0.1,0.1,0.11453460523814071,0.0800453125799108,36.370168565880725,0.018403574945929545,75.02615374553807,1.0465949585740377,0.5013,0.909,0.0029,0.0,0.0,0.215846,14.6196,16.0,0.006,,,,,,201.19607,FAIL,vel error exceeded
104,s09_integrated,g000012_c6,12,,10.0,0.036984942337684,0.0011704159385738232,52.04140854001972,0.050865695386759245,0.1,0.10829447074756281,0.30792796877584344,0.8150212777133924,23.14913358508279,0.05050550641043644,100.0,2.26245760893805,0.4988,0.9048,0.0029,0.0,0.0,0.215933,58.2186,16.0,0.006,,,,,,201.202338,FAIL,vel error exceeded
105,s09_integrated,g000012_c7,12,,2.201041624786501,0.01944541746545978,0.002027731168787425,71.94066780257621,0.06513170063789203,0.01,0.1,0.12490932204667761,0.17893411413869265,100.0,0.21171207712028778,51.61312030246626,1.1558122331037992,0.4786,0.8674,0.0029,0.0,0.0,0.215846,4.0646,16.0,0.006,,,,,,201.193043,FAIL,vel error exceeded
106,s09_integrated,g000013_c0,13,,2.542617494159065,0.11534755862962764,0.000552498861260882,48.446547376502664,0.049999999999999996,0.02440636380942348,0.1,0.3442458565335562,0.1261900849662887,39.58152261838769,0.10927001918043304,17.583393966443655,0.5082988311319228,0.4938,0.8956,0.0028,0.0,0.0,0.215842,1.6265,16.0,0.006,,,,,,201.19505,FAIL,vel error exceeded
107,s09_integrated,g000013_c1,13,,4.875197041757821,0.060682210228651244,0.0005543854993057606,29.405680489810212,0.049999999999999996,0.031139643018971746,0.1438851816997486,0.33800639299851176,0.3096024439123356,10.003672146872146,0.39876722270038756,18.29224955146001,1.8390759244262034,0.5548,1.0046,0.0019,0.0,0.0,0.21723,6.1054,16.0,0.006,,,,,,201.181997,FAIL,vel error exceeded
108,s09_integrated,g000013_c2,13,,10.0,0.008979546607776676,0.002069239066466614,21.620885153842245,0.049999999999999996,0.1,0.20295861567304996,0.4472291443002436,0.11954858351500638,2.6283697673514306,0.18152531669005403,100.0,1.2040298413959707,0.7889,1.4612,0.0023,0.0,0.0,0.218368,17.9831,16.0,0.008,,,,,,201.202595,FAIL,vel error exceeded
109,s09_integrated,g000013_c3,13,,2.7941901588018188,0.0414028224981663,0.0007250354373337421,5.524221447473344,0.049999999999999996,0.030276805857922612,0.14666651174972103,0.09085265639793613,0.0752780796682421,43.379160835978254,0.06629406119129815,28.45247394365972,0.24140707785580998,0.245,0.3927,0.0011,0.0,0.0,0.216409,4.1975,16.0,0.004,,,,,,201.172447,FAIL,vel error exceeded
110,s09_integrated,g000013_c4,13,,3.553300224884072,0.01655496704441062,0.0037704868032511648,66.98865061392347,0.15,0.0843351301420337,0.1428059791124687,0.020253782915296104,0.2628795267191292,18.689530062548208,0.41359036284521666,100.0,0.18270474920886448,0.4,0.6638,0.0024,0.0,0.0,0.216349,17.249,16.0,0.006,,,,,,201.177695,FAIL,vel error exceeded
111,s09_integrated,g000013_c5,13,,9.639336476567859,0.037105077282424126,0.005254323088751592,10.450849186305286,0.049999999999999996,0.07431904648192465,0.1,1.365703072332852,0.04906348459669399,48.408038899148025,0.1309109329007665,100.0,3.221401028705957,0.2429,0.3867,0.0012,0.0,0.0,0.216412,9.9587,16.0,0.004,,,,,,201.172182,FAIL,vel error exceeded
112,s09_integrated,g000013_c6,13,,10.0,0.009411598800315522,0.0025273282959382757,3.419470573259572,0.07130278662712604,0.08081501155300534,0.10255403661715218,0.08203528834254156,0.24794835845190238,40.19005840865989,0.04818983115570863,12.854892868390806,0.28104578599259766,0.2277,0.3144,0.0012,0.0,0.0,0.216412,0.9474,16.0,0.004,,,,,,201.170155,FAIL,vel error exceeded
113,s09_integrated,g000013_c7,13,,10.0,0.09394087936307564,0.0046665604675114,43.02513193971897,0.049999999999999996,0.022468676997324258,0.23199447752585822,0.1199560310671001,0.06554164693801,4.7165533213750255,0.24145011782300638,100.0,0.6309036430970438,0.5624,1.0213,0.0014,0.0,0.0,0.217771,11.881,16.0,0.006,,,,,,201.174524,FAIL,vel error exceeded
114,s09_integrated,g000014_c0,14,,3.8399866413761834,0.011464054207301415,0.0010299172439461831,64.65898152272179,0.05853972192483093,0.08005215129037341,0.19899072082639446,0.16854785467569125,0.209246647936997,10.335974375941024,0.09662142192729015,51.189543181457985,0.1804186149133128,0.543,0.9849,0.002,0.0,0.0,0.217169,10.903,16.0,0.006,,,,,,201.180951,FAIL,vel error exceeded
115,s09_integrated,g000014_c1,14,,1.4225531612314837,0.06249635246078648,0.0003342572706256232,16.945062371320855,0.049999999999999996,0.1,0.2837437075260715,0.7928150164893804,0.40433972945057317,27.76292657791371,0.1980270918328925,12.471973653247769,0.29353726512397166,0.4929,0.8938,0.0029,0.0,0.0,0.215844,1.5379,16.0,0.006,,,,,,201.19494,FAIL,vel error exceeded
116,s09_integrated,g000014_c2,14,,7.587126269090221,0.01778388118621745,0.003174783800147644,41.29052035880637,0.08738842353762695,0.1,0.45770781242006947,0.05629528752595923,0.3848082428353183,31.550767302519272,0.17600431591500532,20.77359692025643,0.5791739714301483,0.4279,0.7588,0.0029,0.0,0.0,0.215845,3.5547,16.0,0.006,,,,,,201.186278,FAIL,vel error exceeded
117,s09_integrated,g000014_c3,14,,5.343632850718741,0.037029622180945375,0.00044084225889003234,21.28498556025782,0.15,0.1,0.6866658081855337,0.19138697671150573,0.08746658954849568,30.00359086779507,0.15358985720284363,41.690504515553336,0.5839272792176364,0.3849,0.5959,0.0026,0.0,0.0,0.215836,4.105,16.0,0.006,,,,,,201.1805,FAIL,vel error exceeded
118,s09_integrated,g000014_c4,14,,2.979750330113945,0.013907076913781903,0.0038415901154151572,38.57052530538219,0.049999999999999996,0.1,0.27859122300664974,0.49485791185304445,0.2390880175031337,9.151999722657417,0.1365316323719748,17.326361983441032,0.19961999497518393,0.5626,1.0171,0.002,0.0,0.0,0.2173,2.3438,16.0,0.006,,,,,,201.181377,FAIL,vel error exceeded
119,s09_integrated,g000014_c5,14,,10.0,0.01572038788441276,0.002550153444728725,28.5335121302523,0.049999999999999996,0.06823200639186312,0.4652772477069552,0.1197829256376551,0.2253064219514868,12.678511106509252,0.05218847722495776,21.155387762845244,0.09804678384209958,0.5471,0.9904,0.0024,0.0,0.0,0.216924,2.0531,16.0,0.006,,,,,,201.185,FAIL,vel error exceeded
120,s09_integrated,g000014_c6,14,,10.0,0.019734797373113795,0.0034638693901255886,98.25577885882497,0.049999999999999996,0.0713127691746149,0.2980848661375307,0.3798955839306471,0.40858984133851517,5.405151333530188,0.27158042555400275,11.57091656249603,4.063396914297632,0.5791,1.0464,0.0014,0.0,0.0,0.2177,9.6772,16.0,0.006,,,,,,201.177596,FAIL,vel error exceeded
121,s09_integrated,g000014_c7,14,,1.5437416699794968,0.02596816240265586,0.0007519826477866285,17.48886430658122,0.049999999999999996,0.032107531060211254,0.1,1.0973170500592921,0.34497993647856134,11.67354582383913,0.09894046573682798,26.793034967069772,0.19340692974585164,0.5513,0.9978,0.0022,0.0,0.0,0.217032,1.4895,16.0,0.006,,,,,,201.183931,FAIL,vel error exceeded
122,s09_integrated,g000015_c0,15,,10.0,0.049596700183868914,0.0038113659064075937,40.654686764911304,0.049999999999999996,0.1,0.1,0.10549438522911633,0.2636761748223342,8.085963562111361,0.13063898647890113,49.230563588889204,1.1672230442993259,0.5738,1.0354,0.0018,0.0,0.0,0.217412,11.3678,16.0,0.006,,,,,,201.181437,FAIL,vel error exceeded
123,s09_integrated,g000015_c1,15,,10.0,0.015883926425380467,0.00448454877205061,237.47835413266154,0.049999999999999996,0.1,0.1,0.28483412672929553,0.6188626916225007,8.050627822364792,0.11471408927896677,21.953502592756763,1.9071800114176014,0.5724,1.0336,0.0017,0.0,0.0,0.217411,3.6352,16.0,0.006,,,,,,201.180827,FAIL,vel error exceeded
124,s09_integrated,g000015_c2,15,,1.2818784783344435,0.03762364173592869,0.0012973113105316186,16.5745152078516,0.06022683739929562,0.0868392548245239,0.1,0.23747553014812986,0.0850805957225455,9.908513136021778,0.2626768347755225,41.10432557358148,0.3830963644118946,0.5667,1.0234,0.0021,0.0,0.0,0.217236,8.0411,16.0,0.006,,,,,,201.183668,FAIL,vel error exceeded
125,s09_integrated,g000015_c3,15,,10.0,0.08815676052152269,0.00346446733799817,17.37794610934059,0.049999999999999996,0.06732342227392905,0.21815453664124307,0.16595703538451598,0.216114406042899,30.867568461764307,0.22714800212450595,94.37483463058727,0.5646177750446366,0.2354,0.357,0.0012,0.0,0.0,0.216407,7.5438,16.0,0.004,,,,,,201.171157,FAIL,vel error exceeded
126,s09_integrated,g000015_c4,15,,2.7433194482302685,0.040135146281659435,0.0038441134590050437,18.142414666001518,0.15,0.03544640825250995,0.47598440971324535,0.03467052423162221,0.3727774861246439,27.65213751912593,0.061302530020239165,34.11812857096228,0.2726145107066302,0.3832,0.5939,0.0029,0.0,0.0,0.215847,3.7196,16.0,0.006,,,,,,201.180328,FAIL,vel error exceeded
127,s09_integrated,g000015_c5,15,,4.360231999143346,0.02465737472339001,0.0028666082499128457,26.50953754994559,0.07290444314347547,0.1,0.10834447191823643,0.3089895650855557,0.43871235608280784,7.353084311340622,0.061659242243007256,48.49040759952563,1.0175483242077936,0.5498,0.9971,0.0017,0.0,0.0,0.217481,2.8177,16.0,0.006,,,,,,201.176685,FAIL,vel error exceeded
128,s09_integrated,g000015_c6,15,,5.855282363983962,0.040215700454365136,0.0011897353283290603,47.91095172131367,0.049999999999999996,0.0266374930883631,0.1,0.06196020615575732,0.22887881733997675,14.521292927121722,0.019263792981219434,18.670013509578048,0.5848255813819556,0.536,0.9716,0.0023,0.0,0.0,0.21673,1.516,16.0,0.006,,,,,,201.186536,FAIL,vel error exceeded
129,s09_integrated,g000015_c7,15,,3.1893686049491228,0.04570485198376222,0.002625525145264391,30.110529376926486,0.050631722030486805,0.03200599879720844,0.15105856207044596,0.08391897235989365,0.5743473299149348,56.51211084630859,0.1015304798044928,32.44982859012551,0.8094089482306095,0.4926,0.893,0.003,0.0,0.0,0.215851,4.1999,16.0,0.006,,,,,,201.194935,FAIL,vel error exceeded
130,s09_integrated,g000016_c0,16,,2.904705998877876,0.015969550246532977,0.002885770309313238,57.24935749272278,0.049999999999999996,0.03164489987053914,0.1,0.17150534996592579,0.08111742510951203,16.77618719051672,0.13165321154952858,24.568653179313376,0.7175631137704599,0.521,0.9454,0.0026,0.0,0.0,0.21651,3.1524,16.0,0.006,,,,,,201.188368,FAIL,vel error exceeded
131,s09_integrated,g000016_c1,16,,4.5537105667969415,0.05172321250523516,0.0030604108972322485,29.694234310888593,0.049999999999999996,0.08460631612153849,0.30548994161791304,0.11936987592310123,0.12488905619829717,9.007771315820516,0.12131390572195956,100.0,1.2690903171264796,0.5626,1.0171,0.002,0.0,0.0,0.217314,4.5027,16.0,0.006,,,,,,201.181152,FAIL,vel error exceeded
132,s09_integrated,g000016_c2,16,,6.997070044563646,0.04186051275531458,0.002629016570876022,41.01289866365042,0.06516121682100376,0.1,0.1,0.637089895580713,0.2935055900796249,10.417015106289067,0.1552900970107585,61.62944994100486,0.7716468302447484,0.5336,0.9689,0.0021,0.0,0.0,0.217168,9.7257,16.0,0.006,,,,,,201.179861,FAIL,vel error exceeded
133,s09_integrated,g000016_c3,16,,3.6198941695286226,0.014934543662905725,0.004093390560107735,30.11783837356318,0.049999999999999996,0.1,0.24394349152711514,0.15592395769020304,0.3507740525700547,12.180941397806764,0.06709495374283513,28.096903013471128,0.6544400602414319,0.5509,0.9965,0.0024,0.0,0.0,0.216981,1.7578,16.0,0.006,,,,,,201.184754,FAIL,vel error exceeded
134,s09_integrated,g000016_c4,16,,2.1185716896410542,0.03806796545620063,0.0012754878196751041,24.162669710800714,0.07200306434442191,0.1,0.11634395271810767,0.1879544756333901,1.1039819889746592,18.2576412569528,0.08974218534764565,82.18280994722697,0.33932439017057847,0.489,0.8878,0.0026,0.0,0.0,0.216358,4.7456,16.0,0.006,,,,,,201.186694,FAIL,vel error exceeded
135,s09_integrated,g000016_c5,16,,0.9920536574267238,0.054553475492552815,0.0016151730314705893,11.100085812521423,0.05966833159110996,0.05601380979180746,0.2607591564163082,0.13331571998728262,0.2020619822933029,30.001646167409355,0.05719509724366247,36.82675525464192,0.5680588325812572,0.2344,0.353,0.0011,0.0,0.0,0.216409,3.0518,16.0,0.004,,,,,,201.171033,FAIL,vel error exceeded
136,s09_integrated,g000016_c6,16,,4.794825982814771,0.01910478476138406,0.002452625702312792,36.78585955954792,0.049999999999999996,0.1,0.18266248206338664,0.06070506791849387,0.11841603358059391,10.20999373894456,0.2771096000183932,52.51466332557458,0.4133178380693563,0.5639,1.0188,0.0021,0.0,0.0,0.217203,6.7291,16.0,0.006,,,,,,201.183609,FAIL,vel error exceeded
137,s09_integrated,g000016_c7,16,,4.0923299793254255,0.030860662660265006,0.0024893913379420954,61.81327378676429,0.09849626336712637,0.09303802445346328,0.21387749159609387,0.09948039628180877,0.14659106007797695,4.279209824106951,0.08930188825622598,53.79313640964398,0.451473212501085,0.8564,1.5522,0.0026,0.0,0.0,0.218079,2.477,16.0,0.008,,,,,,201.212893,FAIL,vel error exceeded
138,s09_integrated,g000017_c0,17,,5.689051962724074,0.01107268795588074,0.0029283100782436958,56.56554312672388,0.049999999999999996,0.09333977531433575,0.10322007233868156,0.14779492080090903,0.07306731535852412,9.21808020645908,0.11298476843901498,29.15664172785316,0.8058927870504775,0.5677,1.0253,0.0019,0.0,0.0,0.217291,6.4306,16.0,0.006,,,,,,201.182229,FAIL,vel error exceeded
139,s09_integrated,g000017_c1,17,,5.694197946069046,0.05407093894982529,0.0028077423957915616,73.89902269106852,0.06222477400843667,0.086622704890333,0.1,0.1322375202226238,0.1638793795602431,14.426032242964984,0.11471594128660659,13.43650950966963,0.7078495539093563,0.5247,0.9526,0.0023,0.0,0.0,0.216751,2.4603,16.0,0.006,,,,,,201.184966,FAIL,vel error exceeded
140,s09_integrated,g000017_c2,17,,2.65469577451862,0.02939269677483467,0.0020896880592656025,44.41183057238898,0.15,0.1,0.10776185908767046,0.09769383473532729,0.39647552640138717,19.473272995848202,0.3665851200219218,41.86791386099166,1.042153504237131,0.4013,0.672,0.0024,0.0,0.0,0.216271,9.7665,16.0,0.006,,,,,,201.177705,FAIL,vel error exceeded
141,s09_integrated,g000017_c3,17,,6.253802305052946,0.018253458656324186,0.0009843461234036806,38.80113046038965,0.049999999999999996,0.06954783517175905,0.16887162909677753,0.13841538231074865,0.30462351552923383,18.82955795350988,0.07844796844086574,21.106112927367334,0.7609193138678293,0.5176,0.9386,0.0025,0.0,0.0,0.216302,2.3969,16.0,0.006,,,,,,201.191276,FAIL,vel error exceeded
142,s09_integrated,g000017_c4,17,,2.0803130957567944,0.018466410921334584,0.0025820589777912524,33.57252525365132,0.049999999999999996,0.07605362456278374,0.1,0.2924593971766902,0.34815050467738445,13.699530589838343,0.0490035854851969,39.736402193070575,0.542414125924816,0.5453,0.9871,0.0023,0.0,0.0,0.216822,5.3378,16.0,0.006,,,,,,201.186651,FAIL,vel error exceeded
143,s09_integrated,g000017_c5,17,,6.308273851982563,0.04984702018944321,0.0015588133979605086,96.41500864623352,0.06262886723043681,0.1,0.22021961413096897,0.09938939323680523,0.3136775267042098,5.493681017936078,0.1421800630362506,100.0,0.5366348225979939,0.575,1.0391,0.0014,0.0,0.0,0.21768,7.7616,16.0,0.006,,,,,,201.177216,FAIL,vel error exceeded
144,s09_integrated,g000017_c6,17,,10.0,0.03323619400096544,0.0011014956482153966,31.09254680070993,0.058599819079093174,0.09644670476446489,0.15403387601979882,0.10319402439331743,0.23246889758117234,10.952631595214795,0.22549235355410546,72.14606753737337,0.35243047962778057,0.568,1.0251,0.0021,0.0,0.0,0.217122,9.4664,16.0,0.006,,,,,,201.185379,FAIL,vel error exceeded
145,s09_integrated,g000017_c7,17,,3.43996257613924,0.019172347113402963,0.0015069277450964736,30.07188786910079,0.07021596321404201,0.1,0.1,0.2320922034547187,0.4915378179802418,10.18653814675533,0.13632679318911417,47.642186505377175,0.32410243262952315,0.538,0.9763,0.002,0.0,0.0,0.217191,2.7947,16.0,0.006,,,,,,201.179832,FAIL,vel error exceeded
146,s09_integrated,g000018_c0,18,,5.522473539352993,0.041713731697044745,0.0014183145513016271,50.8893868507106,0.049999999999999996,0.1,0.20024350431208615,0.23052412307588657,0.2213952804035454,18.022750093329194,0.21167315663008524,59.567420146589605,0.4385326103725842,0.5225,0.9476,0.0027,0.0,0.0,0.216392,15.1535,16.0,0.006,,,,,,201.191954,FAIL,vel error exceeded
147,s09_integrated,g000018_c1,18,,9.582176976715894,0.08125531401126611,0.0026780928460931165,35.13581708854,0.06647991871228406,0.1,0.17823463210795437,0.16734624724056082,0.4672607516620308,13.051790907008863,0.07898236098164768,54.129357623353904,1.2008868079472468,0.5218,0.9477,0.0024,0.0,0.0,0.216886,4.4164,16.0,0.006,,,,,,201.182308,FAIL,vel error exceeded
148,s09_integrated,g000018_c2,18,,4.278526922486789,0.040878191629224396,0.0012060382050825171,29.278343074429362,0.05445863379461681,0.1,0.27409827720094415,0.21481442136217954,0.22013336763231706,11.198473828727755,0.19813510781001653,62.014493661149146,0.5781921105984457,0.5488,0.994,0.0021,0.0,0.0,0.217091,3.6059,16.0,0.006,,,,,,201.182961,FAIL,vel error exceeded
149,s09_integrated,g000018_c3,18,,5.020760983846821,0.022557490168365477,0.0021224854973007335,40.247668806285525,0.049999999999999996,0.03815554162219344,0.1,0.21227610638080718,0.24119318552893262,8.6988029673367,0.10881616312059006,62.09874541676536,0.5335730595663867,0.5658,1.0225,0.0019,0.0,0.0,0.217345,13.8724,16.0,0.006,,,,,,201.181607,FAIL,vel error exceeded
150,s09_integrated,g000018_c4,18,,5.316832915841817,0.02989224353101079,0.003827833955776253,39.40769659020104,0.07453699138679092,0.1,0.13444548641979398,0.22179796411627206,0.3655496888431709,15.194990940981166,0.17177126473958026,54.90540041713774,0.5154738682646256,0.5126,0.9311,0.0024,0.0,0.0,0.216682,6.6538,16.0,0.006,,,,,,201.184942,FAIL,vel error exceeded
151,s09_integrated,g000018_c5,18,,5.03966546357174,0.022292430040942335,0.002043137868080706,26.196614754825905,0.0835205338562236,0.1,0.1,0.5460434406096804,0.24456407943601638,15.62777911004601,0.20760349430627592,41.532103432708915,0.42117539044007085,0.5051,0.9178,0.0024,0.0,0.0,0.21664,8.8046,16.0,0.006,,,,,,201.184847,FAIL,vel error exceeded
152,s09_integrated,g000018_c6,18,,2.9024888254637466,0.019210884065269176,0.0005999090953338242,45.39033811102813,0.049999999999999996,0.1,0.13270449271473886,0.217818980917094,0.3058369265824081,18.459705444934556,0.07989464287745685,34.08458914852102,0.3994629260506827,0.5167,0.9372,0.0024,0.0,0.0,0.216339,1.042,16.0,0.006,,,,,,201.190598,FAIL,vel error exceeded
153,s09_integrated,g000018_c7,18,,3.5050324732848863,0.031111047973346812,0.0007384885925921337,34.980971234630374,0.049999999999999996,0.1,0.1,0.10546892081527764,0.1204269537655023,18.65853328141145,0.12261162111537295,22.433579661587945,0.650724491551415,0.52,0.9428,0.0024,0.0,0.0,0.216326,4.1946,16.0,0.006,,,,,,201.191422,FAIL,vel error exceeded
154,s09_integrated,g000019_c0,19,,2.7391089407895755,0.031634974220247435,0.0025754454578667913,54.63826516700956,0.049999999999999996,0.1,0.12881190834029943,0.296417144708829,0.2712923052852634,8.96581673186247,0.15922923330494793,33.001851181927044,0.6218706472555191,0.5567,1.0078,0.0019,0.0,0.0,0.21732,6.9966,16.0,0.006,,,,,,201.180455,FAIL,vel error exceeded
155,s09_integrated,g000019_c1,19,,5.9554733373108295,0.03502451487392063,0.0011121650153626916,25.098241888775988,0.049999999999999996,0.1,0.10578571336992088,0.1902381603524904,0.12364250914826976,12.782315761100032,0.07701763684380274,44.02836172780815,0.362394542381723,0.5381,0.9755,0.0024,0.0,0.0,0.216913,3.3884,16.0,0.006,,,,,,201.184025,FAIL,vel error exceeded
156,s09_integrated,g000019_c2,19,,2.6621172974203793,0.031759256260868375,0.0020488566860740833,54.5155607195917,0.049999999999999996,0.1,0.1,0.24332380692439207,0.1848015849114128,15.782990649382503,0.07335373906146145,43.125979798965446,0.5974534732400637,0.5497,0.9935,0.0024,0.0,0.0,0.216609,3.9273,16.0,0.006,,,,,,201.190576,FAIL,vel error exceeded
157,s09_integrated,g000019_c3,19,,6.934483915724109,0.020436683399341442,0.0011165432894040604,47.34397716092295,0.049999999999999996,0.1,0.1,0.2727762297073853,0.15809985154644804,12.369307256440285,0.16856632615367872,49.3222225750454,0.4522677930990723,0.564,1.018,0.0023,0.0,0.0,0.216968,9.2745,16.0,0.006,,,,,,201.187124,FAIL,vel error exceeded
158,s09_integrated,g000019_c4,19,,6.600062313488447,0.043938154282226936,0.001511287991627039,15.729363640642806,0.07035857533543681,0.06504015251536202,0.1296031771200706,0.28968791936420046,0.16497367425398538,14.063440925942594,0.09424131812232142,40.82604552901687,0.44530566303490404,0.5087,0.9245,0.0023,0.0,0.0,0.216788,4.6844,16.0,0.006,,,,,,201.182358,FAIL,vel error exceeded
159,s09_integrated,g000019_c5,19,,6.090311295089685,0.06396659602232042,0.0012983254072320176,33.01236045568127,0.049999999999999996,0.1,0.1,0.25344080988755185,0.2800996294352868,7.310269571263784,0.07786160999591833,28.589361978024662,0.5112475109395745,0.577,1.041,0.0017,0.0,0.0,0.217489,5.4924,16.0,0.006,,,,,,201.180258,FAIL,vel error exceeded
160,s09_integrated,g000019_c6,19,,5.6914064433966365,0.025699992769366468,0.0017384124197233574,48.350640873817675,0.051086964634247264,0.1,0.12460659387467284,0.3705649475113741,0.20136253856577,13.345243637189219,0.13511703179459833,50.28045815022922,0.778915728909538,0.539,0.977,0.0023,0.0,0.0,0.216863,7.4211,16.0,0.006,,,,,,201.185332,FAIL,vel error exceeded
161,s09_integrated,g000019_c7,19,,3.3931926670396635,0.03722395761544864,0.0011674991328294866,33.27159140032867,0.05708702131774887,0.1,0.10048116998471483,0.18004883033886457,0.1553641275871938,16.588206517212782,0.16394222113706017,43.48647623617078,0.4023461430374087,0.5116,0.9292,0.0025,0.0,0.0,0.216532,6.4123,16.0,0.006,,,,,,201.187017,FAIL,vel error exceeded
162,s09_integrated,g000020_c0,20,,4.608019537803438,0.035106960191301245,0.0015963528438922984,51.366677584570006,0.049999999999999996,0.1,0.1384839283993151,0.18569617857238252,0.1695378152145044,17.8823697835196,0.07744109395215817,47.970809754715575,0.5971821118336992,0.5282,0.9572,0.0027,0.0,0.0,0.216389,11.8558,16.0,0.006,,,,,,201.191789,FAIL,vel error exceeded
163,s09_integrated,g000020_c1,20,,4.286042800157246,0.03931653059284252,0.0030752047357696446,43.97769090257709,0.07590072681552186,0.07778070288375677,0.1,0.2591344665145544,0.14243679030537407,15.713212879626225,0.08931580706563629,35.71542040615663,0.7436283725906897,0.4951,0.8995,0.0024,0.0,0.0,0.216615,2.6354,16.0,0.006,,,,,,201.183144,FAIL,vel error exceeded
164,s09_integrated,g000020_c2,20,,6.0122548367846695,0.01823482550750348,0.0016499368001540603,42.465597377683736,0.049999999999999996,0.08656539457913363,0.11171273072004616,0.18632450886686325,0.19150060733883256,10.611157158483437,0.130394314408269,43.750464621204976,0.6683293598862996,0.5633,1.0177,0.0021,0.0,0.0,0.217147,5.1887,16.0,0.006,,,,,,201.183947,FAIL,vel error exceeded
165,s09_integrated,g000020_c3,20,,4.453371791657536,0.04470128536966595,0.0030341590825271004,69.77351496018585,0.049999999999999996,0.1,0.1086414501145127,0.19225677787992462,0.3027842637310701,10.666026531863016,0.1438701193702649,29.91640417184605,0.6049363223537518,0.5645,1.0196,0.0021,0.0,0.0,0.217143,1.9796,16.0,0.006,,,,,,201.184126,FAIL,vel error exceeded
166,s09_integrated,g000020_c4,20,,6.4742754267406415,0.03200665087797185,0.001613896599336687,58.97384054691138,0.060517788124773104,0.0851837488947705,0.1,0.1849328100499052,0.1993266223459762,11.832638069093992,0.12452434184705642,36.75728628546311,0.5232236488170209,0.5523,0.9994,0.0022,0.0,0.0,0.217019,7.557,16.0,0.006,,,,,,201.184589,FAIL,vel error exceeded
167,s09_integrated,g000020_c5,20,,4.804609699445919,0.03896988494063727,0.0020028693102041896,38.33893902912372,0.049999999999999996,0.1,0.16374882441340324,0.17679827574301238,0.3490658566942623,11.521353524492774,0.12761366280241257,35.306830043964474,0.41025371991179854,0.5473,0.9912,0.0023,0.0,0.0,0.217052,2.8844,16.0,0.006,,,,,,201.183219,FAIL,vel error exceeded
168,s09_integrated,g000020_c6,20,,4.681197294561291,0.045729803535966174,0.0011187926972954032,67.63417453563599,0.049999999999999996,0.1,0.1,0.21402928628110046,0.21425623273319377,10.4537084078632,0.07647396111879481,38.16415902820314,0.7300469690272019,0.5508,0.9977,0.002,0.0,0.0,0.217155,2.5697,16.0,0.006,,,,,,201.181861,FAIL,vel error exceeded
169,s09_integrated,g000020_c7,20,,7.251436450241735,0.028670327600822904,0.0016969528294275816,51.6307373237115,0.049999999999999996,0.08426931400799029,0.1,0.16082069581170824,0.22194979773428677,8.881992361172266,0.13868451377706842,42.16578171756989,0.37998255140124676,0.5675,1.0254,0.0019,0.0,0.0,0.217327,2.9261,16.0,0.006,,,,,,201.181612,FAIL,vel error exceeded
170,s09_integrated,g000021_c0,21,,3.8229223671938057,0.03478977960043508,0.0016756451736252387,39.507517242575446,0.053027625304775894,0.1,0.13595782711861484,0.19130231178249377,0.205360233679569,14.848907888876708,0.08395653942745673,53.86472190513027,0.3284898501605059,0.5391,0.9765,0.0024,0.0,0.0,0.216706,6.6407,16.0,0.006,,,,,,201.187927,FAIL,vel error exceeded
