run_id,scenario,label,gen,timestamp,Q_PITCH,Q_PITCH_RATE,Q_VEL,R,KP_V,KI_V,KFF_V,KP_YAW,KI_YAW,LEG_K_S,LEG_B_S,LEG_K_ROLL,LEG_D_ROLL,rms_pitch_deg,max_pitch_deg,wheel_travel_m,wheel_liftoff_s,vel_track_rms_ms,hip_track_rms_rad,hip_cmd_rate_rms,settle_time_s,survived_s,fitness_balance,fitness_disturbance,fitness_drive_slow,fitness_drive_med,fitness_obstacle,fitness,status,fail_reason
1,s04_vel_pi_staircase,evo_seed,0,,,,,,0.0012179142,0.27618081,1.2,,,,,,,1.5475,2.5503,0.7739,0.0,0.0698,0.005031,0.0,0.0,3.0,,,,,,200.231885,FAIL,vel error exceeded
2,s04_vel_pi_staircase,g000000_c0,0,,,,,,0.001,0.001,0.11015446747164757,,,,,,,0.1268,0.2654,1.1989,0.0,0.2788,0.004928,0.0,0.0,3.0,,,,,,200.842083,FAIL,vel error exceeded
3,s04_vel_pi_staircase,g000000_c1,0,,,,,,0.001,0.004115947695305518,1.2,,,,,,,0.1623,0.3541,1.1917,0.0,0.2747,0.00493,0.0,0.0,3.0,,,,,,200.83046,FAIL,vel error exceeded
4,s04_vel_pi_staircase,g000000_c2,0,,,,,,0.001,0.1840204900245105,1.2,,,,,,,1.4147,2.7287,0.8753,0.0,0.1049,0.005016,0.0,0.0,3.0,,,,,,200.333652,FAIL,vel error exceeded
5,s04_vel_pi_staircase,g000000_c3,0,,,,,,0.001,1.2148773949427687,1.2,,,,,,,6.0191,12.4122,0.3319,0.0,0.3407,0.004883,0.0,0.0,2.178,,,,,,201.274707,FAIL,vel error exceeded
6,s04_vel_pi_staircase,g000000_c4,0,,,,,,0.001,0.06129304183939555,1.2,,,,,,,0.7418,1.6454,1.0734,0.0,0.2078,0.004967,0.0,0.0,3.0,,,,,,200.635607,FAIL,vel error exceeded
7,s04_vel_pi_staircase,g000000_c5,0,,,,,,0.001,0.6322688711297517,1.2,,,,,,,1.9156,3.8385,0.6973,0.0,0.1897,0.004978,0.0,0.0,3.0,,,,,,200.653762,FAIL,vel error exceeded
8,s04_vel_pi_staircase,g000000_c6,0,,,,,,0.001,10.0,1.2,,,,,,,3.126,8.9023,0.0387,0.0,0.0,0.004072,0.0,13.0,0.308,,,,,,200.702897,FAIL,vel error exceeded
9,s04_vel_pi_staircase,g000000_c7,0,,,,,,0.001093148106272642,2.9120927776389425,1.2,,,,,,,6.9243,12.1987,0.1003,0.0,0.6199,0.005167,0.0,13.0,1.002,,,,,,202.111595,FAIL,vel error exceeded
10,s04_vel_pi_staircase,g000001_c0,1,,,,,,0.003718993713520874,0.11479144478975008,0.1995609495155518,,,,,,,1.1274,2.3664,0.9735,0.0,0.1544,0.004994,0.0,0.0,3.0,,,,,,200.479577,FAIL,vel error exceeded
11,s04_vel_pi_staircase,g000001_c1,1,,,,,,0.0012086148165098294,10.0,1.2,,,,,,,3.1395,8.9319,0.0388,0.0,0.0,0.004073,0.0,13.0,0.308,,,,,,200.70449,FAIL,vel error exceeded
12,s04_vel_pi_staircase,g000001_c2,1,,,,,,0.020283697852325186,0.1008121043403816,0.7227259230241669,,,,,,,1.0975,2.3101,0.971,0.0,0.1568,0.004993,0.0,0.0,3.0,,,,,,200.48777,FAIL,vel error exceeded
13,s04_vel_pi_staircase,g000001_c3,1,,,,,,0.001,0.015789670344338293,1.019646956946824,,,,,,,0.2956,0.6721,1.1669,0.0,0.2603,0.004939,0.0,0.0,3.0,,,,,,200.788658,FAIL,vel error exceeded
14,s04_vel_pi_staircase,g000001_c4,1,,,,,,0.0026179925997234775,0.03815300597160455,1.2,,,,,,,0.5427,1.2207,1.1155,0.0,0.2316,0.004954,0.0,0.0,3.0,,,,,,200.704728,FAIL,vel error exceeded
15,s04_vel_pi_staircase,g000001_c5,1,,,,,,0.01596301075333885,1.1668919099872153,1.2,,,,,,,5.5078,10.8049,0.3381,0.0,0.3252,0.00488,0.0,0.0,2.196,,,,,,201.205875,FAIL,vel error exceeded
16,s04_vel_pi_staircase,g000001_c6,1,,,,,,0.003555814844155877,0.046136447459028604,1.2,,,,,,,0.6256,1.4002,1.0972,0.0,0.2216,0.00496,0.0,0.0,3.0,,,,,,200.675893,FAIL,vel error exceeded
17,s04_vel_pi_staircase,g000001_c7,1,,,,,,0.005731502709857193,0.32285509731697704,1.2,,,,,,,1.5339,2.3192,0.7375,0.0,0.0708,0.005031,0.0,0.0,3.0,,,,,,200.238233,FAIL,vel error exceeded
18,s04_vel_pi_staircase,g000002_c0,2,,,,,,0.001,0.4886487670391907,1.2,,,,,,,1.53,3.0578,0.6757,0.0,0.117,0.005012,0.0,0.0,3.0,,,,,,200.398545,FAIL,vel error exceeded
19,s04_vel_pi_staircase,g000002_c1,2,,,,,,0.001,0.08420737497493588,1.2,,,,,,,0.9219,2.0028,1.0301,0.0,0.1842,0.004979,0.0,0.0,3.0,,,,,,200.566805,FAIL,vel error exceeded
20,s04_vel_pi_staircase,g000002_c2,2,,,,,,0.0015008290793304569,0.058669402329341466,0.1,,,,,,,0.7221,1.6084,1.0775,0.0,0.2101,0.004966,0.0,0.0,3.0,,,,,,200.642538,FAIL,vel error exceeded
21,s04_vel_pi_staircase,g000002_c3,2,,,,,,0.0018664759972918236,0.1917737659608438,1.2,,,,,,,1.4343,2.7403,0.8646,0.0,0.1005,0.005018,0.0,0.0,3.0,,,,,,200.32098,FAIL,vel error exceeded
22,s04_vel_pi_staircase,g000002_c4,2,,,,,,0.001,0.7450011752571077,0.5864458556269913,,,,,,,2.5199,4.4314,0.7512,0.0,0.2616,0.00495,0.0,0.0,3.0,,,,,,200.915238,FAIL,vel error exceeded
23,s04_vel_pi_staircase,g000002_c5,2,,,,,,0.0016210787432084117,10.0,1.2,,,,,,,3.1401,8.9368,0.0388,0.0,0.0,0.004072,0.0,13.0,0.308,,,,,,200.705102,FAIL,vel error exceeded
24,s04_vel_pi_staircase,g000002_c6,2,,,,,,0.001,0.06530550139090065,1.0946960115127704,,,,,,,0.7759,1.715,1.0657,0.0,0.2035,0.004969,0.0,0.0,3.0,,,,,,200.623262,FAIL,vel error exceeded
25,s04_vel_pi_staircase,g000002_c7,2,,,,,,0.001611955513948152,0.32564438394857803,0.2202522753318932,,,,,,,1.5441,2.2846,0.7355,0.0,0.0688,0.005032,0.0,0.0,3.0,,,,,,200.23207,FAIL,vel error exceeded
26,s04_vel_pi_staircase,g000003_c0,3,,,,,,0.3324109891095705,0.13284598488143468,1.2,,,,,,,2.0726,3.0284,0.7665,0.0,0.1296,0.005037,0.0,0.0,3.0,,,,,,200.522877,FAIL,vel error exceeded
27,s04_vel_pi_staircase,g000003_c1,3,,,,,,0.00514843151387096,1.0701489774092727,1.2,,,,,,,4.9354,9.3099,0.3637,0.0,0.3019,0.004888,0.0,0.0,2.302,,,,,,201.105113,FAIL,vel error exceeded
28,s04_vel_pi_staircase,g000003_c2,3,,,,,,0.001,0.5170621187810921,1.2,,,,,,,1.5664,3.2105,0.6751,0.0,0.1294,0.005006,0.0,0.0,3.0,,,,,,200.441428,FAIL,vel error exceeded
29,s04_vel_pi_staircase,g000003_c3,3,,,,,,0.0012592051295684302,0.28855205131413336,1.2,,,,,,,1.5501,2.4909,0.7633,0.0,0.0684,0.005031,0.0,0.0,3.0,,,,,,200.2284,FAIL,vel error exceeded
30,s04_vel_pi_staircase,g000003_c4,3,,,,,,0.001,0.009579800277769284,1.2,,,,,,,0.2251,0.5006,1.1795,0.0,0.2677,0.004934,0.0,0.0,3.0,,,,,,200.810007,FAIL,vel error exceeded
31,s04_vel_pi_staircase,g000003_c5,3,,,,,,0.011791107578108308,0.06725712874616414,0.1,,,,,,,0.8489,1.8508,1.0409,0.0,0.1923,0.004975,0.0,0.0,3.0,,,,,,200.590892,FAIL,vel error exceeded
32,s04_vel_pi_staircase,g000003_c6,3,,,,,,0.001,0.16262351650148213,0.752840412342544,,,,,,,1.3454,2.6746,0.9047,0.0,0.1188,0.005011,0.0,0.0,3.0,,,,,,200.3748,FAIL,vel error exceeded
33,s04_vel_pi_staircase,g000003_c7,3,,,,,,0.001,0.010045904816093486,1.2,,,,,,,0.2303,0.519,1.1789,0.0,0.2673,0.004935,0.0,0.0,3.0,,,,,,200.808913,FAIL,vel error exceeded
34,s04_vel_pi_staircase,g000004_c0,4,,,,,,0.0011089957884387123,0.0010722870302670615,1.2,,,,,,,0.1284,0.2747,1.199,0.0,0.2788,0.004928,0.0,0.0,3.0,,,,,,200.842857,FAIL,vel error exceeded
35,s04_vel_pi_staircase,g000004_c1,4,,,,,,0.0016519311125543625,3.3776891740942245,1.2,,,,,,,7.9637,13.6078,0.1217,0.0,0.0,0.00525,0.0,13.0,1.0,,,,,,200.309658,FAIL,vel error exceeded
36,s04_vel_pi_staircase,g000004_c2,4,,,,,,0.003535739472708642,10.0,0.1,,,,,,,3.0772,8.7586,0.0381,0.0,0.0,0.004066,0.0,13.0,0.306,,,,,,200.695768,FAIL,vel error exceeded
37,s04_vel_pi_staircase,g000004_c3,4,,,,,,0.011609863813588651,0.06820177607210555,1.2,,,,,,,0.8567,1.8649,1.0397,0.0,0.1914,0.004975,0.0,0.0,3.0,,,,,,200.588303,FAIL,vel error exceeded
38,s04_vel_pi_staircase,g000004_c4,4,,,,,,0.001,0.16339449339730966,0.7209467844444449,,,,,,,1.348,2.6752,0.9032,0.0,0.1181,0.005011,0.0,0.0,3.0,,,,,,200.372702,FAIL,vel error exceeded
39,s04_vel_pi_staircase,g000004_c5,4,,,,,,0.0010780589839599149,2.1682093413892667,0.13600876721209182,,,,,,,5.5042,10.1822,0.092,0.0,0.4517,0.005088,0.0,13.0,1.05,,,,,,201.547598,FAIL,vel error exceeded
40,s04_vel_pi_staircase,g000004_c6,4,,,,,,0.001,0.45854555259878116,1.2,,,,,,,1.508,2.8894,0.6795,0.0,0.1048,0.005018,0.0,0.0,3.0,,,,,,200.35644,FAIL,vel error exceeded
41,s04_vel_pi_staircase,g000004_c7,4,,,,,,0.0014437626901044774,1.5519140441709747,0.23405711695752543,,,,,,,4.5929,8.061,0.1128,0.0,0.3948,0.005092,0.0,0.0,1.202,,,,,,201.3444,FAIL,vel error exceeded
42,s04_vel_pi_staircase,g000005_c0,5,,,,,,0.008367446518942336,1.5230291502639857,0.32483621365746407,,,,,,,4.5153,7.8791,0.1133,0.0,0.3973,0.005093,0.0,0.0,1.21,,,,,,201.352492,FAIL,vel error exceeded
43,s04_vel_pi_staircase,g000005_c1,5,,,,,,0.0013513183204575006,0.3167925446788987,1.2,,,,,,,1.5479,2.3368,0.7417,0.0,0.0681,0.005032,0.0,0.0,3.0,,,,,,200.229383,FAIL,vel error exceeded
44,s04_vel_pi_staircase,g000005_c2,5,,,,,,0.0071197067670607525,5.987666158298471,1.2,,,,,,,12.5838,24.493,0.1049,0.0,0.0,0.005357,0.0,13.0,0.744,,,,,,200.679382,FAIL,vel error exceeded
45,s04_vel_pi_staircase,g000005_c3,5,,,,,,0.001,0.04319927440909354,0.1,,,,,,,0.5787,1.2966,1.1087,0.0,0.2275,0.004957,0.0,0.0,3.0,,,,,,200.692868,FAIL,vel error exceeded
46,s04_vel_pi_staircase,g000005_c4,5,,,,,,0.001,0.0681539714717812,1.2,,,,,,,0.7995,1.7643,1.0602,0.0,0.2005,0.004971,0.0,0.0,3.0,,,,,,200.614323,FAIL,vel error exceeded
47,s04_vel_pi_staircase,g000005_c5,5,,,,,,0.001,0.27173351814843544,0.2643642594025382,,,,,,,1.5473,2.5722,0.7781,0.0,0.0704,0.005031,0.0,0.0,3.0,,,,,,200.233385,FAIL,vel error exceeded
48,s04_vel_pi_staircase,g000005_c6,5,,,,,,0.002024072178880611,0.020988995854798645,1.2,,,,,,,0.3608,0.8196,1.1527,0.0,0.2526,0.004943,0.0,0.0,3.0,,,,,,200.766212,FAIL,vel error exceeded
49,s04_vel_pi_staircase,g000005_c7,5,,,,,,0.0021413636245494728,0.16926998397716264,0.3358255364501893,,,,,,,1.3683,2.6977,0.894,0.0,0.1141,0.005013,0.0,0.0,3.0,,,,,,200.360965,FAIL,vel error exceeded
50,s04_vel_pi_staircase,g000006_c0,6,,,,,,0.0015613482379243052,0.27600297588445705,1.2,,,,,,,1.5472,2.5517,0.774,0.0,0.0699,0.005031,0.0,0.0,3.0,,,,,,200.232168,FAIL,vel error exceeded
51,s04_vel_pi_staircase,g000006_c1,6,,,,,,0.001,1.9871494000806686,1.2,,,,,,,5.2505,9.6192,0.0957,0.0,0.4324,0.005086,0.0,13.0,1.082,,,,,,201.477127,FAIL,vel error exceeded
52,s04_vel_pi_staircase,g000006_c2,6,,,,,,0.10328820159718854,0.9373392120433699,1.2,,,,,,,4.8068,12.6689,0.8373,0.0,0.3001,0.005049,0.0,0.0,3.0,,,,,,201.115315,FAIL,vel error exceeded
53,s04_vel_pi_staircase,g000006_c3,6,,,,,,0.001,0.1993267450692717,1.2,,,,,,,1.4545,2.7432,0.856,0.0,0.0964,0.00502,0.0,0.0,3.0,,,,,,200.308855,FAIL,vel error exceeded
54,s04_vel_pi_staircase,g000006_c4,6,,,,,,0.02757546478717601,0.010794526640511788,0.1,,,,,,,0.4908,1.0404,1.1122,0.0,0.2347,0.004952,0.0,0.0,3.0,,,,,,200.716705,FAIL,vel error exceeded
55,s04_vel_pi_staircase,g000006_c5,6,,,,,,0.009104080009690044,0.6631142225484928,0.51065134019297,,,,,,,2.029,3.9727,0.717,0.0,0.2091,0.004972,0.0,0.0,3.0,,,,,,200.72444,FAIL,vel error exceeded
56,s04_vel_pi_staircase,g000006_c6,6,,,,,,0.0025338688137506926,0.8166359389658455,0.1,,,,,,,3.0253,4.7882,0.5788,0.0,0.2572,0.004921,0.0,0.0,2.726,,,,,,200.906587,FAIL,vel error exceeded
57,s04_vel_pi_staircase,g000006_c7,6,,,,,,0.001,3.017648311170083,1.2,,,,,,,7.1558,12.4839,0.1043,0.0,0.6559,0.005185,0.0,13.0,1.002,,,,,,202.229585,FAIL,vel error exceeded
58,s04_vel_pi_staircase,g000007_c0,7,,,,,,0.001,1.222245320496257,1.2,,,,,,,6.0734,12.5569,0.3321,0.0,0.3428,0.004882,0.0,0.0,2.174,,,,,,201.283558,FAIL,vel error exceeded
59,s04_vel_pi_staircase,g000007_c1,7,,,,,,0.00211916107564297,0.0038664925920002613,1.2,,,,,,,0.1714,0.3726,1.1892,0.0,0.2736,0.004931,0.0,0.0,3.0,,,,,,200.827622,FAIL,vel error exceeded
60,s04_vel_pi_staircase,g000007_c2,7,,,,,,0.003140339457979722,0.5862085099541082,1.2,,,,,,,1.7329,3.5834,0.686,0.0,0.1644,0.00499,0.0,0.0,3.0,,,,,,200.563957,FAIL,vel error exceeded
61,s04_vel_pi_staircase,g000007_c3,7,,,,,,0.027928861095324706,0.8786860409545322,0.1,,,,,,,3.2529,5.2897,0.519,0.0,0.2696,0.004907,0.0,0.0,2.578,,,,,,200.960702,FAIL,vel error exceeded
62,s04_vel_pi_staircase,g000007_c4,7,,,,,,0.001,0.0343468266920999,1.2,,,,,,,0.4917,1.1121,1.1269,0.0,0.2378,0.004951,0.0,0.0,3.0,,,,,,200.722455,FAIL,vel error exceeded
63,s04_vel_pi_staircase,g000007_c5,7,,,,,,0.002777392449961658,0.07513453939192331,1.2,,,,,,,0.8636,1.8881,1.0438,0.0,0.1918,0.004975,0.0,0.0,3.0,,,,,,200.58898,FAIL,vel error exceeded
64,s04_vel_pi_staircase,g000007_c6,7,,,,,,0.0010258724218201753,2.643322861249278,1.2,,,,,,,6.2964,11.4464,0.0916,0.0,0.5306,0.005121,0.0,13.0,1.002,,,,,,201.820763,FAIL,vel error exceeded
65,s04_vel_pi_staircase,g000007_c7,7,,,,,,0.001,0.2718136042816352,1.2,,,,,,,1.5467,2.5719,0.778,0.0,0.0704,0.005031,0.0,0.0,3.0,,,,,,200.233323,FAIL,vel error exceeded
66,s04_vel_pi_staircase,g000008_c0,8,,,,,,0.001,0.05583541505129149,0.3876794712028045,,,,,,,0.694,1.5482,1.0841,0.0,0.2137,0.004964,0.0,0.0,3.0,,,,,,200.652785,FAIL,vel error exceeded
67,s04_vel_pi_staircase,g000008_c1,8,,,,,,0.016489779640258675,0.06683043806445646,1.2,,,,,,,0.8701,1.8873,1.0324,0.0,0.1887,0.004977,0.0,0.0,3.0,,,,,,200.58066,FAIL,vel error exceeded
68,s04_vel_pi_staircase,g000008_c2,8,,,,,,0.001,0.5828306074558759,1.2,,,,,,,1.7276,3.5704,0.683,0.0,0.1618,0.004991,0.0,0.0,3.0,,,,,,200.554757,FAIL,vel error exceeded
69,s04_vel_pi_staircase,g000008_c3,8,,,,,,0.001,0.4037109199792164,1.2,,,,,,,1.5087,2.5728,0.6944,0.0,0.0855,0.005026,0.0,0.0,3.0,,,,,,200.290335,FAIL,vel error exceeded
70,s04_vel_pi_staircase,g000008_c4,8,,,,,,0.001,2.965299484281507,0.47267214997474455,,,,,,,7.042,12.3444,0.1023,0.0,0.6364,0.005176,0.0,13.0,1.002,,,,,,202.166015,FAIL,vel error exceeded
71,s04_vel_pi_staircase,g000008_c5,8,,,,,,0.07762434268360809,0.019158768482218445,1.2,,,,,,,0.8933,1.8084,1.007,0.0,0.1866,0.004978,0.0,0.0,3.0,,,,,,200.58706,FAIL,vel error exceeded
72,s04_vel_pi_staircase,g000008_c6,8,,,,,,0.004039892517774366,0.17708100448687045,0.4573704085541882,,,,,,,1.3924,2.7116,0.8813,0.0,0.1086,0.005015,0.0,0.0,3.0,,,,,,200.344723,FAIL,vel error exceeded
73,s04_vel_pi_staircase,g000008_c7,8,,,,,,0.00411747826572809,6.702822885893835,1.2,,,,,,,13.2049,25.1024,0.1076,0.0,0.0,0.00539,0.0,13.0,0.716,,,,,,200.724283,FAIL,vel error exceeded
74,s04_vel_pi_staircase,g000009_c0,9,,,,,,0.0010709598591568757,10.0,1.1279535735045843,,,,,,,3.1467,8.9442,0.0388,0.0,0.0,0.004073,0.0,13.0,0.308,,,,,,200.704738,FAIL,vel error exceeded
75,s04_vel_pi_staircase,g000009_c1,9,,,,,,0.0026514000189873017,0.13183602241474401,0.5636690291573904,,,,,,,1.2147,2.5032,0.9478,0.0,0.1408,0.005,0.0,0.0,3.0,,,,,,200.43956,FAIL,vel error exceeded
76,s04_vel_pi_staircase,g000009_c2,9,,,,,,0.008522277866957374,0.7565708386252158,1.2,,,,,,,2.569,4.4548,0.7647,0.0,0.2688,0.004952,0.0,0.0,3.0,,,,,,200.944085,FAIL,vel error exceeded
77,s04_vel_pi_staircase,g000009_c3,9,,,,,,0.001,2.7511924336061604,1.2,,,,,,,6.5459,11.7371,0.0946,0.0,0.563,0.005139,0.0,13.0,1.002,,,,,,201.926413,FAIL,vel error exceeded
78,s04_vel_pi_staircase,g000009_c4,9,,,,,,0.001,1.2802378243322736,0.6229221380274881,,,,,,,6.489,13.8035,0.3257,0.0,0.3593,0.004881,0.0,0.0,2.132,,,,,,201.356228,FAIL,vel error exceeded
79,s04_vel_pi_staircase,g000009_c5,9,,,,,,0.001,3.757225391357983,1.2,,,,,,,8.5418,14.9585,0.1139,0.0,0.0,0.005253,0.0,13.0,0.94,,,,,,200.347565,FAIL,vel error exceeded
80,s04_vel_pi_staircase,g000009_c6,9,,,,,,0.001,0.034693724130308974,0.20110983896547358,,,,,,,0.4942,1.1178,1.1263,0.0,0.2375,0.004951,0.0,0.0,3.0,,,,,,200.722213,FAIL,vel error exceeded
81,s04_vel_pi_staircase,g000009_c7,9,,,,,,0.001512526355271311,0.008491024900015869,1.2,,,,,,,0.2183,0.4895,1.1808,0.0,0.2686,0.004934,0.0,0.0,3.0,,,,,,200.81244,FAIL,vel error exceeded
82,s04_vel_pi_staircase,g000010_c0,10,,,,,,0.005524168883190435,0.2503987220941717,0.13719638468731793,,,,,,,1.5236,2.6597,0.7968,0.0,0.0766,0.005028,0.0,0.0,3.0,,,,,,200.251407,FAIL,vel error exceeded
83,s04_vel_pi_staircase,g000010_c1,10,,,,,,0.013910031030212865,0.45011468645677566,1.2,,,,,,,1.4784,2.8106,0.69,0.0,0.1073,0.005018,0.0,0.0,3.0,,,,,,200.364247,FAIL,vel error exceeded
84,s04_vel_pi_staircase,g000010_c2,10,,,,,,0.004930316456507764,0.006450264973363505,1.2,,,,,,,0.2324,0.5093,1.1763,0.0,0.2666,0.004935,0.0,0.0,3.0,,,,,,200.807185,FAIL,vel error exceeded
85,s04_vel_pi_staircase,g000010_c3,10,,,,,,0.0087336422390071,0.42999520724788853,0.1604379154105002,,,,,,,1.4848,2.7039,0.6909,0.0,0.0979,0.005021,0.0,0.0,3.0,,,,,,200.33209,FAIL,vel error exceeded
86,s04_vel_pi_staircase,g000010_c4,10,,,,,,0.020149915009441903,0.014686830765471144,1.2,,,,,,,0.4636,1.0032,1.1216,0.0,0.2385,0.00495,0.0,0.0,3.0,,,,,,200.726548,FAIL,vel error exceeded
87,s04_vel_pi_staircase,g000010_c5,10,,,,,,0.001,0.0835081612586409,1.2,,,,,,,0.9177,1.9929,1.0316,0.0,0.1848,0.004979,0.0,0.0,3.0,,,,,,200.568523,FAIL,vel error exceeded
88,s04_vel_pi_staircase,g000010_c6,10,,,,,,0.0013164625488795271,0.07919598411374222,0.1,,,,,,,0.887,1.9369,1.0392,0.0,0.189,0.004977,0.0,0.0,3.0,,,,,,200.580727,FAIL,vel error exceeded
89,s04_vel_pi_staircase,g000010_c7,10,,,,,,0.02103338277648955,7.241724324752455,1.2,,,,,,,13.5971,25.2697,0.1079,0.0,0.0,0.005411,0.0,13.0,0.69,,,,,,200.75645,FAIL,vel error exceeded
90,s04_vel_pi_staircase,g000011_c0,11,,,,,,0.001,0.03249272852958662,0.30562076965805973,,,,,,,0.473,1.0729,1.1309,0.0,0.24,0.00495,0.0,0.0,3.0,,,,,,200.729267,FAIL,vel error exceeded
91,s04_vel_pi_staircase,g000011_c1,11,,,,,,0.014411176961984852,0.17897397924316535,0.6699214189453178,,,,,,,1.3945,2.7177,0.8697,0.0,0.1064,0.005016,0.0,0.0,3.0,,,,,,200.339147,FAIL,vel error exceeded
92,s04_vel_pi_staircase,g000011_c2,11,,,,,,0.0030041849120004743,0.13820514976018916,1.2,,,,,,,1.2456,2.5552,0.938,0.0,0.136,0.005003,0.0,0.0,3.0,,,,,,200.425602,FAIL,vel error exceeded
93,s04_vel_pi_staircase,g000011_c3,11,,,,,,0.001,2.3528972401630144,1.2,,,,,,,5.7777,10.7198,0.0901,0.0,0.4759,0.005095,0.0,13.0,1.024,,,,,,201.634548,FAIL,vel error exceeded
94,s04_vel_pi_staircase,g000011_c4,11,,,,,,0.001,0.04445875860874991,1.2,,,,,,,0.5908,1.3247,1.1062,0.0,0.2261,0.004957,0.0,0.0,3.0,,,,,,200.68866,FAIL,vel error exceeded
95,s04_vel_pi_staircase,g000011_c5,11,,,,,,0.008878093765618017,0.19496590248815737,0.5032224989385791,,,,,,,1.4373,2.7355,0.8546,0.0,0.0982,0.005019,0.0,0.0,3.0,,,,,,200.314437,FAIL,vel error exceeded
96,s04_vel_pi_staircase,g000011_c6,11,,,,,,0.001,0.41914221273041957,0.23236000907150142,,,,,,,1.505,2.6615,0.689,0.0,0.0904,0.005024,0.0,0.0,3.0,,,,,,200.307148,FAIL,vel error exceeded
97,s04_vel_pi_staircase,g000011_c7,11,,,,,,0.001,0.4413264308004775,1.2,,,,,,,1.506,2.7893,0.6828,0.0,0.098,0.005021,0.0,0.0,3.0,,,,,,200.333273,FAIL,vel error exceeded
98,s04_vel_pi_staircase,g000012_c0,12,,,,,,0.001,0.15739946821329842,0.5086473953187141,,,,,,,1.3253,2.6551,0.912,0.0,0.1225,0.005009,0.0,0.0,3.0,,,,,,200.385847,FAIL,vel error exceeded
99,s04_vel_pi_staircase,g000012_c1,12,,,,,,0.001,0.27610093194267177,0.11443654221332761,,,,,,,1.5485,2.5537,0.7741,0.0,0.0697,0.005031,0.0,0.0,3.0,,,,,,200.231523,FAIL,vel error exceeded
100,s04_vel_pi_staircase,g000012_c2,12,,,,,,0.001,0.07649318482248342,1.2,,,,,,,0.8657,1.8956,1.0447,0.0,0.1919,0.004975,0.0,0.0,3.0,,,,,,200.589223,FAIL,vel error exceeded
101,s04_vel_pi_staircase,g000012_c3,12,,,,,,0.001,0.07079365804517536,1.2,,,,,,,0.8195,1.8081,1.0558,0.0,0.198,0.004972,0.0,0.0,3.0,,,,,,200.607183,FAIL,vel error exceeded
102,s04_vel_pi_staircase,g000012_c4,12,,,,,,0.0016251994015805077,0.03076124565207996,1.0003407355402159,,,,,,,0.4614,1.0481,1.1332,0.0,0.2414,0.004949,0.0,0.0,3.0,,,,,,200.733218,FAIL,vel error exceeded
103,s04_vel_pi_staircase,g000012_c5,12,,,,,,0.001161935299530621,1.1686502292664276,1.2,,,,,,,5.688,11.4295,0.3401,0.0,0.3281,0.004884,0.0,0.0,2.216,,,,,,201.219148,FAIL,vel error exceeded
104,s04_vel_pi_staircase,g000012_c6,12,,,,,,0.001,0.20962519326795737,0.36481819324268316,,,,,,,1.4745,2.7391,0.8433,0.0,0.0912,0.005022,0.0,0.0,3.0,,,,,,200.293473,FAIL,vel error exceeded
105,s04_vel_pi_staircase,g000012_c7,12,,,,,,0.004141127125260969,0.17111678148888135,0.29068472485020147,,,,,,,1.3756,2.7009,0.8896,0.0,0.1124,0.005013,0.0,0.0,3.0,,,,,,200.35602,FAIL,vel error exceeded
106,s04_vel_pi_staircase,g000013_c0,13,,,,,,0.0028257005385484337,0.056030408693907914,0.9444017397433991,,,,,,,0.7081,1.5746,1.0796,0.0,0.2116,0.004965,0.0,0.0,3.0,,,,,,200.646562,FAIL,vel error exceeded
107,s04_vel_pi_staircase,g000013_c1,13,,,,,,0.001041118361962506,0.09616460969528874,0.5941831726471807,,,,,,,1.0073,2.1611,1.0096,0.0,0.1729,0.004985,0.0,0.0,3.0,,,,,,200.533645,FAIL,vel error exceeded
108,s04_vel_pi_staircase,g000013_c2,13,,,,,,0.001,0.38327063597991684,0.9401511291592373,,,,,,,1.5182,2.4535,0.7029,0.0,0.0794,0.005029,0.0,0.0,3.0,,,,,,200.26945,FAIL,vel error exceeded
109,s04_vel_pi_staircase,g000013_c3,13,,,,,,0.0012495917127809653,0.2718682431283199,0.7642967723127498,,,,,,,1.5472,2.5761,0.778,0.0,0.0705,0.00503,0.0,0.0,3.0,,,,,,200.233758,FAIL,vel error exceeded
110,s04_vel_pi_staircase,g000013_c4,13,,,,,,0.001,0.26810220409818597,0.3060986873425391,,,,,,,1.546,2.593,0.7816,0.0,0.0711,0.00503,0.0,0.0,3.0,,,,,,200.235385,FAIL,vel error exceeded
111,s04_vel_pi_staircase,g000013_c5,13,,,,,,0.001709238047108341,1.0909336974052994,0.9701106123013776,,,,,,,5.1214,9.8354,0.3575,0.0,0.3074,0.004888,0.0,0.0,2.286,,,,,,201.129213,FAIL,vel error exceeded
112,s04_vel_pi_staircase,g000013_c6,13,,,,,,0.0029850227609232375,1.4950879868075855,1.0244603654387303,,,,,,,4.4877,7.8268,0.1159,0.0,0.3924,0.005095,0.0,0.0,1.226,,,,,,201.33733,FAIL,vel error exceeded
113,s04_vel_pi_staircase,g000013_c7,13,,,,,,0.001,0.044773902195841646,0.7116732370893204,,,,,,,0.5934,1.3326,1.1057,0.0,0.2258,0.004957,0.0,0.0,3.0,,,,,,200.687745,FAIL,vel error exceeded
114,s04_vel_pi_staircase,g000014_c0,14,,,,,,0.0015208216021721983,0.10979024729051749,1.2,,,,,,,1.0927,2.3104,0.9848,0.0,0.1599,0.004991,0.0,0.0,3.0,,,,,,200.495563,FAIL,vel error exceeded
115,s04_vel_pi_staircase,g000014_c1,14,,,,,,0.0011807269816364035,0.22757506747261985,1.2,,,,,,,1.506,2.7186,0.8226,0.0,0.0832,0.005025,0.0,0.0,3.0,,,,,,200.270085,FAIL,vel error exceeded
116,s04_vel_pi_staircase,g000014_c2,14,,,,,,0.0028113699154966305,0.18479171010695244,0.6244738784706358,,,,,,,1.4154,2.7273,0.8725,0.0,0.1042,0.005017,0.0,0.0,3.0,,,,,,200.331832,FAIL,vel error exceeded
117,s04_vel_pi_staircase,g000014_c3,14,,,,,,0.0030591252001173795,0.27703178722428795,1.1494791439329815,,,,,,,1.5442,2.5564,0.7731,0.0,0.0704,0.005031,0.0,0.0,3.0,,,,,,200.233918,FAIL,vel error exceeded
118,s04_vel_pi_staircase,g000014_c4,14,,,,,,0.0013352282594820595,0.18469208585158492,1.1076910245490754,,,,,,,1.4172,2.7339,0.8742,0.0,0.1045,0.005017,0.0,0.0,3.0,,,,,,200.33267,FAIL,vel error exceeded
119,s04_vel_pi_staircase,g000014_c5,14,,,,,,0.001,0.9708795280547977,1.2,,,,,,,4.2493,7.5571,0.4077,0.0,0.2795,0.004897,0.0,0.0,2.428,,,,,,201.00784,FAIL,vel error exceeded
120,s04_vel_pi_staircase,g000014_c6,14,,,,,,0.001,0.5348315899089344,1.2,,,,,,,1.5999,3.3099,0.6761,0.0,0.1377,0.005002,0.0,0.0,3.0,,,,,,200.470285,FAIL,vel error exceeded
121,s04_vel_pi_staircase,g000014_c7,14,,,,,,0.0024058908985500594,0.33825756170056365,1.2,,,,,,,1.5372,2.2133,0.7274,0.0,0.0707,0.005031,0.0,0.0,3.0,,,,,,200.238928,FAIL,vel error exceeded
122,s04_vel_pi_staircase,g000015_c0,15,,,,,,0.0017330522759740476,0.2734818622448561,1.0300135171126947,,,,,,,1.5457,2.5664,0.7763,0.0,0.0704,0.005031,0.0,0.0,3.0,,,,,,200.233578,FAIL,vel error exceeded
123,s04_vel_pi_staircase,g000015_c1,15,,,,,,0.002421893011939911,0.22516892322087606,1.2,,,,,,,1.5006,2.7212,0.8244,0.0,0.0843,0.005025,0.0,0.0,3.0,,,,,,200.273392,FAIL,vel error exceeded
124,s04_vel_pi_staircase,g000015_c2,15,,,,,,0.0015449146873863662,0.2141605051621217,1.155694087972157,,,,,,,1.4854,2.7374,0.8375,0.0,0.0888,0.005023,0.0,0.0,3.0,,,,,,200.286407,FAIL,vel error exceeded
125,s04_vel_pi_staircase,g000015_c3,15,,,,,,0.006269790749900333,0.16523489240339032,1.2,,,,,,,1.3559,2.6858,0.8955,0.0,0.1157,0.005012,0.0,0.0,3.0,,,,,,200.365922,FAIL,vel error exceeded
126,s04_vel_pi_staircase,g000015_c4,15,,,,,,0.00226834196759291,0.21571128355253427,1.2,,,,,,,1.4852,2.7338,0.8352,0.0,0.0883,0.005023,0.0,0.0,3.0,,,,,,200.285102,FAIL,vel error exceeded
127,s04_vel_pi_staircase,g000015_c5,15,,,,,,0.0031150691600893374,1.4085574744125477,1.2,,,,,,,4.3184,7.4794,0.1232,0.0,0.3919,0.005103,0.0,0.0,1.282,,,,,,201.341155,FAIL,vel error exceeded
128,s04_vel_pi_staircase,g000015_c6,15,,,,,,0.001,0.2202938246243371,1.1783104456822315,,,,,,,1.497,2.7323,0.8309,0.0,0.0861,0.005024,0.0,0.0,3.0,,,,,,200.278443,FAIL,vel error exceeded
129,s04_vel_pi_staircase,g000015_c7,15,,,,,,0.0010812208986437023,0.4131732287162929,1.1509624012878763,,,,,,,1.5056,2.6298,0.691,0.0,0.0886,0.005025,0.0,0.0,3.0,,,,,,200.300897,FAIL,vel error exceeded
130,s04_vel_pi_staircase,g000016_c0,16,,,,,,0.001,0.20225893077646892,1.2,,,,,,,1.4608,2.744,0.8522,0.0,0.0947,0.005021,0.0,0.0,3.0,,,,,,200.303677,FAIL,vel error exceeded
131,s04_vel_pi_staircase,g000016_c1,16,,,,,,0.00258991019496139,0.16757091449974426,1.2,,,,,,,1.3636,2.6891,0.896,0.0,0.115,0.005012,0.0,0.0,3.0,,,,,,200.363768,FAIL,vel error exceeded
132,s04_vel_pi_staircase,g000016_c2,16,,,,,,0.001,0.15460625404800246,0.5529281780714973,,,,,,,1.3143,2.6364,0.9156,0.0,0.1242,0.005008,0.0,0.0,3.0,,,,,,200.390813,FAIL,vel error exceeded
133,s04_vel_pi_staircase,g000016_c3,16,,,,,,0.0013348859952137403,0.29387733215546635,1.0510711229065295,,,,,,,1.5507,2.4645,0.7591,0.0,0.0681,0.005032,0.0,0.0,3.0,,,,,,200.227805,FAIL,vel error exceeded
134,s04_vel_pi_staircase,g000016_c4,16,,,,,,0.0024105848112744525,0.4647384259429379,0.2497014562654011,,,,,,,1.5078,2.9189,0.6796,0.0,0.1078,0.005017,0.0,0.0,3.0,,,,,,200.366655,FAIL,vel error exceeded
135,s04_vel_pi_staircase,g000016_c5,16,,,,,,0.0033561639659200823,0.27907615280572085,1.2,,,,,,,1.5428,2.54,0.771,0.0,0.0703,0.005031,0.0,0.0,3.0,,,,,,200.233647,FAIL,vel error exceeded
136,s04_vel_pi_staircase,g000016_c6,16,,,,,,0.0020596816511432928,0.16937444371287286,0.6744316796280838,,,,,,,1.3687,2.6971,0.8939,0.0,0.114,0.005013,0.0,0.0,3.0,,,,,,200.360732,FAIL,vel error exceeded
137,s04_vel_pi_staircase,g000016_c7,16,,,,,,0.0012671375460106354,0.36675472334387005,1.2,,,,,,,1.5265,2.3566,0.7109,0.0,0.0754,0.00503,0.0,0.0,3.0,,,,,,200.25571,FAIL,vel error exceeded
138,s04_vel_pi_staircase,g000017_c0,17,,,,,,0.001384285807726326,0.42668423685548795,0.39167615019647845,,,,,,,1.5026,2.7072,0.6871,0.0,0.0934,0.005023,0.0,0.0,3.0,,,,,,200.317333,FAIL,vel error exceeded
139,s04_vel_pi_staircase,g000017_c1,17,,,,,,0.001,0.4769453706837401,1.2,,,,,,,1.5185,2.9895,0.6768,0.0,0.1121,0.005015,0.0,0.0,3.0,,,,,,200.381578,FAIL,vel error exceeded
140,s04_vel_pi_staircase,g000017_c2,17,,,,,,0.0010896686355516142,0.23371062214174496,1.2,,,,,,,1.5148,2.7063,0.8158,0.0,0.0808,0.005026,0.0,0.0,3.0,,,,,,200.263045,FAIL,vel error exceeded
141,s04_vel_pi_staircase,g000017_c3,17,,,,,,0.001,0.20459028924959047,1.2,,,,,,,1.4659,2.7451,0.8493,0.0,0.0936,0.005021,0.0,0.0,3.0,,,,,,200.300487,FAIL,vel error exceeded
142,s04_vel_pi_staircase,g000017_c4,17,,,,,,0.002049381710860033,0.21181724241278185,1.2,,,,,,,1.4786,2.7401,0.84,0.0,0.0901,0.005023,0.0,0.0,3.0,,,,,,200.290215,FAIL,vel error exceeded
143,s04_vel_pi_staircase,g000017_c5,17,,,,,,0.001,0.45593240948760033,1.2,,,,,,,1.5076,2.8722,0.6798,0.0,0.1037,0.005019,0.0,0.0,3.0,,,,,,200.352678,FAIL,vel error exceeded
144,s04_vel_pi_staircase,g000017_c6,17,,,,,,0.0014895645524052067,0.1370121740753245,1.2,,,,,,,1.2375,2.5389,0.9412,0.0,0.1373,0.005002,0.0,0.0,3.0,,,,,,200.429378,FAIL,vel error exceeded
145,s04_vel_pi_staircase,g000017_c7,17,,,,,,0.001039246919921496,0.3262519187119502,1.2,,,,,,,1.5457,2.2714,0.7347,0.0,0.0686,0.005032,0.0,0.0,3.0,,,,,,200.231407,FAIL,vel error exceeded
146,s04_vel_pi_staircase,g000018_c0,18,,,,,,0.001,0.33150911380004494,1.2,,,,,,,1.5432,2.2433,0.7314,0.0,0.0693,0.005032,0.0,0.0,3.0,,,,,,200.234055,FAIL,vel error exceeded
147,s04_vel_pi_staircase,g000018_c1,18,,,,,,0.0016168217191726343,0.25023904807590613,0.3667262125131361,,,,,,,1.532,2.6559,0.7983,0.0,0.0754,0.005028,0.0,0.0,3.0,,,,,,200.247522,FAIL,vel error exceeded
148,s04_vel_pi_staircase,g000018_c2,18,,,,,,0.001282863445758116,0.20471006391129704,0.4903181495728557,,,,,,,1.4674,2.7434,0.8489,0.0,0.0933,0.005021,0.0,0.0,3.0,,,,,,200.299635,FAIL,vel error exceeded
149,s04_vel_pi_staircase,g000018_c3,18,,,,,,0.001,0.41503503663464547,0.7234341948695294,,,,,,,1.5064,2.6404,0.6903,0.0,0.089,0.005025,0.0,0.0,3.0,,,,,,200.302417,FAIL,vel error exceeded
150,s04_vel_pi_staircase,g000018_c4,18,,,,,,0.0011088255612509677,0.4941013703526215,0.676549396447107,,,,,,,1.5345,3.0863,0.6756,0.0,0.1195,0.005011,0.0,0.0,3.0,,,,,,200.407102,FAIL,vel error exceeded
151,s04_vel_pi_staircase,g000018_c5,18,,,,,,0.0021205167198175795,0.22046765152205333,1.2,,,,,,,1.4955,2.7379,0.8303,0.0,0.0862,0.005024,0.0,0.0,3.0,,,,,,200.278905,FAIL,vel error exceeded
152,s04_vel_pi_staircase,g000018_c6,18,,,,,,0.001,0.22349869208298967,1.0253161031958153,,,,,,,1.5008,2.7236,0.827,0.0,0.0847,0.005025,0.0,0.0,3.0,,,,,,200.274427,FAIL,vel error exceeded
153,s04_vel_pi_staircase,g000018_c7,18,,,,,,0.0022325674402906216,0.2941358076959223,1.2,,,,,,,1.5492,2.4591,0.7585,0.0,0.0682,0.005032,0.0,0.0,3.0,,,,,,200.228043,FAIL,vel error exceeded
154,s04_vel_pi_staircase,g000019_c0,19,,,,,,0.001057470054936645,0.28023091152120294,0.9257198168507046,,,,,,,1.5499,2.5311,0.7705,0.0,0.0691,0.005031,0.0,0.0,3.0,,,,,,200.229948,FAIL,vel error exceeded
155,s04_vel_pi_staircase,g000019_c1,19,,,,,,0.0010879610180694165,0.27705210611981834,0.9878677982958576,,,,,,,1.5499,2.5514,0.7734,0.0,0.0695,0.005031,0.0,0.0,3.0,,,,,,200.231078,FAIL,vel error exceeded
156,s04_vel_pi_staircase,g000019_c2,19,,,,,,0.001,0.28016760689589587,1.1058186984571288,,,,,,,1.5501,2.5353,0.7704,0.0,0.0691,0.005031,0.0,0.0,3.0,,,,,,200.230027,FAIL,vel error exceeded
157,s04_vel_pi_staircase,g000019_c3,19,,,,,,0.0013030503460003521,0.3275935388413055,0.9762794465946596,,,,,,,1.5452,2.2674,0.734,0.0,0.0688,0.005032,0.0,0.0,3.0,,,,,,200.232317,FAIL,vel error exceeded
158,s04_vel_pi_staircase,g000019_c4,19,,,,,,0.001,0.313759402986853,0.9897609703861989,,,,,,,1.55,2.3537,0.7437,0.0,0.0677,0.005032,0.0,0.0,3.0,,,,,,200.227853,FAIL,vel error exceeded
159,s04_vel_pi_staircase,g000019_c5,19,,,,,,0.001,0.35672529339343095,1.2,,,,,,,1.533,2.3021,0.716,0.0,0.0731,0.005031,0.0,0.0,3.0,,,,,,200.2477,FAIL,vel error exceeded
160,s04_vel_pi_staircase,g000019_c6,19,,,,,,0.0018814517653172466,0.35968059745950154,1.2,,,,,,,1.5272,2.3159,0.7147,0.0,0.0744,0.00503,0.0,0.0,3.0,,,,,,200.252017,FAIL,vel error exceeded
161,s04_vel_pi_staircase,g000019_c7,19,,,,,,0.0011052805442377373,0.15397772204413665,1.1673942947480118,,,,,,,1.3119,2.6351,0.9164,0.0,0.1246,0.005008,0.0,0.0,3.0,,,,,,200.391877,FAIL,vel error exceeded
162,s04_vel_pi_staircase,g000020_c0,20,,,,,,0.0011486105808745462,0.2786381208412896,0.713560891048654,,,,,,,1.5487,2.5405,0.7719,0.0,0.0694,0.005031,0.0,0.0,3.0,,,,,,200.230727,FAIL,vel error exceeded
163,s04_vel_pi_staircase,g000020_c1,20,,,,,,0.001026627962686015,0.39069456725578383,1.2,,,,,,,1.5151,2.498,0.6995,0.0,0.0815,0.005028,0.0,0.0,3.0,,,,,,200.276698,FAIL,vel error exceeded
164,s04_vel_pi_staircase,g000020_c2,20,,,,,,0.001,0.2419581262358982,1.2,,,,,,,1.525,2.6793,0.807,0.0,0.0778,0.005027,0.0,0.0,3.0,,,,,,200.25424,FAIL,vel error exceeded
165,s04_vel_pi_staircase,g000020_c3,20,,,,,,0.001142735927910496,0.2410100037235776,1.100941326056787,,,,,,,1.5236,2.6863,0.8081,0.0,0.0782,0.005027,0.0,0.0,3.0,,,,,,200.255598,FAIL,vel error exceeded
166,s04_vel_pi_staircase,g000020_c4,20,,,,,,0.0016081140366216618,0.28139343208854667,1.0689225766872432,,,,,,,1.5489,2.529,0.7694,0.0,0.0692,0.005031,0.0,0.0,3.0,,,,,,200.230343,FAIL,vel error exceeded
167,s04_vel_pi_staircase,g000020_c5,20,,,,,,0.001211427048636075,0.21560417427430423,1.2,,,,,,,1.4864,2.7321,0.836,0.0,0.0883,0.005023,0.0,0.0,3.0,,,,,,200.28501,FAIL,vel error exceeded
168,s04_vel_pi_staircase,g000020_c6,20,,,,,,0.001,0.23280245137116734,1.2,,,,,,,1.5145,2.705,0.817,0.0,0.0811,0.005026,0.0,0.0,3.0,,,,,,200.263922,FAIL,vel error exceeded
169,s04_vel_pi_staircase,g000020_c7,20,,,,,,0.0015679804209313456,0.167047869293426,1.2,,,,,,,1.3612,2.6903,0.8976,0.0,0.1156,0.005012,0.0,0.0,3.0,,,,,,200.365342,FAIL,vel error exceeded
170,s04_vel_pi_staircase,g000021_c0,21,,,,,,0.001,0.29364971632326076,0.8054842242512096,,,,,,,1.5506,2.4626,0.7592,0.0,0.068,0.005032,0.0,0.0,3.0,,,,,,200.227458,FAIL,vel error exceeded
171,s04_vel_pi_staircase,g000021_c1,21,,,,,,0.0014227398171934038,0.2340014466879477,1.2,,,,,,,1.5156,2.7087,0.8155,0.0,0.0807,0.005026,0.0,0.0,3.0,,,,,,200.262773,FAIL,vel error exceeded
172,s04_vel_pi_staircase,g000021_c2,21,,,,,,0.001,0.30904442786322533,1.0259212408277771,,,,,,,1.5494,2.3815,0.7473,0.0,0.0678,0.005032,0.0,0.0,3.0,,,,,,200.227747,FAIL,vel error exceeded
173,s04_vel_pi_staircase,g000021_c3,21,,,,,,0.0014028130515457325,0.3048641600507324,1.1781524302982984,,,,,,,1.5501,2.4024,0.7502,0.0,0.0677,0.005032,0.0,0.0,3.0,,,,,,200.227228,FAIL,vel error exceeded
174,s04_vel_pi_staircase,g000021_c4,21,,,,,,0.0010535944465076984,0.33318138607665715,1.2,,,,,,,1.5422,2.2329,0.7305,0.0,0.0695,0.005032,0.0,0.0,3.0,,,,,,200.234822,FAIL,vel error exceeded
175,s04_vel_pi_staircase,g000021_c5,21,,,,,,0.0011341079944480325,0.25559667532365987,0.9449113662671172,,,,,,,1.5363,2.6373,0.7931,0.0,0.0739,0.005029,0.0,0.0,3.0,,,,,,200.243167,FAIL,vel error exceeded
176,s04_vel_pi_staircase,g000021_c6,21,,,,,,0.0012291551710334374,0.3896753662180489,1.057907135881111,,,,,,,1.5147,2.4942,0.7001,0.0,0.0814,0.005028,0.0,0.0,3.0,,,,,,200.27631,FAIL,vel error exceeded
177,s04_vel_pi_staircase,g000021_c7,21,,,,,,0.0010764980524164617,0.31105160281995037,1.2,,,,,,,1.5504,2.3678,0.7456,0.0,0.0676,0.005032,0.0,0.0,3.0,,,,,,200.227427,FAIL,vel error exceeded
178,s04_vel_pi_staircase,g000022_c0,22,,,,,,0.0014392412168058033,0.28581977421774857,1.0915407463402964,,,,,,,1.5486,2.5049,0.7656,0.0,0.0688,0.005031,0.0,0.0,3.0,,,,,,200.229402,FAIL,vel error exceeded
179,s04_vel_pi_staircase,g000022_c1,22,,,,,,0.0013443914472552937,0.3466493779648111,1.2,,,,,,,1.5363,2.243,0.7218,0.0,0.0716,0.005031,0.0,0.0,3.0,,,,,,200.242362,FAIL,vel error exceeded
180,s04_vel_pi_staircase,g000022_c2,22,,,,,,0.001392056815197836,0.27965350588948296,1.2,,,,,,,1.5492,2.5355,0.7709,0.0,0.0693,0.005031,0.0,0.0,3.0,,,,,,200.230668,FAIL,vel error exceeded
181,s04_vel_pi_staircase,g000022_c3,22,,,,,,0.0014568149181062103,0.2225423746767783,1.0529270518673202,,,,,,,1.4993,2.7239,0.828,0.0,0.0852,0.005025,0.0,0.0,3.0,,,,,,200.275935,FAIL,vel error exceeded
182,s04_vel_pi_staircase,g000022_c4,22,,,,,,0.0010886869181417184,0.29576850435064567,1.1397436728281916,,,,,,,1.5509,2.4573,0.7577,0.0,0.068,0.005032,0.0,0.0,3.0,,,,,,200.227698,FAIL,vel error exceeded
183,s04_vel_pi_staircase,g000022_c5,22,,,,,,0.0011892133658510018,0.3255261533840231,1.1506325072904684,,,,,,,1.5456,2.284,0.7356,0.0,0.0687,0.005032,0.0,0.0,3.0,,,,,,200.231815,FAIL,vel error exceeded
184,s04_vel_pi_staircase,g000022_c6,22,,,,,,0.0011223891260748141,0.264452678418344,1.167109734163869,,,,,,,1.5426,2.6008,0.7846,0.0,0.0718,0.00503,0.0,0.0,3.0,,,,,,200.237312,FAIL,vel error exceeded
185,s04_vel_pi_staircase,g000022_c7,22,,,,,,0.0015634980000849366,0.318180795163298,1.0868074557975296,,,,,,,1.5461,2.3288,0.7405,0.0,0.0684,0.005032,0.0,0.0,3.0,,,,,,200.23034,FAIL,vel error exceeded
186,s04_vel_pi_staircase,g000023_c0,23,,,,,,0.0011876321431398176,0.22592375032345677,1.2,,,,,,,1.5041,2.7231,0.8244,0.0,0.0838,0.005025,0.0,0.0,3.0,,,,,,200.271753,FAIL,vel error exceeded
187,s04_vel_pi_staircase,g000023_c1,23,,,,,,0.0013738080511829628,0.27026628015640675,1.2,,,,,,,1.5455,2.5818,0.7794,0.0,0.0708,0.00503,0.0,0.0,3.0,,,,,,200.234458,FAIL,vel error exceeded
188,s04_vel_pi_staircase,g000023_c2,23,,,,,,0.001419205139694209,0.24706755427393715,0.9768328588857471,,,,,,,1.5297,2.6685,0.8016,0.0,0.0763,0.005028,0.0,0.0,3.0,,,,,,200.250093,FAIL,vel error exceeded
189,s04_vel_pi_staircase,g000023_c3,23,,,,,,0.0010978915212027241,0.29108007993885626,1.2,,,,,,,1.552,2.4726,0.7611,0.0,0.068,0.005032,0.0,0.0,3.0,,,,,,200.227243,FAIL,vel error exceeded
190,s04_vel_pi_staircase,g000023_c4,23,,,,,,0.0011717851094603959,0.2539415267442719,1.2,,,,,,,1.5362,2.6422,0.7949,0.0,0.0743,0.005029,0.0,0.0,3.0,,,,,,200.244358,FAIL,vel error exceeded
191,s04_vel_pi_staircase,g000023_c5,23,,,,,,0.0011889794509647395,0.27015515770287457,1.048182129207939,,,,,,,1.5448,2.58,0.7795,0.0,0.0709,0.00503,0.0,0.0,3.0,,,,,,200.234902,FAIL,vel error exceeded
192,s04_vel_pi_staircase,g000023_c6,23,,,,,,0.0012156641991604648,0.2814238368512467,0.8831896658210951,,,,,,,1.5513,2.5277,0.7695,0.0,0.0689,0.005031,0.0,0.0,3.0,,,,,,200.229575,FAIL,vel error exceeded
193,s04_vel_pi_staircase,g000023_c7,23,,,,,,0.001,0.2280788012509692,1.1983962056599602,,,,,,,1.509,2.7209,0.8222,0.0,0.0828,0.005025,0.0,0.0,3.0,,,,,,200.268843,FAIL,vel error exceeded
194,s04_vel_pi_staircase,g000024_c0,24,,,,,,0.0015523520917754654,0.31425984744778585,1.0440311036966137,,,,,,,1.5462,2.3499,0.7433,0.0,0.0682,0.005032,0.0,0.0,3.0,,,,,,200.229377,FAIL,vel error exceeded
195,s04_vel_pi_staircase,g000024_c1,24,,,,,,0.0010729977497739743,0.23812272883586932,1.1203945304495027,,,,,,,1.5215,2.6936,0.8111,0.0,0.0791,0.005027,0.0,0.0,3.0,,,,,,200.258072,FAIL,vel error exceeded
196,s04_vel_pi_staircase,g000024_c2,24,,,,,,0.0013468521224754755,0.29576537188185054,1.1810351084226638,,,,,,,1.5516,2.4552,0.7575,0.0,0.0679,0.005032,0.0,0.0,3.0,,,,,,200.227335,FAIL,vel error exceeded
197,s04_vel_pi_staircase,g000024_c3,24,,,,,,0.0011274197892590086,0.21302644625087028,1.2,,,,,,,1.4824,2.7363,0.8391,0.0,0.0895,0.005023,0.0,0.0,3.0,,,,,,200.288607,FAIL,vel error exceeded
198,s04_vel_pi_staircase,g000024_c4,24,,,,,,0.0011599591721129948,0.2604917028561136,1.2,,,,,,,1.5418,2.6252,0.7887,0.0,0.0727,0.00503,0.0,0.0,3.0,,,,,,200.239867,FAIL,vel error exceeded
199,s04_vel_pi_staircase,g000024_c5,24,,,,,,0.0012482232824574514,0.31320052437811785,1.2,,,,,,,1.5487,2.3516,0.7438,0.0,0.0679,0.005032,0.0,0.0,3.0,,,,,,200.228437,FAIL,vel error exceeded
200,s04_vel_pi_staircase,g000024_c6,24,,,,,,0.001,0.20459351580252244,1.2,,,,,,,1.4671,2.7476,0.8493,0.0,0.0935,0.005021,0.0,0.0,3.0,,,,,,200.300257,FAIL,vel error exceeded
201,s04_vel_pi_staircase,g000024_c7,24,,,,,,0.0015363751402409098,0.30892734879071826,1.1730611820409387,,,,,,,1.5499,2.3784,0.747,0.0,0.0678,0.005032,0.0,0.0,3.0,,,,,,200.227945,FAIL,vel error exceeded
202,s04_vel_pi_staircase,g000025_c0,25,,,,,,0.001402533116037178,0.24397023179954275,1.106515265064977,,,,,,,1.5249,2.6737,0.8047,0.0,0.0774,0.005028,0.0,0.0,3.0,,,,,,200.253153,FAIL,vel error exceeded
203,s04_vel_pi_staircase,g000025_c1,25,,,,,,0.0012091762220941054,0.25629433104879124,1.1968452584037408,,,,,,,1.5384,2.6353,0.7925,0.0,0.0737,0.005029,0.0,0.0,3.0,,,,,,200.242703,FAIL,vel error exceeded
204,s04_vel_pi_staircase,g000025_c2,25,,,,,,0.0011739180459904182,0.22943126244976345,1.0472307787783408,,,,,,,1.5093,2.7115,0.8204,0.0,0.0824,0.005026,0.0,0.0,3.0,,,,,,200.267652,FAIL,vel error exceeded
205,s04_vel_pi_staircase,g000025_c3,25,,,,,,0.0011150248782459242,0.31535729523876666,1.2,,,,,,,1.5494,2.3468,0.7425,0.0,0.0679,0.005032,0.0,0.0,3.0,,,,,,200.22872,FAIL,vel error exceeded
206,s04_vel_pi_staircase,g000025_c4,25,,,,,,0.0011487819840073855,0.28636824091826557,1.2,,,,,,,1.5499,2.5006,0.7653,0.0,0.0686,0.005031,0.0,0.0,3.0,,,,,,200.228845,FAIL,vel error exceeded
207,s04_vel_pi_staircase,g000025_c5,25,,,,,,0.0010457529589242625,0.29861634272503346,1.180749686135076,,,,,,,1.552,2.4355,0.755,0.0,0.0676,0.005032,0.0,0.0,3.0,,,,,,200.226598,FAIL,vel error exceeded
208,s04_vel_pi_staircase,g000025_c6,25,,,,,,0.0013125328384384492,0.2994772778193707,1.2,,,,,,,1.5513,2.435,0.7545,0.0,0.0678,0.005032,0.0,0.0,3.0,,,,,,200.227272,FAIL,vel error exceeded
209,s04_vel_pi_staircase,g000025_c7,25,,,,,,0.0011375950870606158,0.28368959741523553,1.1574052093466136,,,,,,,1.5495,2.5148,0.7675,0.0,0.0688,0.005031,0.0,0.0,3.0,,,,,,200.229345,FAIL,vel error exceeded
210,s04_vel_pi_staircase,g000026_c0,26,,,,,,0.0012476585589087873,0.2524344268610816,1.0971808944566406,,,,,,,1.535,2.6482,0.7962,0.0,0.0747,0.005029,0.0,0.0,3.0,,,,,,200.245413,FAIL,vel error exceeded
211,s04_vel_pi_staircase,g000026_c1,26,,,,,,0.0012174716637930174,0.29131855583268074,1.118637244065723,,,,,,,1.5503,2.48,0.7611,0.0,0.0682,0.005032,0.0,0.0,3.0,,,,,,200.227983,FAIL,vel error exceeded
212,s04_vel_pi_staircase,g000026_c2,26,,,,,,0.0014222333301081435,0.3038316706869338,1.2,,,,,,,1.5494,2.4065,0.7511,0.0,0.0678,0.005032,0.0,0.0,3.0,,,,,,200.227503,FAIL,vel error exceeded
213,s04_vel_pi_staircase,g000026_c3,26,,,,,,0.0011340078941438063,0.263409094505201,1.2,,,,,,,1.5428,2.6048,0.7856,0.0,0.0719,0.00503,0.0,0.0,3.0,,,,,,200.237547,FAIL,vel error exceeded
214,s04_vel_pi_staircase,g000026_c4,26,,,,,,0.0010812459310201048,0.27594223305794535,1.191676781929085,,,,,,,1.5489,2.5574,0.7744,0.0,0.0697,0.005031,0.0,0.0,3.0,,,,,,200.231528,FAIL,vel error exceeded
215,s04_vel_pi_staircase,g000026_c5,26,,,,,,0.001126222387044713,0.2821503909627765,1.2,,,,,,,1.5501,2.5239,0.7689,0.0,0.069,0.005031,0.0,0.0,3.0,,,,,,200.229787,FAIL,vel error exceeded
216,s04_vel_pi_staircase,g000026_c6,26,,,,,,0.0011000182562636092,0.2523309774671574,1.2,,,,,,,1.5344,2.6485,0.7964,0.0,0.0748,0.005029,0.0,0.0,3.0,,,,,,200.245917,FAIL,vel error exceeded
217,s04_vel_pi_staircase,g000026_c7,26,,,,,,0.0012399618068901798,0.32090574521883636,1.1559487221601932,,,,,,,1.5478,2.3118,0.7386,0.0,0.0683,0.005032,0.0,0.0,3.0,,,,,,200.230322,FAIL,vel error exceeded
218,s04_vel_pi_staircase,g000027_c0,27,,,,,,0.0012852093523968721,0.2689775103559138,1.1866388329523987,,,,,,,1.5443,2.5798,0.7804,0.0,0.071,0.00503,0.0,0.0,3.0,,,,,,200.235088,FAIL,vel error exceeded
219,s04_vel_pi_staircase,g000027_c1,27,,,,,,0.001271195232134144,0.2612643891304167,1.1413269647874955,,,,,,,1.5422,2.6159,0.7877,0.0,0.0724,0.00503,0.0,0.0,3.0,,,,,,200.238955,FAIL,vel error exceeded
220,s04_vel_pi_staircase,g000027_c2,27,,,,,,0.001124193416799571,0.2610046303799135,1.1164531445403854,,,,,,,1.5412,2.6163,0.7879,0.0,0.0725,0.00503,0.0,0.0,3.0,,,,,,200.23927,FAIL,vel error exceeded
221,s04_vel_pi_staircase,g000027_c3,27,,,,,,0.001151176380021347,0.2740985008305543,1.1421252161947473,,,,,,,1.5471,2.5616,0.776,0.0,0.0701,0.005031,0.0,0.0,3.0,,,,,,200.232743,FAIL,vel error exceeded
222,s04_vel_pi_staircase,g000027_c4,27,,,,,,0.0013060489004643205,0.283774519495833,1.2,,,,,,,1.5487,2.5133,0.7675,0.0,0.069,0.005031,0.0,0.0,3.0,,,,,,200.22983,FAIL,vel error exceeded
223,s04_vel_pi_staircase,g000027_c5,27,,,,,,0.001262464944520335,0.302702957515138,1.143813660776142,,,,,,,1.5503,2.4163,0.752,0.0,0.0678,0.005032,0.0,0.0,3.0,,,,,,200.227377,FAIL,vel error exceeded
224,s04_vel_pi_staircase,g000027_c6,27,,,,,,0.0011997902018227038,0.24998096667870384,1.1770003438205952,,,,,,,1.533,2.6615,0.799,0.0,0.0755,0.005028,0.0,0.0,3.0,,,,,,200.247783,FAIL,vel error exceeded
225,s04_vel_pi_staircase,g000027_c7,27,,,,,,0.0011474329387271111,0.29967355820661074,1.1011207490262385,,,,,,,1.5522,2.4345,0.7544,0.0,0.0677,0.005032,0.0,0.0,3.0,,,,,,200.226957,FAIL,vel error exceeded
226,s04_vel_pi_staircase,g000028_c0,28,,,,,,0.001099981605461268,0.26583146882515113,1.1497493220630077,,,,,,,1.5427,2.5991,0.7835,0.0,0.0716,0.00503,0.0,0.0,3.0,,,,,,200.236757,FAIL,vel error exceeded
227,s04_vel_pi_staircase,g000028_c1,28,,,,,,0.0012243004076458197,0.26457387551166883,1.2,,,,,,,1.5439,2.6034,0.7847,0.0,0.0717,0.00503,0.0,0.0,3.0,,,,,,200.237038,FAIL,vel error exceeded
228,s04_vel_pi_staircase,g000028_c2,28,,,,,,0.0012353098832077157,0.2545186497973155,1.2,,,,,,,1.5358,2.6439,0.7944,0.0,0.0743,0.005029,0.0,0.0,3.0,,,,,,200.244333,FAIL,vel error exceeded
229,s04_vel_pi_staircase,g000028_c3,28,,,,,,0.001230544186880736,0.3236105702975499,1.2,,,,,,,1.5457,2.2964,0.7368,0.0,0.0686,0.005032,0.0,0.0,3.0,,,,,,200.231332,FAIL,vel error exceeded
230,s04_vel_pi_staircase,g000028_c4,28,,,,,,0.0010597102720102944,0.26563504266487586,1.2,,,,,,,1.5446,2.5983,0.7836,0.0,0.0715,0.00503,0.0,0.0,3.0,,,,,,200.236437,FAIL,vel error exceeded
231,s04_vel_pi_staircase,g000028_c5,28,,,,,,0.0012155866108629879,0.2665102032494306,1.2,,,,,,,1.5452,2.5963,0.7827,0.0,0.0713,0.00503,0.0,0.0,3.0,,,,,,200.235913,FAIL,vel error exceeded
232,s04_vel_pi_staircase,g000028_c6,28,,,,,,0.001356859969509715,0.27850617857246723,1.122249305814272,,,,,,,1.5472,2.5418,0.772,0.0,0.0696,0.005031,0.0,0.0,3.0,,,,,,200.231415,FAIL,vel error exceeded
233,s04_vel_pi_staircase,g000028_c7,28,,,,,,0.0013000017852620334,0.2789858599434643,1.2,,,,,,,1.5477,2.5388,0.7715,0.0,0.0695,0.005031,0.0,0.0,3.0,,,,,,200.231145,FAIL,vel error exceeded
234,s04_vel_pi_staircase,g000029_c0,29,,,,,,0.001220076260733248,0.28200072787658664,1.2,,,,,,,1.5488,2.5212,0.769,0.0,0.069,0.005031,0.0,0.0,3.0,,,,,,200.229653,FAIL,vel error exceeded
235,s04_vel_pi_staircase,g000029_c1,29,,,,,,0.0012141028651775918,0.2908143640401938,1.2,,,,,,,1.5512,2.4751,0.7613,0.0,0.0681,0.005032,0.0,0.0,3.0,,,,,,200.227633,FAIL,vel error exceeded
236,s04_vel_pi_staircase,g000029_c2,29,,,,,,0.0012152604919014463,0.26660624033168134,1.2,,,,,,,1.5445,2.5955,0.7827,0.0,0.0714,0.00503,0.0,0.0,3.0,,,,,,200.236207,FAIL,vel error exceeded
237,s04_vel_pi_staircase,g000029_c3,29,,,,,,0.0011578533101936738,0.27338036185069065,1.2,,,,,,,1.5472,2.5662,0.7765,0.0,0.0702,0.005031,0.0,0.0,3.0,,,,,,200.23293,FAIL,vel error exceeded
238,s04_vel_pi_staircase,g000029_c4,29,,,,,,0.0012416713184184433,0.2710080349689758,1.2,,,,,,,1.5474,2.5757,0.7787,0.0,0.0704,0.005031,0.0,0.0,3.0,,,,,,200.233458,FAIL,vel error exceeded
239,s04_vel_pi_staircase,g000029_c5,29,,,,,,0.0012681220658815908,0.27220401181125997,1.1527677415629438,,,,,,,1.5474,2.5758,0.7778,0.0,0.0704,0.005031,0.0,0.0,3.0,,,,,,200.233493,FAIL,vel error exceeded
240,s04_vel_pi_staircase,g000029_c6,29,,,,,,0.001294311137667644,0.26117983040763104,1.12983158863547,,,,,,,1.5411,2.6205,0.7881,0.0,0.0726,0.00503,0.0,0.0,3.0,,,,,,200.239567,FAIL,vel error exceeded
241,s04_vel_pi_staircase,g000029_c7,29,,,,,,0.0013137482632260649,0.26283262194300044,1.1863303416899802,,,,,,,1.5415,2.6108,0.7862,0.0,0.0722,0.00503,0.0,0.0,3.0,,,,,,200.238402,FAIL,vel error exceeded
242,s04_vel_pi_staircase,g000030_c0,30,,,,,,0.0011953233044042087,0.2679920972524103,1.1778657750841754,,,,,,,1.5466,2.5946,0.7817,0.0,0.071,0.00503,0.0,0.0,3.0,,,,,,200.235098,FAIL,vel error exceeded
243,s04_vel_pi_staircase,g000030_c1,30,,,,,,0.0012043104270436993,0.27762854339123966,1.1569160754245953,,,,,,,1.5499,2.5489,0.7729,0.0,0.0695,0.005031,0.0,0.0,3.0,,,,,,200.231123,FAIL,vel error exceeded
244,s04_vel_pi_staircase,g000030_c2,30,,,,,,0.0011644050802295197,0.26973240226933626,1.1555058902378423,,,,,,,1.5457,2.5837,0.7799,0.0,0.0708,0.00503,0.0,0.0,3.0,,,,,,200.234532,FAIL,vel error exceeded
245,s04_vel_pi_staircase,g000030_c3,30,,,,,,0.001194372456147572,0.2606654956632795,1.2,,,,,,,1.54,2.6187,0.7884,0.0,0.0728,0.005029,0.0,0.0,3.0,,,,,,200.240072,FAIL,vel error exceeded
246,s04_vel_pi_staircase,g000030_c4,30,,,,,,0.001282922671580115,0.26721331747329446,1.1971632507531291,,,,,,,1.5465,2.597,0.7823,0.0,0.0711,0.00503,0.0,0.0,3.0,,,,,,200.235403,FAIL,vel error exceeded
247,s04_vel_pi_staircase,g000030_c5,30,,,,,,0.0012339200966859335,0.2697049593019009,1.1898693583615865,,,,,,,1.5458,2.5801,0.7797,0.0,0.0708,0.00503,0.0,0.0,3.0,,,,,,200.23451,FAIL,vel error exceeded
248,s04_vel_pi_staircase,g000030_c6,30,,,,,,0.0012078202298557654,0.2775833032157138,1.2,,,,,,,1.5485,2.5442,0.7729,0.0,0.0696,0.005031,0.0,0.0,3.0,,,,,,200.231342,FAIL,vel error exceeded
249,s04_vel_pi_staircase,g000030_c7,30,,,,,,0.0011779378451199432,0.26854059800030095,1.2,,,,,,,1.5457,2.5832,0.7808,0.0,0.0709,0.00503,0.0,0.0,3.0,,,,,,200.234753,FAIL,vel error exceeded
250,s04_vel_pi_staircase,g000031_c0,31,,,,,,0.0011774483399450717,0.26785657712236266,1.2,,,,,,,1.5462,2.5922,0.7817,0.0,0.0711,0.00503,0.0,0.0,3.0,,,,,,200.23537,FAIL,vel error exceeded
251,s04_vel_pi_staircase,g000031_c1,31,,,,,,0.001187374772898338,0.28998603163186776,1.1891321529673051,,,,,,,1.5516,2.4872,0.7624,0.0,0.0683,0.005032,0.0,0.0,3.0,,,,,,200.228108,FAIL,vel error exceeded
252,s04_vel_pi_staircase,g000031_c2,31,,,,,,0.0012344577496817906,0.27896900249069295,1.2,,,,,,,1.5501,2.5438,0.7717,0.0,0.0694,0.005031,0.0,0.0,3.0,,,,,,200.230838,FAIL,vel error exceeded
253,s04_vel_pi_staircase,g000031_c3,31,,,,,,0.0012188123850124283,0.27895723144678,1.2,,,,,,,1.5493,2.5408,0.7715,0.0,0.0693,0.005031,0.0,0.0,3.0,,,,,,200.23049,FAIL,vel error exceeded
254,s04_vel_pi_staircase,g000031_c4,31,,,,,,0.001188613274717425,0.27284857537621154,1.2,,,,,,,1.5482,2.5678,0.777,0.0,0.0701,0.005031,0.0,0.0,3.0,,,,,,200.232493,FAIL,vel error exceeded
255,s04_vel_pi_staircase,g000031_c5,31,,,,,,0.001178491200892364,0.26735877351258835,1.1962929757148075,,,,,,,1.5435,2.5885,0.782,0.0,0.0713,0.00503,0.0,0.0,3.0,,,,,,200.235842,FAIL,vel error exceeded
256,s04_vel_pi_staircase,g000031_c6,31,,,,,,0.0012189706658008131,0.28418328726959474,1.2,,,,,,,1.5504,2.5134,0.7671,0.0,0.0688,0.005031,0.0,0.0,3.0,,,,,,200.229373,FAIL,vel error exceeded
257,s04_vel_pi_staircase,g000031_c7,31,,,,,,0.0012309295339298705,0.26999149266972056,1.1425873092950984,,,,,,,1.5446,2.5835,0.7796,0.0,0.0709,0.00503,0.0,0.0,3.0,,,,,,200.234977,FAIL,vel error exceeded
258,s04_vel_pi_staircase,g000032_c0,32,,,,,,0.0012173471582418267,0.27853421810096307,1.1887644735774634,,,,,,,1.5501,2.5399,0.7718,0.0,0.0692,0.005031,0.0,0.0,3.0,,,,,,200.230072,FAIL,vel error exceeded
259,s04_vel_pi_staircase,g000032_c1,32,,,,,,0.0011768285390990106,0.27390594673256713,1.1808045352782697,,,,,,,1.5475,2.565,0.7761,0.0,0.0701,0.005031,0.0,0.0,3.0,,,,,,200.232728,FAIL,vel error exceeded
260,s04_vel_pi_staircase,g000032_c2,32,,,,,,0.0012435116802800791,0.2798389921958773,1.2,,,,,,,1.5493,2.5377,0.7708,0.0,0.0693,0.005031,0.0,0.0,3.0,,,,,,200.230582,FAIL,vel error exceeded
261,s04_vel_pi_staircase,g000032_c3,32,,,,,,0.0011722039720483731,0.2830161701000801,1.2,,,,,,,1.5506,2.5201,0.768,0.0,0.0688,0.005031,0.0,0.0,3.0,,,,,,200.229348,FAIL,vel error exceeded
262,s04_vel_pi_staircase,g000032_c4,32,,,,,,0.001245772823022856,0.270560184798514,1.1851098069892303,,,,,,,1.5469,2.5746,0.7788,0.0,0.0705,0.00503,0.0,0.0,3.0,,,,,,200.233637,FAIL,vel error exceeded
263,s04_vel_pi_staircase,g000032_c5,32,,,,,,0.0012139921893980856,0.25737145869929834,1.2,,,,,,,1.5389,2.6336,0.7916,0.0,0.0734,0.005029,0.0,0.0,3.0,,,,,,200.241885,FAIL,vel error exceeded
264,s04_vel_pi_staircase,g000032_c6,32,,,,,,0.0012415944869829487,0.28460594196112515,1.2,,,,,,,1.5508,2.5097,0.7665,0.0,0.0686,0.005031,0.0,0.0,3.0,,,,,,200.22878,FAIL,vel error exceeded
265,s04_vel_pi_staircase,g000032_c7,32,,,,,,0.0012379291878577136,0.27322688009198737,1.1602110652958293,,,,,,,1.5479,2.5637,0.7766,0.0,0.0701,0.005031,0.0,0.0,3.0,,,,,,200.232668,FAIL,vel error exceeded
266,s04_vel_pi_staircase,g000033_c0,33,,,,,,0.0012275557645529086,0.283130996106831,1.2,,,,,,,1.5505,2.5222,0.7679,0.0,0.0688,0.005031,0.0,0.0,3.0,,,,,,200.229245,FAIL,vel error exceeded
267,s04_vel_pi_staircase,g000033_c1,33,,,,,,0.0012406795695690642,0.2727881212358019,1.2,,,,,,,1.5454,2.5715,0.7773,0.0,0.0705,0.00503,0.0,0.0,3.0,,,,,,200.233742,FAIL,vel error exceeded
268,s04_vel_pi_staircase,g000033_c2,33,,,,,,0.001208413111468788,0.26776308393211457,1.2,,,,,,,1.5448,2.589,0.7815,0.0,0.0712,0.00503,0.0,0.0,3.0,,,,,,200.235698,FAIL,vel error exceeded
269,s04_vel_pi_staircase,g000033_c3,33,,,,,,0.0011877433401574864,0.2806712933924027,1.2,,,,,,,1.5495,2.5321,0.7701,0.0,0.0692,0.005031,0.0,0.0,3.0,,,,,,200.230362,FAIL,vel error exceeded
270,s04_vel_pi_staircase,g000033_c4,33,,,,,,0.0011935532469905547,0.27957330767973865,1.1836823425609768,,,,,,,1.5498,2.5368,0.7711,0.0,0.0693,0.005031,0.0,0.0,3.0,,,,,,200.230587,FAIL,vel error exceeded
271,s04_vel_pi_staircase,g000033_c5,33,,,,,,0.0012255070180196333,0.28139981408267123,1.2,,,,,,,1.5499,2.5312,0.7696,0.0,0.0691,0.005031,0.0,0.0,3.0,,,,,,200.229983,FAIL,vel error exceeded
272,s04_vel_pi_staircase,g000033_c6,33,,,,,,0.0012551445815196295,0.28029618629801856,1.1855858926840521,,,,,,,1.5499,2.5336,0.7702,0.0,0.0692,0.005031,0.0,0.0,3.0,,,,,,200.230328,FAIL,vel error exceeded
273,s04_vel_pi_staircase,g000033_c7,33,,,,,,0.0011859853587651386,0.2716841383769029,1.1877781595634718,,,,,,,1.5459,2.5743,0.7782,0.0,0.0705,0.00503,0.0,0.0,3.0,,,,,,200.233775,FAIL,vel error exceeded
274,s04_vel_pi_staircase,g000034_c0,34,,,,,,0.0012280467186159625,0.2755423125133553,1.1142419377826525,,,,,,,1.5472,2.5593,0.7749,0.0,0.07,0.005031,0.0,0.0,3.0,,,,,,200.232472,FAIL,vel error exceeded
275,s04_vel_pi_staircase,g000034_c1,34,,,,,,0.0012162989094960668,0.2724739765790008,1.1617152143012464,,,,,,,1.5469,2.5684,0.7773,0.0,0.0703,0.005031,0.0,0.0,3.0,,,,,,200.233125,FAIL,vel error exceeded
276,s04_vel_pi_staircase,g000034_c2,34,,,,,,0.0012280356136326188,0.2842464182465395,1.2,,,,,,,1.5508,2.5143,0.767,0.0,0.0687,0.005031,0.0,0.0,3.0,,,,,,200.228987,FAIL,vel error exceeded
277,s04_vel_pi_staircase,g000034_c3,34,,,,,,0.001241216305421437,0.28441241653911553,1.1985028031611076,,,,,,,1.5508,2.5131,0.7669,0.0,0.0687,0.005031,0.0,0.0,3.0,,,,,,200.228983,FAIL,vel error exceeded
278,s04_vel_pi_staircase,g000034_c4,34,,,,,,0.0012023535390625446,0.27558977788029315,1.18697146205062,,,,,,,1.5481,2.5572,0.7748,0.0,0.0699,0.005031,0.0,0.0,3.0,,,,,,200.232225,FAIL,vel error exceeded
279,s04_vel_pi_staircase,g000034_c5,34,,,,,,0.0012178169544864819,0.2748601235955395,1.2,,,,,,,1.5485,2.5543,0.775,0.0,0.0698,0.005031,0.0,0.0,3.0,,,,,,200.231748,FAIL,vel error exceeded
280,s04_vel_pi_staircase,g000034_c6,34,,,,,,0.0012417938641309382,0.2678295761897257,1.1691741528688784,,,,,,,1.5466,2.5995,0.7819,0.0,0.0711,0.00503,0.0,0.0,3.0,,,,,,200.235442,FAIL,vel error exceeded
281,s04_vel_pi_staircase,g000034_c7,34,,,,,,0.0012489126754535204,0.2722659086049928,1.1903388059135767,,,,,,,1.5488,2.577,0.7778,0.0,0.0702,0.005031,0.0,0.0,3.0,,,,,,200.232953,FAIL,vel error exceeded
282,s04_vel_pi_staircase,g000035_c0,35,,,,,,0.0012018623284150414,0.2800938698300691,1.2,,,,,,,1.5506,2.5353,0.7706,0.0,0.0691,0.005031,0.0,0.0,3.0,,,,,,200.230037,FAIL,vel error exceeded
283,s04_vel_pi_staircase,g000035_c1,35,,,,,,0.0012161732841769752,0.27057064856005547,1.2,,,,,,,1.5472,2.5799,0.7791,0.0,0.0705,0.00503,0.0,0.0,3.0,,,,,,200.233688,FAIL,vel error exceeded
284,s04_vel_pi_staircase,g000035_c2,35,,,,,,0.0012385628656915195,0.26910144186997725,1.157481487939021,,,,,,,1.5449,2.5855,0.7807,0.0,0.071,0.00503,0.0,0.0,3.0,,,,,,200.235072,FAIL,vel error exceeded
285,s04_vel_pi_staircase,g000035_c3,35,,,,,,0.0012439348159062954,0.2709815490819468,1.1816986287389215,,,,,,,1.5456,2.5738,0.7787,0.0,0.0707,0.00503,0.0,0.0,3.0,,,,,,200.234347,FAIL,vel error exceeded
286,s04_vel_pi_staircase,g000035_c4,35,,,,,,0.0012373421102087293,0.2715270988634124,1.2,,,,,,,1.5465,2.5721,0.7781,0.0,0.0705,0.00503,0.0,0.0,3.0,,,,,,200.233702,FAIL,vel error exceeded
287,s04_vel_pi_staircase,g000035_c5,35,,,,,,0.0012112270320906958,0.2781554748532995,1.2,,,,,,,1.5484,2.5429,0.7725,0.0,0.0695,0.005031,0.0,0.0,3.0,,,,,,200.231012,FAIL,vel error exceeded
288,s04_vel_pi_staircase,g000035_c6,35,,,,,,0.0012171036863326359,0.27156987066553573,1.1895383018841292,,,,,,,1.5463,2.5751,0.7782,0.0,0.0706,0.00503,0.0,0.0,3.0,,,,,,200.23404,FAIL,vel error exceeded
289,s04_vel_pi_staircase,g000035_c7,35,,,,,,0.0012218546585167217,0.2662185639559578,1.1977783512684543,,,,,,,1.5448,2.5976,0.783,0.0,0.0714,0.00503,0.0,0.0,3.0,,,,,,200.236307,FAIL,vel error exceeded
290,s04_vel_pi_staircase,g000036_c0,36,,,,,,0.001183488130369571,0.2841934468924711,1.1839320493138383,,,,,,,1.5518,2.5142,0.767,0.0,0.0686,0.005031,0.0,0.0,3.0,,,,,,200.228687,FAIL,vel error exceeded
291,s04_vel_pi_staircase,g000036_c1,36,,,,,,0.0012238511673055888,0.2728773981059123,1.2,,,,,,,1.5473,2.5656,0.777,0.0,0.0703,0.005031,0.0,0.0,3.0,,,,,,200.23328,FAIL,vel error exceeded
292,s04_vel_pi_staircase,g000036_c2,36,,,,,,0.0012287673975135889,0.2708339417401846,1.1879019147173586,,,,,,,1.5462,2.5798,0.7788,0.0,0.0706,0.00503,0.0,0.0,3.0,,,,,,200.234005,FAIL,vel error exceeded
293,s04_vel_pi_staircase,g000036_c3,36,,,,,,0.0011904619753976766,0.2759979086575896,1.1998998445582356,,,,,,,1.5486,2.5545,0.7742,0.0,0.0697,0.005031,0.0,0.0,3.0,,,,,,200.231577,FAIL,vel error exceeded
294,s04_vel_pi_staircase,g000036_c4,36,,,,,,0.001210683349971753,0.27745889780859434,1.2,,,,,,,1.5469,2.5432,0.7727,0.0,0.0697,0.005031,0.0,0.0,3.0,,,,,,200.231673,FAIL,vel error exceeded
295,s04_vel_pi_staircase,g000036_c5,36,,,,,,0.0012787283202112826,0.27898167469618945,1.1819169588381728,,,,,,,1.5484,2.5383,0.7715,0.0,0.0695,0.005031,0.0,0.0,3.0,,,,,,200.231097,FAIL,vel error exceeded
296,s04_vel_pi_staircase,g000036_c6,36,,,,,,0.001218455117988305,0.2728141522856328,1.176653581610834,,,,,,,1.5469,2.5644,0.7769,0.0,0.0702,0.005031,0.0,0.0,3.0,,,,,,200.232898,FAIL,vel error exceeded
297,s04_vel_pi_staircase,g000036_c7,36,,,,,,0.001200738924197232,0.27598625428693313,1.2,,,,,,,1.5484,2.5515,0.774,0.0,0.0697,0.005031,0.0,0.0,3.0,,,,,,200.231587,FAIL,vel error exceeded
298,s04_vel_pi_staircase,g000037_c0,37,,,,,,0.0011993270426055318,0.26990266368705734,1.183634381378384,,,,,,,1.5458,2.5806,0.7798,0.0,0.0708,0.00503,0.0,0.0,3.0,,,,,,200.234487,FAIL,vel error exceeded
299,s04_vel_pi_staircase,g000037_c1,37,,,,,,0.0011954929894240247,0.2833356629618524,1.2,,,,,,,1.5479,2.5194,0.768,0.0,0.0691,0.005031,0.0,0.0,3.0,,,,,,200.2301,FAIL,vel error exceeded
300,s04_vel_pi_staircase,g000037_c2,37,,,,,,0.0012647002482978505,0.27735940221039035,1.1556846233170857,,,,,,,1.5489,2.548,0.773,0.0,0.0696,0.005031,0.0,0.0,3.0,,,,,,200.23142,FAIL,vel error exceeded
301,s04_vel_pi_staircase,g000037_c3,37,,,,,,0.001185487077901831,0.28157638819527225,1.1827181226551566,,,,,,,1.5502,2.5248,0.7691,0.0,0.0689,0.005031,0.0,0.0,3.0,,,,,,200.229333,FAIL,vel error exceeded
302,s04_vel_pi_staircase,g000037_c4,37,,,,,,0.001208856686812447,0.2868352116039741,1.2,,,,,,,1.5489,2.5001,0.7649,0.0,0.0687,0.005031,0.0,0.0,3.0,,,,,,200.229122,FAIL,vel error exceeded
303,s04_vel_pi_staircase,g000037_c5,37,,,,,,0.0011633578073488176,0.2711540444760431,1.2,,,,,,,1.548,2.5772,0.7784,0.0,0.0704,0.005031,0.0,0.0,3.0,,,,,,200.233417,FAIL,vel error exceeded
304,s04_vel_pi_staircase,g000037_c6,37,,,,,,0.001197152232909073,0.2925557990403949,1.2,,,,,,,1.5522,2.4707,0.7601,0.0,0.0679,0.005032,0.0,0.0,3.0,,,,,,200.227097,FAIL,vel error exceeded
305,s04_vel_pi_staircase,g000037_c7,37,,,,,,0.0011815013424441069,0.27764338820767615,1.1748265234228321,,,,,,,1.5487,2.5516,0.773,0.0,0.0696,0.005031,0.0,0.0,3.0,,,,,,200.23138,FAIL,vel error exceeded
306,s04_vel_pi_staircase,g000038_c0,38,,,,,,0.0011703883553637684,0.275097159063944,1.1723753589474737,,,,,,,1.5487,2.5566,0.7749,0.0,0.0698,0.005031,0.0,0.0,3.0,,,,,,200.23188,FAIL,vel error exceeded
307,s04_vel_pi_staircase,g000038_c1,38,,,,,,0.0012196588699599207,0.2800510825258809,1.1694797160625132,,,,,,,1.5496,2.5375,0.7709,0.0,0.0693,0.005031,0.0,0.0,3.0,,,,,,200.23059,FAIL,vel error exceeded
308,s04_vel_pi_staircase,g000038_c2,38,,,,,,0.001205987503915345,0.2779007193453131,1.2,,,,,,,1.5493,2.5472,0.7726,0.0,0.0695,0.005031,0.0,0.0,3.0,,,,,,200.231032,FAIL,vel error exceeded
309,s04_vel_pi_staircase,g000038_c3,38,,,,,,0.0012076031760868474,0.27957357064163,1.1507125705798644,,,,,,,1.5505,2.5417,0.7712,0.0,0.0692,0.005031,0.0,0.0,3.0,,,,,,200.23036,FAIL,vel error exceeded
310,s04_vel_pi_staircase,g000038_c4,38,,,,,,0.0012062572654301914,0.2682607278547879,1.1790490036934203,,,,,,,1.546,2.5897,0.7813,0.0,0.071,0.00503,0.0,0.0,3.0,,,,,,200.235157,FAIL,vel error exceeded
311,s04_vel_pi_staircase,g000038_c5,38,,,,,,0.0011976523729975645,0.2804357970410782,1.2,,,,,,,1.5506,2.5336,0.7703,0.0,0.0691,0.005031,0.0,0.0,3.0,,,,,,200.229993,FAIL,vel error exceeded
312,s04_vel_pi_staircase,g000038_c6,38,,,,,,0.0012787280077658364,0.26812734912049846,1.1869012088879816,,,,,,,1.5453,2.5916,0.7814,0.0,0.0711,0.00503,0.0,0.0,3.0,,,,,,200.23545,FAIL,vel error exceeded
313,s04_vel_pi_staircase,g000038_c7,38,,,,,,0.0012258693475315004,0.27860890524355575,1.1831290256112852,,,,,,,1.5491,2.5462,0.7722,0.0,0.0695,0.005031,0.0,0.0,3.0,,,,,,200.231048,FAIL,vel error exceeded
