run_id,scenario,label,gen,timestamp,Q_PITCH,Q_PITCH_RATE,Q_VEL,R,KP_V,KI_V,KFF_V,KP_YAW,KI_YAW,LEG_K_S,LEG_B_S,LEG_K_ROLL,LEG_D_ROLL,rms_pitch_deg,max_pitch_deg,wheel_travel_m,wheel_liftoff_s,vel_track_rms_ms,hip_track_rms_rad,hip_cmd_rate_rms,settle_time_s,survived_s,fitness_balance,fitness_disturbance,fitness_drive_slow,fitness_drive_med,fitness_obstacle,fitness,status,fail_reason
1,s07_drive_turn,evo_seed,0,,,,,,,,,4.0200323,3.7317219,,,,,3.3467,11.0044,8.6918,0.0,0.2046,0.005056,0.0,0.974,8.0,,,,,,0.74852,PASS,
2,s07_drive_turn,g000000_c0,0,,,,,,,,,13.486950952055981,13.347954519192498,,,,,2.8052,8.1884,8.6959,0.0,0.6079,0.005043,0.0,0.996,8.0,,,,,,1.36952,PASS,
3,s07_drive_turn,g000000_c1,0,,,,,,,,,0.09034378855674234,10.495765137034901,,,,,3.3265,10.9781,8.6544,0.0,0.1754,0.005055,0.0,0.976,8.0,,,,,,0.79315,PASS,
4,s07_drive_turn,g000000_c2,0,,,,,,,,,0.6884796529303907,61.19525495872705,,,,,3.5403,11.4331,8.711,0.0,0.2963,0.005057,0.0,0.972,8.0,,,,,,0.93993,PASS,
5,s07_drive_turn,g000000_c3,0,,,,,,,,,9.133450334587035,100.0,,,,,2.8584,9.6931,8.9859,0.0,0.6095,0.005038,0.0,1.03,8.0,,,,,,1.37799,PASS,
6,s07_drive_turn,g000000_c4,0,,,,,,,,,0.6604425707797529,100.0,,,,,3.8163,15.1741,8.7303,0.0,0.4137,0.005056,0.0,0.972,8.0,,,,,,1.19793,PASS,
7,s07_drive_turn,g000000_c5,0,,,,,,,,,0.43516288655690666,32.79002805779434,,,,,3.3619,11.0067,8.7082,0.0,0.2303,0.005057,0.0,0.974,8.0,,,,,,0.82309,PASS,
8,s07_drive_turn,g000000_c6,0,,,,,,,,,14.478034829693735,0.2131536183299932,,,,,3.2105,9.5674,8.8458,0.0,0.6322,0.005088,0.0,1.222,8.0,,,,,,1.44065,PASS,
9,s07_drive_turn,g000000_c7,0,,,,,,,,,16.530218930809905,100.0,,,,,3.0912,10.1617,8.658,0.0,0.6191,0.005099,0.0,1.118,8.0,,,,,,1.43472,PASS,
10,s07_drive_turn,g000001_c0,1,,,,,,,,,5.420469513659747,35.186125120261266,,,,,3.2795,8.6553,9.275,0.0,0.6697,0.00506,0.0,1.23,8.0,,,,,,1.4861,PASS,
11,s07_drive_turn,g000001_c1,1,,,,,,,,,1.3688383555254797,10.55693395476283,,,,,3.3468,11.0022,8.6924,0.0,0.2092,0.005056,0.0,0.974,8.0,,,,,,0.75828,PASS,
12,s07_drive_turn,g000001_c2,1,,,,,,,,,6.4539778903134835,0.43554546526116206,,,,,3.2927,12.8368,9.2021,0.0,0.694,0.004994,0.0,0.934,8.0,,,,,,1.54892,PASS,
13,s07_drive_turn,g000001_c3,1,,,,,,,,,2.3747269878613144,62.97058721299665,,,,,3.3539,11.0121,8.7086,0.0,0.2242,0.005057,0.0,0.974,8.0,,,,,,0.78899,PASS,
14,s07_drive_turn,g000001_c4,1,,,,,,,,,1.2878063773765631,3.5622434049639886,,,,,3.3409,11.0028,8.6839,0.0,0.193,0.005056,0.0,0.974,8.0,,,,,,0.73114,PASS,
15,s07_drive_turn,g000001_c5,1,,,,,,,,,0.4828179182202658,4.029990200153021,,,,,3.3298,10.9886,8.6626,0.0,0.1756,0.005055,0.0,0.976,8.0,,,,,,0.70873,PASS,
16,s07_drive_turn,g000001_c6,1,,,,,,,,,0.21953940746653208,1.8534798150717957,,,,,3.3187,10.9751,8.6412,0.0,0.1551,0.005054,0.0,0.976,8.0,,,,,,0.69247,PASS,
17,s07_drive_turn,g000001_c7,1,,,,,,,,,0.0653924479109218,39.983327156933306,,,,,7.0228,15.5012,18.8412,0.0,3.1782,0.005292,0.0,0.974,8.0,,,,,,9.63928,PASS,
18,s07_drive_turn,g000002_c0,2,,,,,,,,,0.017598612835933145,0.9388693759595311,,,,,3.2998,10.9398,8.6355,0.0,0.1539,0.005045,0.0,0.974,8.0,,,,,,0.91978,PASS,
19,s07_drive_turn,g000002_c1,2,,,,,,,,,1.4426136866813086,100.0,,,,,3.479,11.037,8.7208,0.0,0.282,0.005057,0.0,0.972,8.0,,,,,,0.9029,PASS,
20,s07_drive_turn,g000002_c2,2,,,,,,,,,0.010704393599173197,74.46677935621369,,,,,7.43,16.6197,19.6873,0.0,3.2657,0.005215,0.0,0.968,8.0,,,,,,10.1717,PASS,
21,s07_drive_turn,g000002_c3,2,,,,,,,,,0.02382820616380384,0.7488132666859352,,,,,3.3046,10.9594,8.6373,0.0,0.1542,0.005047,0.0,0.974,8.0,,,,,,0.88636,PASS,
22,s07_drive_turn,g000002_c4,2,,,,,,,,,0.05376483990998277,0.06566004860813604,,,,,3.3499,11.0243,8.651,0.0,0.1572,0.005056,0.0,0.98,8.0,,,,,,0.86374,PASS,
23,s07_drive_turn,g000002_c5,2,,,,,,,,,2.7526377902713954,0.060057405613406493,,,,,3.3494,11.0074,8.6924,0.0,0.2039,0.005056,0.0,0.974,8.0,,,,,,0.74759,PASS,
24,s07_drive_turn,g000002_c6,2,,,,,,,,,6.683454384174681,3.6970676487102,,,,,3.1976,9.3362,8.9746,0.0,0.6429,0.005003,0.0,0.994,8.0,,,,,,1.45841,PASS,
25,s07_drive_turn,g000002_c7,2,,,,,,,,,0.07734038338715295,2.88900762561167,,,,,3.3142,10.9604,8.6392,0.0,0.1548,0.005054,0.0,0.976,8.0,,,,,,0.76627,PASS,
26,s07_drive_turn,g000003_c0,3,,,,,,,,,0.07458213473870094,0.044066254557873594,,,,,3.3579,11.0171,8.66,0.0,0.1585,0.005058,0.0,0.98,8.0,,,,,,0.84834,PASS,
27,s07_drive_turn,g000003_c1,3,,,,,,,,,0.011868680532651497,78.06700279061643,,,,,7.3506,17.8442,19.72,0.0,3.2685,0.005278,0.0,0.95,8.0,,,,,,10.03956,PASS,
28,s07_drive_turn,g000003_c2,3,,,,,,,,,0.014645350565624408,0.004586688919585255,,,,,3.4601,11.0506,8.7244,0.0,0.1689,0.005068,0.0,0.99,8.0,,,,,,1.35911,PASS,
29,s07_drive_turn,g000003_c3,3,,,,,,,,,4.172422475739577,2.673756962127923,,,,,3.3417,11.0047,8.6855,0.0,0.1929,0.005056,0.0,0.974,8.0,,,,,,0.73032,PASS,
30,s07_drive_turn,g000003_c4,3,,,,,,,,,0.653508812296452,0.09650382818162549,,,,,3.3445,10.9945,8.6764,0.0,0.1868,0.005057,0.0,0.976,8.0,,,,,,0.72775,PASS,
31,s07_drive_turn,g000003_c5,3,,,,,,,,,84.39781489031282,0.3023074702301059,,,,,3.1264,9.4813,8.5937,0.0,0.6652,0.00511,0.0,2.612,8.0,,,,,,1.49959,PASS,
32,s07_drive_turn,g000003_c6,3,,,,,,,,,0.4212815534348164,8.104977310842607,,,,,3.3348,10.979,8.6692,0.0,0.1901,0.005056,0.0,0.976,8.0,,,,,,0.73623,PASS,
33,s07_drive_turn,g000003_c7,3,,,,,,,,,4.360277501011496,1.9348683049796955,,,,,3.3466,11.006,8.6908,0.0,0.2026,0.005056,0.0,0.974,8.0,,,,,,0.74536,PASS,
34,s07_drive_turn,g000004_c0,4,,,,,,,,,5.054691654526039,0.26048443194106613,,,,,3.1508,10.3759,9.1379,0.0,0.6016,0.005025,0.0,8.0,8.0,,,,,,1.35128,PASS,
35,s07_drive_turn,g000004_c1,4,,,,,,,,,0.5255747324249183,0.03150520320341726,,,,,3.3457,10.9911,8.6734,0.0,0.1858,0.005057,0.0,0.976,8.0,,,,,,0.73132,PASS,
36,s07_drive_turn,g000004_c2,4,,,,,,,,,0.14292950686408362,0.8402755966194753,,,,,3.3192,10.9789,8.641,0.0,0.1551,0.005054,0.0,0.976,8.0,,,,,,0.72087,PASS,
37,s07_drive_turn,g000004_c3,4,,,,,,,,,0.03587810198877536,0.36818962853697684,,,,,3.3172,10.9957,8.6395,0.0,0.1548,0.005053,0.0,0.974,8.0,,,,,,0.84802,PASS,
38,s07_drive_turn,g000004_c4,4,,,,,,,,,2.1034102714976517,0.22371032301056445,,,,,3.3473,11.0085,8.6905,0.0,0.2001,0.005056,0.0,0.974,8.0,,,,,,0.74183,PASS,
39,s07_drive_turn,g000004_c5,4,,,,,,,,,0.09795564236925726,0.6587873825862698,,,,,3.3189,10.981,8.6408,0.0,0.1551,0.005054,0.0,0.976,8.0,,,,,,0.75039,PASS,
40,s07_drive_turn,g000004_c6,4,,,,,,,,,0.0049439633177081966,2.539108709820305,,,,,3.2893,10.9154,8.6269,0.0,0.1528,0.005043,0.0,0.974,8.0,,,,,,1.05643,PASS,
41,s07_drive_turn,g000004_c7,4,,,,,,,,,0.3747998407649772,0.6729137105737197,,,,,3.325,10.9861,8.6454,0.0,0.1595,0.005055,0.0,0.976,8.0,,,,,,0.6847,PASS,
42,s07_drive_turn,g000005_c0,5,,,,,,,,,0.7724767358145472,0.08577238436244093,,,,,3.3459,10.9976,8.6821,0.0,0.1914,0.005057,0.0,0.976,8.0,,,,,,0.73299,PASS,
43,s07_drive_turn,g000005_c1,5,,,,,,,,,12.17989122599661,0.0011068354138967457,,,,,3.3,9.9583,8.6494,0.0,0.6446,0.005071,0.0,2.554,8.0,,,,,,1.46415,PASS,
44,s07_drive_turn,g000005_c2,5,,,,,,,,,0.3487498114749035,0.04594256397402206,,,,,3.3439,10.9885,8.663,0.0,0.1746,0.005057,0.0,0.978,8.0,,,,,,0.72619,PASS,
45,s07_drive_turn,g000005_c3,5,,,,,,,,,0.7136680629280995,0.15492056418871544,,,,,3.344,10.9994,8.678,0.0,0.1879,0.005056,0.0,0.976,8.0,,,,,,0.72755,PASS,
46,s07_drive_turn,g000005_c4,5,,,,,,,,,0.6370605068142116,0.025883526992067737,,,,,3.3475,10.9942,8.6794,0.0,0.1912,0.005057,0.0,0.976,8.0,,,,,,0.73585,PASS,
47,s07_drive_turn,g000005_c5,5,,,,,,,,,0.034560242460769344,0.25503490872622414,,,,,3.323,11.0118,8.6398,0.0,0.155,0.005054,0.0,0.976,8.0,,,,,,0.85835,PASS,
48,s07_drive_turn,g000005_c6,5,,,,,,,,,2.724148965684109,0.16329309712389434,,,,,3.3475,11.0072,8.6912,0.0,0.2013,0.005056,0.0,0.974,8.0,,,,,,0.7435,PASS,
49,s07_drive_turn,g000005_c7,5,,,,,,,,,0.003094587754307612,0.40010272742696856,,,,,3.291,11.0006,8.6277,0.0,0.1527,0.005028,0.0,0.97,8.0,,,,,,1.086,PASS,
50,s07_drive_turn,g000006_c0,6,,,,,,,,,0.6198640435286539,0.33372132700295387,,,,,3.3374,10.9953,8.6693,0.0,0.178,0.005056,0.0,0.976,8.0,,,,,,0.71159,PASS,
51,s07_drive_turn,g000006_c1,6,,,,,,,,,27.555223406206196,0.11956745417761737,,,,,3.1743,10.4226,8.7621,0.0,0.67,0.005098,0.0,6.978,8.0,,,,,,1.51518,PASS,
52,s07_drive_turn,g000006_c2,6,,,,,,,,,0.2268866932721642,0.9718842126848173,,,,,3.3206,10.9822,8.6411,0.0,0.1552,0.005054,0.0,0.976,8.0,,,,,,0.69191,PASS,
53,s07_drive_turn,g000006_c3,6,,,,,,,,,0.2659659575408273,0.5648005811653666,,,,,3.3225,10.9832,8.6419,0.0,0.1554,0.005055,0.0,0.976,8.0,,,,,,0.6861,PASS,
54,s07_drive_turn,g000006_c4,6,,,,,,,,,1.9056288592844497,0.07811760491828716,,,,,3.3499,11.0089,8.6936,0.0,0.2048,0.005057,0.0,0.974,8.0,,,,,,0.74944,PASS,
55,s07_drive_turn,g000006_c5,6,,,,,,,,,2.965216421695682,0.9388057743473088,,,,,3.3461,11.0068,8.6908,0.0,0.201,0.005056,0.0,0.974,8.0,,,,,,0.74291,PASS,
56,s07_drive_turn,g000006_c6,6,,,,,,,,,0.6396890085299926,0.008383148890937307,,,,,3.3481,10.9977,8.6803,0.0,0.1925,0.005057,0.0,0.976,8.0,,,,,,0.73786,PASS,
57,s07_drive_turn,g000006_c7,6,,,,,,,,,5.087334465702542,1.0037329848906384,,,,,3.3956,10.2872,8.9756,0.0,0.6309,0.00501,0.0,1.332,8.0,,,,,,1.42271,PASS,
58,s07_drive_turn,g000007_c0,7,,,,,,,,,0.018408842825883474,1.1485658448881617,,,,,3.2995,10.9272,8.6349,0.0,0.1539,0.005045,0.0,0.974,8.0,,,,,,0.91465,PASS,
59,s07_drive_turn,g000007_c1,7,,,,,,,,,1.734319039607531,5.637370980508868,,,,,3.343,10.998,8.6878,0.0,0.1991,0.005056,0.0,0.974,8.0,,,,,,0.74065,PASS,
60,s07_drive_turn,g000007_c2,7,,,,,,,,,0.5563290336717791,0.004615849402314468,,,,,3.3493,10.9944,8.6783,0.0,0.1914,0.005057,0.0,0.976,8.0,,,,,,0.73918,PASS,
61,s07_drive_turn,g000007_c3,7,,,,,,,,,18.386946742058516,0.023563284621465952,,,,,2.9851,9.233,8.7788,0.0,0.5493,0.005067,0.0,1.79,8.0,,,,,,1.30396,PASS,
62,s07_drive_turn,g000007_c4,7,,,,,,,,,0.1491889493600157,1.1658262468214884,,,,,3.3181,10.9705,8.6408,0.0,0.1551,0.005054,0.0,0.976,8.0,,,,,,0.71686,PASS,
63,s07_drive_turn,g000007_c5,7,,,,,,,,,0.2915287917580088,0.020952315131094607,,,,,3.3455,10.9898,8.6621,0.0,0.1709,0.005057,0.0,0.978,8.0,,,,,,0.731,PASS,
64,s07_drive_turn,g000007_c6,7,,,,,,,,,0.4564605941247349,11.611476451223876,,,,,3.3435,10.9911,8.6819,0.0,0.2068,0.005056,0.0,0.974,8.0,,,,,,0.765,PASS,
65,s07_drive_turn,g000007_c7,7,,,,,,,,,0.036617967705489037,0.7018036718344306,,,,,3.3101,10.9688,8.639,0.0,0.1546,0.005051,0.0,0.974,8.0,,,,,,0.84026,PASS,
66,s07_drive_turn,g000008_c0,8,,,,,,,,,0.23053342568193325,1.4198334451371262,,,,,3.3193,10.9804,8.6408,0.0,0.1551,0.005054,0.0,0.976,8.0,,,,,,0.69013,PASS,
67,s07_drive_turn,g000008_c1,8,,,,,,,,,19.03130102574078,0.18709767288040066,,,,,2.9446,9.2019,8.8745,0.0,0.6203,0.005078,0.0,8.0,8.0,,,,,,1.40956,PASS,
68,s07_drive_turn,g000008_c2,8,,,,,,,,,0.3596291196180656,0.0698432607609784,,,,,3.3405,10.9825,8.66,0.0,0.1711,0.005057,0.0,0.978,8.0,,,,,,0.7176,PASS,
69,s07_drive_turn,g000008_c3,8,,,,,,,,,17.40053280168155,16.647101434167283,,,,,3.0834,10.033,8.7138,0.0,0.6319,0.005055,0.0,1.258,8.0,,,,,,1.44909,PASS,
70,s07_drive_turn,g000008_c4,8,,,,,,,,,0.544139176859876,0.021410283682363945,,,,,3.3477,10.9926,8.6756,0.0,0.189,0.005057,0.0,0.976,8.0,,,,,,0.73572,PASS,
71,s07_drive_turn,g000008_c5,8,,,,,,,,,0.03552946993032094,100.0,,,,,8.4295,22.5412,21.0117,0.0,3.4761,0.00527,0.0,0.958,8.0,,,,,,10.64425,PASS,
72,s07_drive_turn,g000008_c6,8,,,,,,,,,1.0780763801240854,0.054654109232619874,,,,,3.3486,11.0051,8.6883,0.0,0.1983,0.005057,0.0,0.974,8.0,,,,,,0.74121,PASS,
73,s07_drive_turn,g000008_c7,8,,,,,,,,,0.10113484803193988,2.0698829804214522,,,,,3.3156,10.9636,8.6398,0.0,0.1549,0.005054,0.0,0.976,8.0,,,,,,0.74391,PASS,
74,s07_drive_turn,g000009_c0,9,,,,,,,,,0.005121145815122828,0.04350753049763637,,,,,3.3506,11.06,8.6344,0.0,0.1556,0.005054,0.0,0.988,8.0,,,,,,1.16861,PASS,
75,s07_drive_turn,g000009_c1,9,,,,,,,,,0.6849552078754512,0.0010831456906306568,,,,,3.3493,11.0009,8.6824,0.0,0.195,0.005057,0.0,0.976,8.0,,,,,,0.74068,PASS,
76,s07_drive_turn,g000009_c2,9,,,,,,,,,0.10473432118044919,4.332952911948828,,,,,3.3167,10.97,8.6397,0.0,0.1549,0.005054,0.0,0.976,8.0,,,,,,0.74132,PASS,
77,s07_drive_turn,g000009_c3,9,,,,,,,,,0.31274990790286333,1.2818102191609553,,,,,3.321,10.9823,8.6417,0.0,0.1558,0.005055,0.0,0.976,8.0,,,,,,0.6804,PASS,
78,s07_drive_turn,g000009_c4,9,,,,,,,,,0.6997719031694366,4.245396131198341,,,,,3.3352,10.9946,8.6756,0.0,0.1846,0.005056,0.0,0.974,8.0,,,,,,0.72007,PASS,
79,s07_drive_turn,g000009_c5,9,,,,,,,,,0.04487909869980345,0.30739941996457415,,,,,3.3215,11.0014,8.6401,0.0,0.155,0.005054,0.0,0.976,8.0,,,,,,0.8282,PASS,
80,s07_drive_turn,g000009_c6,9,,,,,,,,,3.077623301015163,3.463797627267213,,,,,3.3432,11.007,8.6868,0.0,0.1958,0.005056,0.0,0.974,8.0,,,,,,0.73497,PASS,
81,s07_drive_turn,g000009_c7,9,,,,,,,,,0.06292875232979463,0.08476023577272913,,,,,3.3434,11.014,8.6482,0.0,0.1567,0.005056,0.0,0.98,8.0,,,,,,0.83264,PASS,
82,s07_drive_turn,g000010_c0,10,,,,,,,,,1.6853973353229952,0.23576558381665386,,,,,3.3474,11.0059,8.6899,0.0,0.1991,0.005056,0.0,0.974,8.0,,,,,,0.74064,PASS,
83,s07_drive_turn,g000010_c1,10,,,,,,,,,12.985448097692826,0.023482419744630507,,,,,3.091,9.3952,8.6813,0.0,0.6738,0.00508,0.0,1.488,8.0,,,,,,1.5157,PASS,
84,s07_drive_turn,g000010_c2,10,,,,,,,,,1.8755508043207587,0.8237014368087111,,,,,3.345,11.0083,8.6883,0.0,0.1972,0.005056,0.0,0.974,8.0,,,,,,0.73725,PASS,
85,s07_drive_turn,g000010_c3,10,,,,,,,,,2.8685448653486185,0.025998439370902935,,,,,3.3496,11.0096,8.6935,0.0,0.2043,0.005056,0.0,0.974,8.0,,,,,,0.74821,PASS,
86,s07_drive_turn,g000010_c4,10,,,,,,,,,0.4070498003995988,0.5920304864205018,,,,,3.3275,10.9863,8.6492,0.0,0.1623,0.005055,0.0,0.976,8.0,,,,,,0.68885,PASS,
87,s07_drive_turn,g000010_c5,10,,,,,,,,,0.13546817919375115,0.060053000489764786,,,,,3.3454,11.0002,8.655,0.0,0.1575,0.005057,0.0,0.978,8.0,,,,,,0.76729,PASS,
88,s07_drive_turn,g000010_c6,10,,,,,,,,,2.8481573536434497,0.726097471292774,,,,,3.3467,11.0066,8.6911,0.0,0.2014,0.005056,0.0,0.974,8.0,,,,,,0.74357,PASS,
89,s07_drive_turn,g000010_c7,10,,,,,,,,,0.019319789635048268,0.6562382998324503,,,,,3.3031,10.9662,8.6367,0.0,0.1541,0.005045,0.0,0.972,8.0,,,,,,0.91021,PASS,
90,s07_drive_turn,g000011_c0,11,,,,,,,,,0.701819990488126,0.4296244671735597,,,,,3.3375,11.0012,8.6723,0.0,0.1799,0.005056,0.0,0.976,8.0,,,,,,0.71295,PASS,
91,s07_drive_turn,g000011_c1,11,,,,,,,,,5.266193329848246,0.9352257101033697,,,,,3.4514,10.3976,9.1738,0.0,0.6095,0.005008,0.0,8.0,8.0,,,,,,1.40114,PASS,
92,s07_drive_turn,g000011_c2,11,,,,,,,,,3.7243917680747436,0.35868908324948673,,,,,3.348,11.0068,8.6917,0.0,0.203,0.005056,0.0,0.974,8.0,,,,,,0.7461,PASS,
93,s07_drive_turn,g000011_c3,11,,,,,,,,,0.1477889778769633,8.122595188582544,,,,,3.3215,10.9762,8.645,0.0,0.1618,0.005055,0.0,0.976,8.0,,,,,,0.7322,PASS,
94,s07_drive_turn,g000011_c4,11,,,,,,,,,0.02415711693731133,0.03379723683362503,,,,,3.3726,11.0473,8.6594,0.0,0.1589,0.005058,0.0,0.984,8.0,,,,,,1.02936,PASS,
95,s07_drive_turn,g000011_c5,11,,,,,,,,,0.8854078108587208,0.13214597776527662,,,,,3.3454,11.0025,8.6833,0.0,0.1925,0.005057,0.0,0.974,8.0,,,,,,0.73309,PASS,
96,s07_drive_turn,g000011_c6,11,,,,,,,,,6.342076466995663,1.8059530616502832,,,,,3.0133,9.9243,9.0954,0.0,0.6265,0.004986,0.0,1.162,8.0,,,,,,1.42468,PASS,
97,s07_drive_turn,g000011_c7,11,,,,,,,,,0.4773292826629126,0.9059825574217589,,,,,3.3286,10.9922,8.6554,0.0,0.1666,0.005055,0.0,0.976,8.0,,,,,,0.69346,PASS,
98,s07_drive_turn,g000012_c0,12,,,,,,,,,0.02915938737916187,1.668335673816236,,,,,3.3054,10.9296,8.6365,0.0,0.1543,0.005049,0.0,0.974,8.0,,,,,,0.86364,PASS,
99,s07_drive_turn,g000012_c1,12,,,,,,,,,0.5479414658231374,0.3788697086068627,,,,,3.3345,10.9913,8.6642,0.0,0.1724,0.005056,0.0,0.976,8.0,,,,,,0.70335,PASS,
100,s07_drive_turn,g000012_c2,12,,,,,,,,,0.11316373282868959,0.5983981780607761,,,,,3.3203,10.9795,8.641,0.0,0.1551,0.005054,0.0,0.976,8.0,,,,,,0.73973,PASS,
101,s07_drive_turn,g000012_c3,12,,,,,,,,,1.8875544435328733,2.198335388835034,,,,,3.3416,11.0027,8.685,0.0,0.1936,0.005056,0.0,0.974,8.0,,,,,,0.73151,PASS,
102,s07_drive_turn,g000012_c4,12,,,,,,,,,0.0927061465734953,0.40510690353690565,,,,,3.3223,10.989,8.6413,0.0,0.1552,0.005054,0.0,0.976,8.0,,,,,,0.75883,PASS,
103,s07_drive_turn,g000012_c5,12,,,,,,,,,0.8001250741388376,0.1392938045685858,,,,,3.3444,10.9959,8.6809,0.0,0.1896,0.005057,0.0,0.976,8.0,,,,,,0.72939,PASS,
104,s07_drive_turn,g000012_c6,12,,,,,,,,,0.34495746607026734,2.335548920133032,,,,,3.3226,10.9762,8.6457,0.0,0.1603,0.005055,0.0,0.976,8.0,,,,,,0.68671,PASS,
105,s07_drive_turn,g000012_c7,12,,,,,,,,,0.23299338696988683,100.0,,,,,7.4485,18.2198,19.3328,0.0,3.1595,0.005252,0.0,0.972,8.0,,,,,,9.60235,PASS,
106,s07_drive_turn,g000013_c0,13,,,,,,,,,0.07200065480964536,2.5400934020113737,,,,,3.3139,10.9576,8.6389,0.0,0.1548,0.005054,0.0,0.976,8.0,,,,,,0.77254,PASS,
107,s07_drive_turn,g000013_c1,13,,,,,,,,,0.4593891011361917,9.500421867138863,,,,,3.3399,10.9862,8.6763,0.0,0.1991,0.005056,0.0,0.974,8.0,,,,,,0.75114,PASS,
108,s07_drive_turn,g000013_c2,13,,,,,,,,,1.035252791811895,8.713471738898944,,,,,3.3435,11.0032,8.6893,0.0,0.2022,0.005056,0.0,0.974,8.0,,,,,,0.7479,PASS,
109,s07_drive_turn,g000013_c3,13,,,,,,,,,0.12399653025753396,2.7422313291218696,,,,,3.3166,10.9639,8.6404,0.0,0.155,0.005054,0.0,0.976,8.0,,,,,,0.72826,PASS,
110,s07_drive_turn,g000013_c4,13,,,,,,,,,0.07630034104935192,1.9071131692541183,,,,,3.3137,10.9564,8.6395,0.0,0.1548,0.005054,0.0,0.976,8.0,,,,,,0.76727,PASS,
111,s07_drive_turn,g000013_c5,13,,,,,,,,,0.003420809490255337,0.684364375761943,,,,,3.2838,10.9574,8.6277,0.0,0.1526,0.005029,0.0,0.97,8.0,,,,,,1.07403,PASS,
112,s07_drive_turn,g000013_c6,13,,,,,,,,,0.15881154647319592,100.0,,,,,7.4607,18.0653,18.6452,0.0,3.0942,0.00526,0.0,0.968,8.0,,,,,,9.90207,PASS,
113,s07_drive_turn,g000013_c7,13,,,,,,,,,0.9191441080096059,0.8489560149139908,,,,,3.3385,11.0028,8.6773,0.0,0.1845,0.005056,0.0,0.974,8.0,,,,,,0.7183,PASS,
114,s07_drive_turn,g000014_c0,14,,,,,,,,,0.8661863796322402,0.5837538720121509,,,,,3.34,11.0015,8.6778,0.0,0.186,0.005056,0.0,0.974,8.0,,,,,,0.72145,PASS,
115,s07_drive_turn,g000014_c1,14,,,,,,,,,0.1134138205463984,4.768176647032586,,,,,3.317,10.9735,8.6398,0.0,0.155,0.005054,0.0,0.976,8.0,,,,,,0.7358,PASS,
116,s07_drive_turn,g000014_c2,14,,,,,,,,,0.11580290281554885,2.03786674659296,,,,,3.3166,10.9653,8.6404,0.0,0.155,0.005054,0.0,0.976,8.0,,,,,,0.73366,PASS,
117,s07_drive_turn,g000014_c3,14,,,,,,,,,5.123501170464219,0.377195769842892,,,,,3.4218,9.8002,9.2185,0.0,0.6236,0.005033,0.0,0.874,8.0,,,,,,1.41693,PASS,
118,s07_drive_turn,g000014_c4,14,,,,,,,,,0.03059946583833688,0.33062638678289785,,,,,3.3173,10.9991,8.6388,0.0,0.1547,0.005052,0.0,0.974,8.0,,,,,,0.86618,PASS,
119,s07_drive_turn,g000014_c5,14,,,,,,,,,0.13281494006551464,1.5793928432466575,,,,,3.3171,10.9669,8.6406,0.0,0.155,0.005054,0.0,0.974,8.0,,,,,,0.72396,PASS,
120,s07_drive_turn,g000014_c6,14,,,,,,,,,0.4100147907563202,4.485892267890446,,,,,3.328,10.9801,8.6572,0.0,0.1729,0.005055,0.0,0.976,8.0,,,,,,0.70675,PASS,
121,s07_drive_turn,g000014_c7,14,,,,,,,,,1.0505740085084967,0.3441689990380468,,,,,3.3439,11.0061,8.6848,0.0,0.1916,0.005056,0.0,0.974,8.0,,,,,,0.73009,PASS,
122,s07_drive_turn,g000015_c0,15,,,,,,,,,3.4472299324405116,0.5655745778556991,,,,,3.3468,11.0054,8.6916,0.0,0.2013,0.005056,0.0,0.974,8.0,,,,,,0.74343,PASS,
123,s07_drive_turn,g000015_c1,15,,,,,,,,,0.3589347688650178,6.372592885840587,,,,,3.3301,10.9813,8.6593,0.0,0.1785,0.005055,0.0,0.976,8.0,,,,,,0.71986,PASS,
124,s07_drive_turn,g000015_c2,15,,,,,,,,,3.009599146256197,0.6988711606059006,,,,,3.3471,11.0079,8.6917,0.0,0.2008,0.005056,0.0,0.974,8.0,,,,,,0.74271,PASS,
125,s07_drive_turn,g000015_c3,15,,,,,,,,,0.8475173905083425,2.226409687107186,,,,,3.3364,11.0044,8.6756,0.0,0.184,0.005056,0.0,0.974,8.0,,,,,,0.71764,PASS,
126,s07_drive_turn,g000015_c4,15,,,,,,,,,0.3504447512122216,4.174072750601766,,,,,3.3252,10.9774,8.6511,0.0,0.1678,0.005055,0.0,0.976,8.0,,,,,,0.70077,PASS,
127,s07_drive_turn,g000015_c5,15,,,,,,,,,1.0081442070831181,2.8559792359353806,,,,,3.3385,11.0049,8.6813,0.0,0.1887,0.005056,0.0,0.974,8.0,,,,,,0.72475,PASS,
128,s07_drive_turn,g000015_c6,15,,,,,,,,,0.22118255136643608,0.7589236511536808,,,,,3.3214,10.9811,8.6414,0.0,0.1552,0.005054,0.0,0.976,8.0,,,,,,0.69409,PASS,
129,s07_drive_turn,g000015_c7,15,,,,,,,,,0.04519912932817407,0.3575202892101618,,,,,3.3197,10.9967,8.6396,0.0,0.1549,0.005054,0.0,0.974,8.0,,,,,,0.82517,PASS,
130,s07_drive_turn,g000016_c0,16,,,,,,,,,0.47054456103453624,4.919802756869853,,,,,3.3316,10.9861,8.6653,0.0,0.1792,0.005055,0.0,0.976,8.0,,,,,,0.71521,PASS,
131,s07_drive_turn,g000016_c1,16,,,,,,,,,0.044353817399817703,3.8278551843650788,,,,,3.3122,10.9642,8.6373,0.0,0.1546,0.005054,0.0,0.976,8.0,,,,,,0.82112,PASS,
132,s07_drive_turn,g000016_c2,16,,,,,,,,,0.14875308267844076,0.5468119609430218,,,,,3.3219,10.9876,8.6414,0.0,0.1552,0.005054,0.0,0.976,8.0,,,,,,0.72039,PASS,
133,s07_drive_turn,g000016_c3,16,,,,,,,,,0.1634545722319232,0.7911254037008543,,,,,3.3204,10.9805,8.6413,0.0,0.1552,0.005054,0.0,0.976,8.0,,,,,,0.71229,PASS,
134,s07_drive_turn,g000016_c4,16,,,,,,,,,1.0674696826806205,2.070483468120565,,,,,3.3379,11.0041,8.6808,0.0,0.1865,0.005056,0.0,0.974,8.0,,,,,,0.72094,PASS,
135,s07_drive_turn,g000016_c5,16,,,,,,,,,0.3197240158489618,2.0686215902271807,,,,,3.3212,10.9789,8.643,0.0,0.1573,0.005055,0.0,0.976,8.0,,,,,,0.68267,PASS,
136,s07_drive_turn,g000016_c6,16,,,,,,,,,0.22887874915088716,0.8203275504158154,,,,,3.3212,10.9841,8.6411,0.0,0.1552,0.005054,0.0,0.976,8.0,,,,,,0.69182,PASS,
137,s07_drive_turn,g000016_c7,16,,,,,,,,,0.10743731090147127,1.7292642953602535,,,,,3.3159,10.9661,8.6403,0.0,0.155,0.005054,0.0,0.976,8.0,,,,,,0.73959,PASS,
138,s07_drive_turn,g000017_c0,17,,,,,,,,,0.2836144610632578,1.7116527213545099,,,,,3.3196,10.9746,8.6407,0.0,0.1553,0.005055,0.0,0.976,8.0,,,,,,0.68176,PASS,
139,s07_drive_turn,g000017_c1,17,,,,,,,,,0.34337716271618884,3.128143827656157,,,,,3.323,10.9757,8.6473,0.0,0.1627,0.005055,0.0,0.976,8.0,,,,,,0.6914,PASS,
140,s07_drive_turn,g000017_c2,17,,,,,,,,,1.0850568327702748,1.3135908732292194,,,,,3.3402,11.005,8.6815,0.0,0.1899,0.005056,0.0,0.974,8.0,,,,,,0.72642,PASS,
141,s07_drive_turn,g000017_c3,17,,,,,,,,,0.813101594554792,1.9070338366719448,,,,,3.3359,11.0003,8.6754,0.0,0.1838,0.005056,0.0,0.974,8.0,,,,,,0.71729,PASS,
142,s07_drive_turn,g000017_c4,17,,,,,,,,,0.2975507854531707,3.4452257991522854,,,,,3.3207,10.9706,8.6436,0.0,0.1582,0.005055,0.0,0.976,8.0,,,,,,0.68652,PASS,
143,s07_drive_turn,g000017_c5,17,,,,,,,,,0.3845268055641248,2.0791766822212927,,,,,3.3233,10.9765,8.647,0.0,0.1621,0.005055,0.0,0.976,8.0,,,,,,0.68798,PASS,
144,s07_drive_turn,g000017_c6,17,,,,,,,,,0.5108326852127753,6.961548219739627,,,,,3.3366,10.9882,8.6743,0.0,0.1909,0.005056,0.0,0.974,8.0,,,,,,0.73416,PASS,
145,s07_drive_turn,g000017_c7,17,,,,,,,,,0.47148045029038427,2.1378105628104604,,,,,3.3274,10.9872,8.6564,0.0,0.168,0.005055,0.0,0.976,8.0,,,,,,0.69559,PASS,
146,s07_drive_turn,g000018_c0,18,,,,,,,,,0.3072379722033541,0.3852609249236,,,,,3.3254,10.9869,8.6431,0.0,0.1558,0.005055,0.0,0.976,8.0,,,,,,0.68429,PASS,
147,s07_drive_turn,g000018_c1,18,,,,,,,,,0.3692918043617617,1.3342808711078358,,,,,3.3232,10.9797,8.645,0.0,0.1593,0.005055,0.0,0.976,8.0,,,,,,0.68362,PASS,
148,s07_drive_turn,g000018_c2,18,,,,,,,,,0.6628958954839711,3.500606200283992,,,,,3.3339,10.9937,8.6723,0.0,0.1818,0.005055,0.0,0.974,8.0,,,,,,0.71559,PASS,
149,s07_drive_turn,g000018_c3,18,,,,,,,,,0.0532226397133599,0.7523698529914404,,,,,3.3135,10.9651,8.64,0.0,0.1548,0.005053,0.0,0.974,8.0,,,,,,0.80265,PASS,
150,s07_drive_turn,g000018_c4,18,,,,,,,,,0.19811607328139003,1.3117676166039307,,,,,3.3189,10.9748,8.6408,0.0,0.1551,0.005054,0.0,0.976,8.0,,,,,,0.69879,PASS,
151,s07_drive_turn,g000018_c5,18,,,,,,,,,0.11395541194299075,1.6033246633908733,,,,,3.3158,10.9635,8.6402,0.0,0.155,0.005054,0.0,0.976,8.0,,,,,,0.73508,PASS,
152,s07_drive_turn,g000018_c6,18,,,,,,,,,0.354763672953369,1.3962089014484138,,,,,3.323,10.9828,8.6442,0.0,0.1588,0.005055,0.0,0.976,8.0,,,,,,0.68345,PASS,
153,s07_drive_turn,g000018_c7,18,,,,,,,,,0.1578687948358201,1.1709868795787046,,,,,3.3187,10.9768,8.6405,0.0,0.155,0.005054,0.0,0.976,8.0,,,,,,0.71302,PASS,
154,s07_drive_turn,g000019_c0,19,,,,,,,,,0.306524408862681,1.937841571554782,,,,,3.3205,10.9759,8.6422,0.0,0.1566,0.005055,0.0,0.976,8.0,,,,,,0.6823,PASS,
155,s07_drive_turn,g000019_c1,19,,,,,,,,,0.3422559320140866,0.9493318417221999,,,,,3.3224,10.9788,8.6429,0.0,0.1572,0.005055,0.0,0.976,8.0,,,,,,0.68144,PASS,
156,s07_drive_turn,g000019_c2,19,,,,,,,,,0.23772187927357288,1.0613545404175828,,,,,3.3202,10.9798,8.6412,0.0,0.1552,0.005054,0.0,0.976,8.0,,,,,,0.68917,PASS,
157,s07_drive_turn,g000019_c3,19,,,,,,,,,0.4929130523569454,0.8841358703760128,,,,,3.3293,10.99,8.6571,0.0,0.1677,0.005055,0.0,0.976,8.0,,,,,,0.69503,PASS,
158,s07_drive_turn,g000019_c4,19,,,,,,,,,0.35171403177411315,2.1929528782205097,,,,,3.322,10.9802,8.6448,0.0,0.1597,0.005055,0.0,0.976,8.0,,,,,,0.68515,PASS,
159,s07_drive_turn,g000019_c5,19,,,,,,,,,0.16585790460108632,1.1540387274305652,,,,,3.319,10.9817,8.6409,0.0,0.1551,0.005054,0.0,0.976,8.0,,,,,,0.7099,PASS,
160,s07_drive_turn,g000019_c6,19,,,,,,,,,0.48282456798108814,1.8863464615981151,,,,,3.3276,10.982,8.6563,0.0,0.1678,0.005055,0.0,0.976,8.0,,,,,,0.69501,PASS,
161,s07_drive_turn,g000019_c7,19,,,,,,,,,0.6925610854046481,2.2825414393950005,,,,,3.3337,10.9972,8.6707,0.0,0.1796,0.005055,0.0,0.974,8.0,,,,,,0.71152,PASS,
162,s07_drive_turn,g000020_c0,20,,,,,,,,,0.25800184315800995,1.9184538283844896,,,,,3.3192,10.9745,8.6406,0.0,0.1551,0.005054,0.0,0.976,8.0,,,,,,0.68442,PASS,
163,s07_drive_turn,g000020_c1,20,,,,,,,,,0.24869223154374448,1.4775099867052042,,,,,3.3194,10.9784,8.6413,0.0,0.1552,0.005054,0.0,0.976,8.0,,,,,,0.68639,PASS,
164,s07_drive_turn,g000020_c2,20,,,,,,,,,0.24386304863893482,2.2744822975538312,,,,,3.3185,10.9747,8.6405,0.0,0.155,0.005054,0.0,0.976,8.0,,,,,,0.6866,PASS,
165,s07_drive_turn,g000020_c3,20,,,,,,,,,0.3813909142417342,1.4081299132788478,,,,,3.3239,10.9811,8.6462,0.0,0.1607,0.005055,0.0,0.976,8.0,,,,,,0.68564,PASS,
166,s07_drive_turn,g000020_c4,20,,,,,,,,,0.3452433105494156,1.1474513160615831,,,,,3.3231,10.9838,8.6442,0.0,0.1582,0.005055,0.0,0.976,8.0,,,,,,0.68301,PASS,
167,s07_drive_turn,g000020_c5,20,,,,,,,,,0.24586162120747196,0.8442553443767905,,,,,3.3211,10.9829,8.6411,0.0,0.1552,0.005054,0.0,0.976,8.0,,,,,,0.68791,PASS,
168,s07_drive_turn,g000020_c6,20,,,,,,,,,0.3562186147224263,0.8105054384805559,,,,,3.3235,10.9799,8.6437,0.0,0.1581,0.005055,0.0,0.976,8.0,,,,,,0.68275,PASS,
169,s07_drive_turn,g000020_c7,20,,,,,,,,,0.44351165064045467,0.9832179456004735,,,,,3.3273,10.9841,8.6529,0.0,0.1651,0.005055,0.0,0.976,8.0,,,,,,0.69168,PASS,
170,s07_drive_turn,g000021_c0,21,,,,,,,,,0.4927990894667313,0.7466578304010365,,,,,3.3296,10.9889,8.6571,0.0,0.1677,0.005055,0.0,0.976,8.0,,,,,,0.69521,PASS,
171,s07_drive_turn,g000021_c1,21,,,,,,,,,0.35224198090885234,1.6585322999627268,,,,,3.3228,10.9782,8.6449,0.0,0.1595,0.005055,0.0,0.976,8.0,,,,,,0.68478,PASS,
172,s07_drive_turn,g000021_c2,21,,,,,,,,,0.17534578979045898,1.0326922871028612,,,,,3.3193,10.9795,8.6411,0.0,0.1551,0.005054,0.0,0.976,8.0,,,,,,0.70678,PASS,
173,s07_drive_turn,g000021_c3,21,,,,,,,,,0.24246712577377136,1.2809714410688116,,,,,3.3196,10.9793,8.6411,0.0,0.1552,0.005054,0.0,0.976,8.0,,,,,,0.68761,PASS,
174,s07_drive_turn,g000021_c4,21,,,,,,,,,0.22371304146312665,1.686665840405918,,,,,3.3188,10.9781,8.6408,0.0,0.1551,0.005054,0.0,0.976,8.0,,,,,,0.69158,PASS,
175,s07_drive_turn,g000021_c5,21,,,,,,,,,0.21345785937541642,1.144158113629688,,,,,3.3196,10.9803,8.6413,0.0,0.1552,0.005054,0.0,0.976,8.0,,,,,,0.69496,PASS,
176,s07_drive_turn,g000021_c6,21,,,,,,,,,0.3962010556807006,1.3894953964180858,,,,,3.3244,10.9799,8.6484,0.0,0.1618,0.005055,0.0,0.976,8.0,,,,,,0.68704,PASS,
177,s07_drive_turn,g000021_c7,21,,,,,,,,,0.30443530247067996,1.774196727016445,,,,,3.3205,10.9769,8.6422,0.0,0.1563,0.005055,0.0,0.976,8.0,,,,,,0.68185,PASS,
178,s07_drive_turn,g000022_c0,22,,,,,,,,,0.25707383728972033,1.327404965741627,,,,,3.3196,10.976,8.6413,0.0,0.1552,0.005054,0.0,0.976,8.0,,,,,,0.68506,PASS,
179,s07_drive_turn,g000022_c1,22,,,,,,,,,0.23483516971695143,1.0173234403252867,,,,,3.3201,10.9761,8.6411,0.0,0.1552,0.005054,0.0,0.976,8.0,,,,,,0.68991,PASS,
180,s07_drive_turn,g000022_c2,22,,,,,,,,,0.33880943711910105,1.2930437194052542,,,,,3.3223,10.9794,8.6432,0.0,0.1576,0.005055,0.0,0.976,8.0,,,,,,0.68218,PASS,
181,s07_drive_turn,g000022_c3,22,,,,,,,,,0.3268728265148546,1.2313184424708705,,,,,3.3212,10.9817,8.6422,0.0,0.1563,0.005055,0.0,0.976,8.0,,,,,,0.68042,PASS,
182,s07_drive_turn,g000022_c4,22,,,,,,,,,0.2612833812888516,1.0941125003773986,,,,,3.3201,10.9776,8.6408,0.0,0.1551,0.005055,0.0,0.976,8.0,,,,,,0.68451,PASS,
183,s07_drive_turn,g000022_c5,22,,,,,,,,,0.24592178727938493,0.9040503820920212,,,,,3.321,10.9776,8.6417,0.0,0.1553,0.005055,0.0,0.976,8.0,,,,,,0.6879,PASS,
184,s07_drive_turn,g000022_c6,22,,,,,,,,,0.3792483346208876,1.3816260539601715,,,,,3.3234,10.9775,8.6456,0.0,0.1601,0.005055,0.0,0.976,8.0,,,,,,0.68469,PASS,
185,s07_drive_turn,g000022_c7,22,,,,,,,,,0.46745621358765715,2.0366829592268094,,,,,3.3278,10.9845,8.6567,0.0,0.1696,0.005055,0.0,0.976,8.0,,,,,,0.69848,PASS,
186,s07_drive_turn,g000023_c0,23,,,,,,,,,0.2577666426974446,1.4384041797395346,,,,,3.3192,10.9756,8.6413,0.0,0.1552,0.005054,0.0,0.976,8.0,,,,,,0.68487,PASS,
187,s07_drive_turn,g000023_c1,23,,,,,,,,,0.18785571682810445,1.0010541018494448,,,,,3.3195,10.9774,8.641,0.0,0.1551,0.005054,0.0,0.976,8.0,,,,,,0.7026,PASS,
188,s07_drive_turn,g000023_c2,23,,,,,,,,,0.28215055990477755,1.4651367397132102,,,,,3.3203,10.9779,8.6413,0.0,0.1552,0.005055,0.0,0.976,8.0,,,,,,0.68183,PASS,
189,s07_drive_turn,g000023_c3,23,,,,,,,,,0.34624306427993096,1.2798529112460557,,,,,3.3222,10.9782,8.6431,0.0,0.1577,0.005055,0.0,0.976,8.0,,,,,,0.68202,PASS,
190,s07_drive_turn,g000023_c4,23,,,,,,,,,0.40802492432750537,1.272607179663533,,,,,3.3252,10.9835,8.6493,0.0,0.1624,0.005055,0.0,0.976,8.0,,,,,,0.68772,PASS,
191,s07_drive_turn,g000023_c5,23,,,,,,,,,0.363476719844794,1.7948143399666558,,,,,3.3228,10.9751,8.6455,0.0,0.1604,0.005055,0.0,0.976,8.0,,,,,,0.68583,PASS,
192,s07_drive_turn,g000023_c6,23,,,,,,,,,0.3536762287599841,1.0151743663686943,,,,,3.3228,10.983,8.6436,0.0,0.1577,0.005055,0.0,0.976,8.0,,,,,,0.68178,PASS,
193,s07_drive_turn,g000023_c7,23,,,,,,,,,0.21004701690935793,1.6794032889968993,,,,,3.3182,10.972,8.6408,0.0,0.1551,0.005054,0.0,0.976,8.0,,,,,,0.69497,PASS,
194,s07_drive_turn,g000024_c0,24,,,,,,,,,0.3015853820033005,1.42837928363785,,,,,3.3204,10.9767,8.6415,0.0,0.1555,0.005055,0.0,0.976,8.0,,,,,,0.68064,PASS,
195,s07_drive_turn,g000024_c1,24,,,,,,,,,0.2720674181020678,1.2766045954832095,,,,,3.32,10.9796,8.6411,0.0,0.1552,0.005055,0.0,0.976,8.0,,,,,,0.683,PASS,
196,s07_drive_turn,g000024_c2,24,,,,,,,,,0.33354050480377506,0.8963512356732254,,,,,3.3221,10.9793,8.6425,0.0,0.1564,0.005055,0.0,0.976,8.0,,,,,,0.68051,PASS,
197,s07_drive_turn,g000024_c3,24,,,,,,,,,0.3666561164210164,1.2833684613314238,,,,,3.3227,10.9742,8.6451,0.0,0.1593,0.005055,0.0,0.976,8.0,,,,,,0.68372,PASS,
198,s07_drive_turn,g000024_c4,24,,,,,,,,,0.24069672849597967,1.2441743942048524,,,,,3.3196,10.9824,8.6407,0.0,0.1551,0.005054,0.0,0.976,8.0,,,,,,0.68791,PASS,
199,s07_drive_turn,g000024_c5,24,,,,,,,,,0.22148054350960078,1.5620783674120227,,,,,3.3188,10.9763,8.6413,0.0,0.1552,0.005054,0.0,0.976,8.0,,,,,,0.69233,PASS,
200,s07_drive_turn,g000024_c6,24,,,,,,,,,0.24035642139188587,1.2064796083989038,,,,,3.3199,10.9753,8.6409,0.0,0.1551,0.005054,0.0,0.976,8.0,,,,,,0.68809,PASS,
201,s07_drive_turn,g000024_c7,24,,,,,,,,,0.29017381524255115,1.314996733385355,,,,,3.3205,10.9821,8.6414,0.0,0.1554,0.005055,0.0,0.976,8.0,,,,,,0.6814,PASS,
202,s07_drive_turn,g000025_c0,25,,,,,,,,,0.27970627447426427,1.218269348384794,,,,,3.3203,10.9772,8.641,0.0,0.1552,0.005055,0.0,0.976,8.0,,,,,,0.68228,PASS,
203,s07_drive_turn,g000025_c1,25,,,,,,,,,0.3570755725657515,1.4350862899471777,,,,,3.3223,10.9751,8.644,0.0,0.1588,0.005055,0.0,0.976,8.0,,,,,,0.68323,PASS,
204,s07_drive_turn,g000025_c2,25,,,,,,,,,0.40170129855593,1.7291124622710392,,,,,3.3243,10.9784,8.6488,0.0,0.1626,0.005055,0.0,0.976,8.0,,,,,,0.68823,PASS,
205,s07_drive_turn,g000025_c3,25,,,,,,,,,0.3034445283776306,1.3278303644337235,,,,,3.3207,10.9793,8.6414,0.0,0.1556,0.005055,0.0,0.976,8.0,,,,,,0.68067,PASS,
206,s07_drive_turn,g000025_c4,25,,,,,,,,,0.2880903754902992,1.3306463767268155,,,,,3.3203,10.9801,8.6411,0.0,0.1553,0.005055,0.0,0.976,8.0,,,,,,0.68153,PASS,
207,s07_drive_turn,g000025_c5,25,,,,,,,,,0.29197366698597593,1.228830478224158,,,,,3.3203,10.9818,8.6408,0.0,0.1553,0.005055,0.0,0.976,8.0,,,,,,0.68108,PASS,
208,s07_drive_turn,g000025_c6,25,,,,,,,,,0.31005058294907045,1.3787768967193348,,,,,3.3205,10.9763,8.6419,0.0,0.1559,0.005055,0.0,0.976,8.0,,,,,,0.6808,PASS,
209,s07_drive_turn,g000025_c7,25,,,,,,,,,0.24129396189876476,1.5195466205795227,,,,,3.3191,10.9756,8.6407,0.0,0.1551,0.005054,0.0,0.976,8.0,,,,,,0.68756,PASS,
210,s07_drive_turn,g000026_c0,26,,,,,,,,,0.28726212839865356,1.002207566855202,,,,,3.3211,10.9796,8.6411,0.0,0.1552,0.005055,0.0,0.976,8.0,,,,,,0.68176,PASS,
211,s07_drive_turn,g000026_c1,26,,,,,,,,,0.27399100589407505,1.031780749535528,,,,,3.3206,10.9817,8.6411,0.0,0.1552,0.005055,0.0,0.976,8.0,,,,,,0.68306,PASS,
212,s07_drive_turn,g000026_c2,26,,,,,,,,,0.3174161307102536,1.3863314892314695,,,,,3.3207,10.9793,8.642,0.0,0.1562,0.005055,0.0,0.976,8.0,,,,,,0.68082,PASS,
213,s07_drive_turn,g000026_c3,26,,,,,,,,,0.35900146218987866,1.4819655663119529,,,,,3.3222,10.9748,8.6443,0.0,0.1589,0.005055,0.0,0.976,8.0,,,,,,0.68337,PASS,
214,s07_drive_turn,g000026_c4,26,,,,,,,,,0.3426815581147462,1.4639035868903478,,,,,3.3219,10.9778,8.6436,0.0,0.1577,0.005055,0.0,0.976,8.0,,,,,,0.68199,PASS,
215,s07_drive_turn,g000026_c5,26,,,,,,,,,0.3435401829111651,1.28955366064978,,,,,3.3219,10.9788,8.6432,0.0,0.1575,0.005055,0.0,0.976,8.0,,,,,,0.68169,PASS,
216,s07_drive_turn,g000026_c6,26,,,,,,,,,0.3498311792831504,1.2717702511432658,,,,,3.3217,10.98,8.6434,0.0,0.1577,0.005055,0.0,0.976,8.0,,,,,,0.68167,PASS,
217,s07_drive_turn,g000026_c7,26,,,,,,,,,0.3305052712307027,1.4009712743588874,,,,,3.3214,10.9774,8.6428,0.0,0.1569,0.005055,0.0,0.976,8.0,,,,,,0.68119,PASS,
218,s07_drive_turn,g000027_c0,27,,,,,,,,,0.32572945243563944,1.4699189366586676,,,,,3.3212,10.9774,8.6427,0.0,0.1569,0.005055,0.0,0.976,8.0,,,,,,0.68147,PASS,
219,s07_drive_turn,g000027_c1,27,,,,,,,,,0.3026137185872351,1.2721809155694126,,,,,3.3208,10.9754,8.6413,0.0,0.1555,0.005055,0.0,0.976,8.0,,,,,,0.68068,PASS,
220,s07_drive_turn,g000027_c2,27,,,,,,,,,0.289068292887436,1.3031340197023187,,,,,3.3205,10.9765,8.6414,0.0,0.1553,0.005055,0.0,0.976,8.0,,,,,,0.6814,PASS,
221,s07_drive_turn,g000027_c3,27,,,,,,,,,0.28785560368493385,1.102447452718408,,,,,3.3209,10.9798,8.6412,0.0,0.1552,0.005055,0.0,0.976,8.0,,,,,,0.68144,PASS,
222,s07_drive_turn,g000027_c4,27,,,,,,,,,0.2740642571491058,1.285725269624934,,,,,3.32,10.9784,8.6413,0.0,0.1552,0.005055,0.0,0.976,8.0,,,,,,0.6827,PASS,
223,s07_drive_turn,g000027_c5,27,,,,,,,,,0.28557722802764307,1.3917964514350645,,,,,3.3201,10.975,8.6413,0.0,0.1552,0.005055,0.0,0.976,8.0,,,,,,0.68151,PASS,
224,s07_drive_turn,g000027_c6,27,,,,,,,,,0.29640547974115694,1.41855676786435,,,,,3.3202,10.9777,8.6412,0.0,0.1554,0.005055,0.0,0.976,8.0,,,,,,0.68077,PASS,
225,s07_drive_turn,g000027_c7,27,,,,,,,,,0.3397831282542408,1.2832923502524058,,,,,3.3219,10.9807,8.6434,0.0,0.1577,0.005055,0.0,0.976,8.0,,,,,,0.68214,PASS,
226,s07_drive_turn,g000028_c0,28,,,,,,,,,0.29186529146439755,1.1736514841195311,,,,,3.3207,10.9805,8.6415,0.0,0.1553,0.005055,0.0,0.976,8.0,,,,,,0.68127,PASS,
227,s07_drive_turn,g000028_c1,28,,,,,,,,,0.3198089646588835,1.3971734688356952,,,,,3.321,10.978,8.6421,0.0,0.1563,0.005055,0.0,0.976,8.0,,,,,,0.68085,PASS,
228,s07_drive_turn,g000028_c2,28,,,,,,,,,0.2596156854546191,1.0285110532919464,,,,,3.3207,10.9809,8.6409,0.0,0.1551,0.005055,0.0,0.976,8.0,,,,,,0.68502,PASS,
229,s07_drive_turn,g000028_c3,28,,,,,,,,,0.3298815851607262,1.3461569756349352,,,,,3.3213,10.9753,8.6427,0.0,0.1569,0.005055,0.0,0.976,8.0,,,,,,0.68118,PASS,
230,s07_drive_turn,g000028_c4,28,,,,,,,,,0.332113008013483,1.0518243104641283,,,,,3.3222,10.9805,8.6425,0.0,0.1564,0.005055,0.0,0.976,8.0,,,,,,0.68052,PASS,
231,s07_drive_turn,g000028_c5,28,,,,,,,,,0.34225055869573545,1.3913057051701998,,,,,3.3216,10.9813,8.6429,0.0,0.157,0.005055,0.0,0.976,8.0,,,,,,0.68076,PASS,
232,s07_drive_turn,g000028_c6,28,,,,,,,,,0.3106225387749342,1.3480344824029358,,,,,3.3205,10.9758,8.6415,0.0,0.1557,0.005055,0.0,0.976,8.0,,,,,,0.68035,PASS,
233,s07_drive_turn,g000028_c7,28,,,,,,,,,0.3233854730884715,1.6370868753756223,,,,,3.3213,10.9776,8.6429,0.0,0.1569,0.005055,0.0,0.976,8.0,,,,,,0.68163,PASS,
234,s07_drive_turn,g000029_c0,29,,,,,,,,,0.29422805555804094,1.415747064968505,,,,,3.3203,10.9806,8.6415,0.0,0.1556,0.005055,0.0,0.976,8.0,,,,,,0.68138,PASS,
235,s07_drive_turn,g000029_c1,29,,,,,,,,,0.3068536562578923,1.356499175452874,,,,,3.3209,10.9782,8.6419,0.0,0.1559,0.005055,0.0,0.976,8.0,,,,,,0.68099,PASS,
236,s07_drive_turn,g000029_c2,29,,,,,,,,,0.3054446143629281,1.3445540652243078,,,,,3.3205,10.9787,8.6416,0.0,0.1556,0.005055,0.0,0.976,8.0,,,,,,0.6805,PASS,
237,s07_drive_turn,g000029_c3,29,,,,,,,,,0.2941770631516403,1.2080243615654012,,,,,3.3208,10.9819,8.6412,0.0,0.1553,0.005055,0.0,0.976,8.0,,,,,,0.68098,PASS,
238,s07_drive_turn,g000029_c4,29,,,,,,,,,0.3386778867328013,1.3586920736876416,,,,,3.3217,10.9762,8.6427,0.0,0.1572,0.005055,0.0,0.976,8.0,,,,,,0.68137,PASS,
239,s07_drive_turn,g000029_c5,29,,,,,,,,,0.3073361114451733,1.3539663754078635,,,,,3.3207,10.9791,8.642,0.0,0.1557,0.005055,0.0,0.976,8.0,,,,,,0.68067,PASS,
240,s07_drive_turn,g000029_c6,29,,,,,,,,,0.3164184620780823,1.381999784496702,,,,,3.3211,10.9776,8.6421,0.0,0.1562,0.005055,0.0,0.976,8.0,,,,,,0.68086,PASS,
241,s07_drive_turn,g000029_c7,29,,,,,,,,,0.302927752307461,1.4116617628576684,,,,,3.3204,10.9779,8.6415,0.0,0.1557,0.005055,0.0,0.976,8.0,,,,,,0.68094,PASS,
242,s07_drive_turn,g000030_c0,30,,,,,,,,,0.302602208486576,1.4005552628392557,,,,,3.3203,10.9748,8.6416,0.0,0.1557,0.005055,0.0,0.976,8.0,,,,,,0.68093,PASS,
243,s07_drive_turn,g000030_c1,30,,,,,,,,,0.30312236461900055,1.3208344589865477,,,,,3.3206,10.9771,8.6415,0.0,0.1556,0.005055,0.0,0.976,8.0,,,,,,0.68066,PASS,
244,s07_drive_turn,g000030_c2,30,,,,,,,,,0.3017948510853964,1.3319800268227198,,,,,3.3209,10.9792,8.6418,0.0,0.1558,0.005055,0.0,0.976,8.0,,,,,,0.68129,PASS,
245,s07_drive_turn,g000030_c3,30,,,,,,,,,0.28278662535412813,1.2877279114253781,,,,,3.3204,10.9816,8.6412,0.0,0.1552,0.005055,0.0,0.976,8.0,,,,,,0.68184,PASS,
246,s07_drive_turn,g000030_c4,30,,,,,,,,,0.2992943981133073,1.3755397604893826,,,,,3.3204,10.9818,8.6412,0.0,0.1554,0.005055,0.0,0.976,8.0,,,,,,0.68064,PASS,
247,s07_drive_turn,g000030_c5,30,,,,,,,,,0.28649508503323506,1.2879388181860405,,,,,3.3205,10.9838,8.6413,0.0,0.1554,0.005055,0.0,0.976,8.0,,,,,,0.68185,PASS,
248,s07_drive_turn,g000030_c6,30,,,,,,,,,0.30168466069117367,1.2871280934083258,,,,,3.3211,10.9799,8.6414,0.0,0.1556,0.005055,0.0,0.976,8.0,,,,,,0.68086,PASS,
249,s07_drive_turn,g000030_c7,30,,,,,,,,,0.32345661919146756,1.3335795695403927,,,,,3.321,10.9806,8.642,0.0,0.1566,0.005055,0.0,0.976,8.0,,,,,,0.68115,PASS,
250,s07_drive_turn,g000031_c0,31,,,,,,,,,0.315527745682745,1.2386062864537206,,,,,3.321,10.9812,8.6422,0.0,0.1562,0.005055,0.0,0.976,8.0,,,,,,0.681,PASS,
251,s07_drive_turn,g000031_c1,31,,,,,,,,,0.3249039618500244,1.3581626113478076,,,,,3.3212,10.9791,8.6426,0.0,0.1569,0.005055,0.0,0.976,8.0,,,,,,0.68162,PASS,
252,s07_drive_turn,g000031_c2,31,,,,,,,,,0.32802859349108504,1.3821237134449336,,,,,3.322,10.9833,8.6431,0.0,0.1571,0.005055,0.0,0.976,8.0,,,,,,0.6817,PASS,
253,s07_drive_turn,g000031_c3,31,,,,,,,,,0.3228231500348307,1.43256601653428,,,,,3.3208,10.9792,8.6422,0.0,0.1565,0.005055,0.0,0.976,8.0,,,,,,0.68098,PASS,
254,s07_drive_turn,g000031_c4,31,,,,,,,,,0.2960534019857015,1.2812270875304919,,,,,3.3203,10.9788,8.6412,0.0,0.1554,0.005055,0.0,0.976,8.0,,,,,,0.68093,PASS,
255,s07_drive_turn,g000031_c5,31,,,,,,,,,0.3200017048639469,1.343110291735454,,,,,3.3212,10.9797,8.6421,0.0,0.156,0.005055,0.0,0.976,8.0,,,,,,0.68027,PASS,
256,s07_drive_turn,g000031_c6,31,,,,,,,,,0.2927181671721954,1.2894332991435928,,,,,3.3208,10.9829,8.6415,0.0,0.1554,0.005055,0.0,0.976,8.0,,,,,,0.68128,PASS,
257,s07_drive_turn,g000031_c7,31,,,,,,,,,0.3178412102682645,1.3262509311208142,,,,,3.3206,10.9766,8.6416,0.0,0.1561,0.005055,0.0,0.976,8.0,,,,,,0.68051,PASS,
258,s07_drive_turn,g000032_c0,32,,,,,,,,,0.30490032337958023,1.314733087924615,,,,,3.3207,10.9808,8.6414,0.0,0.1556,0.005055,0.0,0.976,8.0,,,,,,0.68052,PASS,
259,s07_drive_turn,g000032_c1,32,,,,,,,,,0.33477532088261497,1.4138002032035328,,,,,3.321,10.9784,8.6421,0.0,0.1566,0.005055,0.0,0.976,8.0,,,,,,0.6804,PASS,
260,s07_drive_turn,g000032_c2,32,,,,,,,,,0.32230244131536184,1.319629342025535,,,,,3.3215,10.982,8.6424,0.0,0.1564,0.005055,0.0,0.976,8.0,,,,,,0.6809,PASS,
261,s07_drive_turn,g000032_c3,32,,,,,,,,,0.32951815852862004,1.3093305147403402,,,,,3.3213,10.9752,8.6428,0.0,0.1573,0.005055,0.0,0.976,8.0,,,,,,0.68208,PASS,
262,s07_drive_turn,g000032_c4,32,,,,,,,,,0.32043464150362955,1.4301835833587786,,,,,3.321,10.9766,8.6418,0.0,0.1561,0.005055,0.0,0.976,8.0,,,,,,0.6804,PASS,
263,s07_drive_turn,g000032_c5,32,,,,,,,,,0.32441468190477224,1.3990239211324207,,,,,3.321,10.9754,8.6423,0.0,0.1564,0.005055,0.0,0.976,8.0,,,,,,0.6807,PASS,
264,s07_drive_turn,g000032_c6,32,,,,,,,,,0.31629286935731915,1.4089906036616129,,,,,3.3208,10.978,8.6418,0.0,0.1559,0.005055,0.0,0.976,8.0,,,,,,0.68023,PASS,
265,s07_drive_turn,g000032_c7,32,,,,,,,,,0.3290353561579794,1.3655356937588619,,,,,3.3216,10.982,8.6428,0.0,0.1568,0.005055,0.0,0.976,8.0,,,,,,0.68121,PASS,
266,s07_drive_turn,g000033_c0,33,,,,,,,,,0.3199085041302458,1.4191510919902028,,,,,3.321,10.9785,8.642,0.0,0.1565,0.005055,0.0,0.976,8.0,,,,,,0.68115,PASS,
267,s07_drive_turn,g000033_c1,33,,,,,,,,,0.30648306485643195,1.3606716769371903,,,,,3.3208,10.9815,8.6421,0.0,0.1557,0.005055,0.0,0.976,8.0,,,,,,0.68068,PASS,
268,s07_drive_turn,g000033_c2,33,,,,,,,,,0.33146759713997875,1.3788313541667037,,,,,3.3216,10.9823,8.6433,0.0,0.1573,0.005055,0.0,0.976,8.0,,,,,,0.68196,PASS,
269,s07_drive_turn,g000033_c3,33,,,,,,,,,0.3096321832246427,1.4010167919717882,,,,,3.3204,10.9746,8.6413,0.0,0.1557,0.005055,0.0,0.976,8.0,,,,,,0.68034,PASS,
270,s07_drive_turn,g000033_c4,33,,,,,,,,,0.3109849255750024,1.350248043436674,,,,,3.3205,10.975,8.6417,0.0,0.1561,0.005055,0.0,0.976,8.0,,,,,,0.6811,PASS,
271,s07_drive_turn,g000033_c5,33,,,,,,,,,0.3112677068517685,1.4706321428290163,,,,,3.3206,10.979,8.6421,0.0,0.1562,0.005055,0.0,0.976,8.0,,,,,,0.68126,PASS,
272,s07_drive_turn,g000033_c6,33,,,,,,,,,0.2991355573795752,1.3781119606512635,,,,,3.3204,10.977,8.6414,0.0,0.1556,0.005055,0.0,0.976,8.0,,,,,,0.68094,PASS,
273,s07_drive_turn,g000033_c7,33,,,,,,,,,0.32566700286629036,1.4737826832868448,,,,,3.3211,10.9776,8.6425,0.0,0.1567,0.005055,0.0,0.976,8.0,,,,,,0.68116,PASS,
274,s07_drive_turn,g000034_c0,34,,,,,,,,,0.3404110192208326,1.4866986685637795,,,,,3.3222,10.9811,8.6433,0.0,0.1578,0.005055,0.0,0.976,8.0,,,,,,0.68232,PASS,
275,s07_drive_turn,g000034_c1,34,,,,,,,,,0.35433460213451906,1.4428267671717103,,,,,3.3222,10.9762,8.6442,0.0,0.1588,0.005055,0.0,0.976,8.0,,,,,,0.68337,PASS,
276,s07_drive_turn,g000034_c2,34,,,,,,,,,0.3086028567381891,1.498791162042649,,,,,3.3203,10.9749,8.6413,0.0,0.1557,0.005055,0.0,0.976,8.0,,,,,,0.68048,PASS,
277,s07_drive_turn,g000034_c3,34,,,,,,,,,0.3314463031151152,1.48051048912648,,,,,3.3217,10.982,8.6432,0.0,0.1574,0.005055,0.0,0.976,8.0,,,,,,0.68212,PASS,
278,s07_drive_turn,g000034_c4,34,,,,,,,,,0.342384863992652,1.4782723855448556,,,,,3.3218,10.9797,8.6436,0.0,0.1583,0.005055,0.0,0.976,8.0,,,,,,0.68303,PASS,
279,s07_drive_turn,g000034_c5,34,,,,,,,,,0.32174035027102704,1.4370749865181895,,,,,3.3207,10.976,8.6425,0.0,0.1568,0.005055,0.0,0.976,8.0,,,,,,0.68157,PASS,
280,s07_drive_turn,g000034_c6,34,,,,,,,,,0.3196052532491351,1.4162366272727878,,,,,3.3212,10.9799,8.6428,0.0,0.1565,0.005055,0.0,0.976,8.0,,,,,,0.68117,PASS,
281,s07_drive_turn,g000034_c7,34,,,,,,,,,0.3256517397366785,1.335602803952757,,,,,3.3211,10.9755,8.6422,0.0,0.1564,0.005055,0.0,0.976,8.0,,,,,,0.68071,PASS,
282,s07_drive_turn,g000035_c0,35,,,,,,,,,0.32383954963993383,1.391714278555535,,,,,3.3216,10.9816,8.6426,0.0,0.1564,0.005055,0.0,0.976,8.0,,,,,,0.68076,PASS,
283,s07_drive_turn,g000035_c1,35,,,,,,,,,0.29915920178544875,1.28211058896072,,,,,3.3206,10.9849,8.6412,0.0,0.1554,0.005055,0.0,0.976,8.0,,,,,,0.68066,PASS,
284,s07_drive_turn,g000035_c2,35,,,,,,,,,0.31176992521134256,1.4397971853147193,,,,,3.321,10.9774,8.642,0.0,0.1561,0.005055,0.0,0.976,8.0,,,,,,0.681,PASS,
285,s07_drive_turn,g000035_c3,35,,,,,,,,,0.33752189116759346,1.4884723551367567,,,,,3.3216,10.9801,8.6434,0.0,0.1577,0.005055,0.0,0.976,8.0,,,,,,0.68226,PASS,
286,s07_drive_turn,g000035_c4,35,,,,,,,,,0.2990983684179968,1.2783276173169946,,,,,3.3208,10.9847,8.6414,0.0,0.1555,0.005055,0.0,0.976,8.0,,,,,,0.68083,PASS,
287,s07_drive_turn,g000035_c5,35,,,,,,,,,0.36016826859501505,1.4600087722523734,,,,,3.3227,10.9795,8.6444,0.0,0.1589,0.005055,0.0,0.976,8.0,,,,,,0.68342,PASS,
288,s07_drive_turn,g000035_c6,35,,,,,,,,,0.2933342278063281,1.3810293370680844,,,,,3.3203,10.9756,8.6415,0.0,0.1554,0.005055,0.0,0.976,8.0,,,,,,0.68108,PASS,
289,s07_drive_turn,g000035_c7,35,,,,,,,,,0.32493872500100457,1.6313883046628574,,,,,3.3212,10.9741,8.6431,0.0,0.1572,0.005055,0.0,0.976,8.0,,,,,,0.68207,PASS,
290,s07_drive_turn,g000036_c0,36,,,,,,,,,0.32686591437976725,1.3072243127782113,,,,,3.3213,10.9793,8.6429,0.0,0.1568,0.005055,0.0,0.976,8.0,,,,,,0.68133,PASS,
291,s07_drive_turn,g000036_c1,36,,,,,,,,,0.3205627198352443,1.2867449800956547,,,,,3.3207,10.9768,8.6426,0.0,0.1565,0.005055,0.0,0.976,8.0,,,,,,0.68112,PASS,
292,s07_drive_turn,g000036_c2,36,,,,,,,,,0.29410847657150335,1.4632993546853612,,,,,3.3205,10.9777,8.6413,0.0,0.1556,0.005055,0.0,0.976,8.0,,,,,,0.6814,PASS,
293,s07_drive_turn,g000036_c3,36,,,,,,,,,0.3016015504829166,1.450752842130696,,,,,3.3206,10.9757,8.6414,0.0,0.1557,0.005055,0.0,0.976,8.0,,,,,,0.68096,PASS,
294,s07_drive_turn,g000036_c4,36,,,,,,,,,0.3158323353166664,1.430302604763307,,,,,3.3214,10.9781,8.6422,0.0,0.1562,0.005055,0.0,0.976,8.0,,,,,,0.68089,PASS,
295,s07_drive_turn,g000036_c5,36,,,,,,,,,0.3313351792275722,1.2750523133667004,,,,,3.322,10.9786,8.6427,0.0,0.1568,0.005055,0.0,0.976,8.0,,,,,,0.6811,PASS,
296,s07_drive_turn,g000036_c6,36,,,,,,,,,0.27797699543787874,1.3264575279456918,,,,,3.3199,10.9774,8.6412,0.0,0.1552,0.005055,0.0,0.976,8.0,,,,,,0.68224,PASS,
297,s07_drive_turn,g000036_c7,36,,,,,,,,,0.3364664112362808,1.317612644125728,,,,,3.3219,10.9805,8.6427,0.0,0.1571,0.005055,0.0,0.976,8.0,,,,,,0.68124,PASS,
298,s07_drive_turn,g000037_c0,37,,,,,,,,,0.3002971138939865,1.440680923938939,,,,,3.3202,10.9797,8.6415,0.0,0.1554,0.005055,0.0,0.976,8.0,,,,,,0.68047,PASS,
299,s07_drive_turn,g000037_c1,37,,,,,,,,,0.3052147403563584,1.266736463266863,,,,,3.3205,10.9751,8.6418,0.0,0.1557,0.005055,0.0,0.976,8.0,,,,,,0.6808,PASS,
300,s07_drive_turn,g000037_c2,37,,,,,,,,,0.3264955559006362,1.4871583125345134,,,,,3.3214,10.9765,8.6426,0.0,0.157,0.005055,0.0,0.976,8.0,,,,,,0.68164,PASS,
301,s07_drive_turn,g000037_c3,37,,,,,,,,,0.3422397213881289,1.4206284598171448,,,,,3.322,10.9811,8.6434,0.0,0.1578,0.005055,0.0,0.976,8.0,,,,,,0.6823,PASS,
302,s07_drive_turn,g000037_c4,37,,,,,,,,,0.29866558145340033,1.4160638642700991,,,,,3.3207,10.9778,8.6415,0.0,0.1556,0.005055,0.0,0.976,8.0,,,,,,0.68097,PASS,
303,s07_drive_turn,g000037_c5,37,,,,,,,,,0.29891919620026014,1.4170503715457152,,,,,3.3201,10.974,8.6409,0.0,0.1554,0.005055,0.0,0.976,8.0,,,,,,0.68061,PASS,
304,s07_drive_turn,g000037_c6,37,,,,,,,,,0.2836229401935976,1.311867392119233,,,,,3.3202,10.9805,8.6413,0.0,0.1553,0.005055,0.0,0.976,8.0,,,,,,0.68197,PASS,
305,s07_drive_turn,g000037_c7,37,,,,,,,,,0.3121124010752529,1.5627412833576293,,,,,3.3205,10.982,8.6416,0.0,0.1558,0.005055,0.0,0.976,8.0,,,,,,0.68035,PASS,
306,s07_drive_turn,g000038_c0,38,,,,,,,,,0.25965385636688204,1.37584442692154,,,,,3.3197,10.9744,8.6411,0.0,0.1551,0.005055,0.0,0.976,8.0,,,,,,0.68447,PASS,
307,s07_drive_turn,g000038_c1,38,,,,,,,,,0.2827055953973125,1.4643082980658966,,,,,3.3199,10.9772,8.6408,0.0,0.1552,0.005055,0.0,0.976,8.0,,,,,,0.68179,PASS,
308,s07_drive_turn,g000038_c2,38,,,,,,,,,0.3061436532581253,1.382674395469344,,,,,3.3207,10.9793,8.6414,0.0,0.1557,0.005055,0.0,0.976,8.0,,,,,,0.68067,PASS,
309,s07_drive_turn,g000038_c3,38,,,,,,,,,0.3215404161289294,1.7125080363637715,,,,,3.3207,10.9758,8.6423,0.0,0.1564,0.005055,0.0,0.976,8.0,,,,,,0.68082,PASS,
310,s07_drive_turn,g000038_c4,38,,,,,,,,,0.3554287632216107,1.2673177598794276,,,,,3.3229,10.9797,8.6442,0.0,0.1588,0.005055,0.0,0.976,8.0,,,,,,0.68344,PASS,
311,s07_drive_turn,g000038_c5,38,,,,,,,,,0.30754687832831495,1.3038756534684028,,,,,3.3209,10.9791,8.6419,0.0,0.1558,0.005055,0.0,0.976,8.0,,,,,,0.68084,PASS,
312,s07_drive_turn,g000038_c6,38,,,,,,,,,0.25489225250547504,1.457714957249286,,,,,3.3195,10.9812,8.6412,0.0,0.1551,0.005054,0.0,0.976,8.0,,,,,,0.6852,PASS,
313,s07_drive_turn,g000038_c7,38,,,,,,,,,0.34444607461043836,1.2264977300825424,,,,,3.3223,10.9814,8.6433,0.0,0.1576,0.005055,0.0,0.976,8.0,,,,,,0.68188,PASS,
314,s07_drive_turn,g000039_c0,39,,,,,,,,,0.31278625707636387,1.5123934982757412,,,,,3.3205,10.977,8.6421,0.0,0.1563,0.005055,0.0,0.976,8.0,,,,,,0.68125,PASS,
315,s07_drive_turn,g000039_c1,39,,,,,,,,,0.27570657766412743,1.3459093927481205,,,,,3.3202,10.9813,8.6415,0.0,0.1553,0.005055,0.0,0.976,8.0,,,,,,0.68272,PASS,
316,s07_drive_turn,g000039_c2,39,,,,,,,,,0.35751086125596876,1.376230592089153,,,,,3.3226,10.976,8.644,0.0,0.1586,0.005055,0.0,0.976,8.0,,,,,,0.68296,PASS,
317,s07_drive_turn,g000039_c3,39,,,,,,,,,0.35546300980050805,1.5967710355499292,,,,,3.3224,10.9803,8.6444,0.0,0.159,0.005055,0.0,0.976,8.0,,,,,,0.68369,PASS,
318,s07_drive_turn,g000039_c4,39,,,,,,,,,0.33537318659441373,1.4142373597251063,,,,,3.3219,10.9788,8.6434,0.0,0.1577,0.005055,0.0,0.976,8.0,,,,,,0.68244,PASS,
319,s07_drive_turn,g000039_c5,39,,,,,,,,,0.3113474603125402,1.4313911372849255,,,,,3.3205,10.9793,8.6418,0.0,0.1559,0.005055,0.0,0.976,8.0,,,,,,0.68065,PASS,
320,s07_drive_turn,g000039_c6,39,,,,,,,,,0.2961407228698726,1.6204874815518562,,,,,3.3202,10.9769,8.6418,0.0,0.1557,0.005055,0.0,0.976,8.0,,,,,,0.68137,PASS,
321,s07_drive_turn,g000039_c7,39,,,,,,,,,0.3995801493631005,1.5606444404853377,,,,,3.3247,10.9798,8.6491,0.0,0.1627,0.005055,0.0,0.976,8.0,,,,,,0.68857,PASS,
322,s07_drive_turn,g000040_c0,40,,,,,,,,,0.3136586879502981,1.2864444083672746,,,,,3.3212,10.9773,8.6416,0.0,0.1558,0.005055,0.0,0.976,8.0,,,,,,0.68042,PASS,
323,s07_drive_turn,g000040_c1,40,,,,,,,,,0.3079545180921008,1.4612223066220926,,,,,3.3205,10.9748,8.6415,0.0,0.1557,0.005055,0.0,0.976,8.0,,,,,,0.6805,PASS,
324,s07_drive_turn,g000040_c2,40,,,,,,,,,0.35012007837479736,1.3799335514298028,,,,,3.3227,10.9838,8.6439,0.0,0.1582,0.005055,0.0,0.976,8.0,,,,,,0.68267,PASS,
325,s07_drive_turn,g000040_c3,40,,,,,,,,,0.29608144957747934,1.336722507635091,,,,,3.3202,10.9741,8.6412,0.0,0.1554,0.005055,0.0,0.976,8.0,,,,,,0.68077,PASS,
326,s07_drive_turn,g000040_c4,40,,,,,,,,,0.31559529199122155,1.2942086479804498,,,,,3.3209,10.9776,8.6419,0.0,0.1558,0.005055,0.0,0.976,8.0,,,,,,0.68024,PASS,
327,s07_drive_turn,g000040_c5,40,,,,,,,,,0.35220917614587477,1.3203584933476986,,,,,3.3224,10.9786,8.6442,0.0,0.1581,0.005055,0.0,0.976,8.0,,,,,,0.68234,PASS,
328,s07_drive_turn,g000040_c6,40,,,,,,,,,0.3046637875856505,1.3340345917284921,,,,,3.3204,10.9782,8.6413,0.0,0.1555,0.005055,0.0,0.976,8.0,,,,,,0.68034,PASS,
329,s07_drive_turn,g000040_c7,40,,,,,,,,,0.3477784640667664,1.343931952423194,,,,,3.3227,10.9778,8.6442,0.0,0.1588,0.005055,0.0,0.976,8.0,,,,,,0.68387,PASS,
330,s07_drive_turn,g000041_c0,41,,,,,,,,,0.3031630398763325,1.4905406249147306,,,,,3.3201,10.9756,8.6417,0.0,0.1557,0.005055,0.0,0.976,8.0,,,,,,0.68076,PASS,
331,s07_drive_turn,g000041_c1,41,,,,,,,,,0.3226558976380587,1.3859297578179548,,,,,3.3214,10.9776,8.6425,0.0,0.1567,0.005055,0.0,0.976,8.0,,,,,,0.68134,PASS,
332,s07_drive_turn,g000041_c2,41,,,,,,,,,0.32769103367967756,1.3772520998852824,,,,,3.3217,10.985,8.6425,0.0,0.1565,0.005055,0.0,0.976,8.0,,,,,,0.68062,PASS,
333,s07_drive_turn,g000041_c3,41,,,,,,,,,0.34819850621946596,1.4470316979755844,,,,,3.3224,10.9822,8.6436,0.0,0.1584,0.005055,0.0,0.976,8.0,,,,,,0.68309,PASS,
334,s07_drive_turn,g000041_c4,41,,,,,,,,,0.3261891241601841,1.5349132071109832,,,,,3.3209,10.976,8.6424,0.0,0.1568,0.005055,0.0,0.976,8.0,,,,,,0.68129,PASS,
335,s07_drive_turn,g000041_c5,41,,,,,,,,,0.31074996401604243,1.6062535187457077,,,,,3.3207,10.9825,8.642,0.0,0.156,0.005055,0.0,0.976,8.0,,,,,,0.68082,PASS,
336,s07_drive_turn,g000041_c6,41,,,,,,,,,0.34212580782390745,1.4201969138610142,,,,,3.3214,10.9756,8.6428,0.0,0.1575,0.005055,0.0,0.976,8.0,,,,,,0.68164,PASS,
337,s07_drive_turn,g000041_c7,41,,,,,,,,,0.32047921521157546,1.4762707221495184,,,,,3.3208,10.9763,8.6421,0.0,0.1565,0.005055,0.0,0.976,8.0,,,,,,0.68113,PASS,
338,s07_drive_turn,g000042_c0,42,,,,,,,,,0.33214542493096516,1.4250184770332774,,,,,3.3215,10.9811,8.643,0.0,0.1571,0.005055,0.0,0.976,8.0,,,,,,0.6815,PASS,
339,s07_drive_turn,g000042_c1,42,,,,,,,,,0.3075595490174423,1.4480337066964621,,,,,3.3207,10.9807,8.6416,0.0,0.1558,0.005055,0.0,0.976,8.0,,,,,,0.68067,PASS,
340,s07_drive_turn,g000042_c2,42,,,,,,,,,0.3325529916887237,1.4298024195248473,,,,,3.3213,10.9782,8.6429,0.0,0.1571,0.005055,0.0,0.976,8.0,,,,,,0.68133,PASS,
341,s07_drive_turn,g000042_c3,42,,,,,,,,,0.324238462881312,1.3765332085978914,,,,,3.3216,10.9798,8.6425,0.0,0.1568,0.005055,0.0,0.976,8.0,,,,,,0.68151,PASS,
342,s07_drive_turn,g000042_c4,42,,,,,,,,,0.3171575665698657,1.336692722989637,,,,,3.3216,10.9808,8.6424,0.0,0.1565,0.005055,0.0,0.976,8.0,,,,,,0.68151,PASS,
343,s07_drive_turn,g000042_c5,42,,,,,,,,,0.30239903123182604,1.4073586466746406,,,,,3.321,10.9802,8.6417,0.0,0.1556,0.005055,0.0,0.976,8.0,,,,,,0.6807,PASS,
344,s07_drive_turn,g000042_c6,42,,,,,,,,,0.3205765891798652,1.4213260672223471,,,,,3.3208,10.9799,8.6421,0.0,0.1565,0.005055,0.0,0.976,8.0,,,,,,0.68113,PASS,
345,s07_drive_turn,g000042_c7,42,,,,,,,,,0.3179583471671289,1.3166696024198783,,,,,3.3212,10.9818,8.6423,0.0,0.1562,0.005055,0.0,0.976,8.0,,,,,,0.68087,PASS,
346,s07_drive_turn,g000043_c0,43,,,,,,,,,0.309900699336175,1.4957328509938428,,,,,3.3202,10.98,8.6417,0.0,0.1559,0.005055,0.0,0.976,8.0,,,,,,0.68062,PASS,
347,s07_drive_turn,g000043_c1,43,,,,,,,,,0.315229407169612,1.3482403579385167,,,,,3.321,10.9821,8.642,0.0,0.1561,0.005055,0.0,0.976,8.0,,,,,,0.68085,PASS,
348,s07_drive_turn,g000043_c2,43,,,,,,,,,0.3001567064535801,1.5316751772308554,,,,,3.32,10.9758,8.6413,0.0,0.1557,0.005055,0.0,0.976,8.0,,,,,,0.68105,PASS,
349,s07_drive_turn,g000043_c3,43,,,,,,,,,0.32279218576802665,1.4861171936002233,,,,,3.321,10.9801,8.6424,0.0,0.1564,0.005055,0.0,0.976,8.0,,,,,,0.6807,PASS,
350,s07_drive_turn,g000043_c4,43,,,,,,,,,0.2778597765607759,1.5013962713522016,,,,,3.3202,10.9782,8.6411,0.0,0.1552,0.005055,0.0,0.976,8.0,,,,,,0.68227,PASS,
351,s07_drive_turn,g000043_c5,43,,,,,,,,,0.32164945313327487,1.4607705605141816,,,,,3.321,10.979,8.6427,0.0,0.1565,0.005055,0.0,0.976,8.0,,,,,,0.681,PASS,
352,s07_drive_turn,g000043_c6,43,,,,,,,,,0.3092507428253364,1.525731342234429,,,,,3.3206,10.9788,8.642,0.0,0.1561,0.005055,0.0,0.976,8.0,,,,,,0.68111,PASS,
353,s07_drive_turn,g000043_c7,43,,,,,,,,,0.33732807487455735,1.3793101638518215,,,,,3.3216,10.9774,8.6431,0.0,0.1578,0.005055,0.0,0.976,8.0,,,,,,0.68256,PASS,
354,s07_drive_turn,g000044_c0,44,,,,,,,,,0.2899684824575671,1.4604638282712468,,,,,3.32,10.978,8.6413,0.0,0.1554,0.005055,0.0,0.976,8.0,,,,,,0.68135,PASS,
355,s07_drive_turn,g000044_c1,44,,,,,,,,,0.2962213039985772,1.4024134834110682,,,,,3.3203,10.9775,8.6413,0.0,0.1555,0.005055,0.0,0.976,8.0,,,,,,0.68093,PASS,
356,s07_drive_turn,g000044_c2,44,,,,,,,,,0.3229879883911781,1.405844440998284,,,,,3.3207,10.9759,8.6424,0.0,0.1564,0.005055,0.0,0.976,8.0,,,,,,0.68067,PASS,
357,s07_drive_turn,g000044_c3,44,,,,,,,,,0.30820878327364676,1.370976728734395,,,,,3.3206,10.978,8.6417,0.0,0.1559,0.005055,0.0,0.976,8.0,,,,,,0.68081,PASS,
358,s07_drive_turn,g000044_c4,44,,,,,,,,,0.3225658845655411,1.4016366103455977,,,,,3.3212,10.9819,8.6423,0.0,0.1561,0.005055,0.0,0.976,8.0,,,,,,0.68027,PASS,
359,s07_drive_turn,g000044_c5,44,,,,,,,,,0.3001096922019368,1.3914970678347218,,,,,3.3202,10.9809,8.6414,0.0,0.1555,0.005055,0.0,0.976,8.0,,,,,,0.68062,PASS,
360,s07_drive_turn,g000044_c6,44,,,,,,,,,0.328435014525195,1.4828647357949443,,,,,3.3215,10.9834,8.6427,0.0,0.1567,0.005055,0.0,0.976,8.0,,,,,,0.68105,PASS,
361,s07_drive_turn,g000044_c7,44,,,,,,,,,0.32322382345275547,1.3760631404874486,,,,,3.3212,10.9791,8.6426,0.0,0.1568,0.005055,0.0,0.976,8.0,,,,,,0.68162,PASS,
362,s07_drive_turn,g000045_c0,45,,,,,,,,,0.2927527277388631,1.381732513798792,,,,,3.3203,10.9757,8.6413,0.0,0.1554,0.005055,0.0,0.976,8.0,,,,,,0.68108,PASS,
363,s07_drive_turn,g000045_c1,45,,,,,,,,,0.31138794272087716,1.430147483022503,,,,,3.3205,10.9771,8.6414,0.0,0.1559,0.005055,0.0,0.976,8.0,,,,,,0.68065,PASS,
364,s07_drive_turn,g000045_c2,45,,,,,,,,,0.31222274170238734,1.4402379796387552,,,,,3.3206,10.9751,8.642,0.0,0.1562,0.005055,0.0,0.976,8.0,,,,,,0.68111,PASS,
365,s07_drive_turn,g000045_c3,45,,,,,,,,,0.32586924902942105,1.3816054187868096,,,,,3.3212,10.9814,8.6424,0.0,0.1565,0.005055,0.0,0.976,8.0,,,,,,0.68072,PASS,
366,s07_drive_turn,g000045_c4,45,,,,,,,,,0.30673873229939425,1.3926385454656593,,,,,3.3207,10.9763,8.6415,0.0,0.1556,0.005055,0.0,0.976,8.0,,,,,,0.68037,PASS,
367,s07_drive_turn,g000045_c5,45,,,,,,,,,0.3094024593630765,1.35919833041435,,,,,3.3206,10.9771,8.6416,0.0,0.1558,0.005055,0.0,0.976,8.0,,,,,,0.68066,PASS,
368,s07_drive_turn,g000045_c6,45,,,,,,,,,0.31219257507576326,1.4434743466158644,,,,,3.3207,10.9769,8.642,0.0,0.1562,0.005055,0.0,0.976,8.0,,,,,,0.68112,PASS,
369,s07_drive_turn,g000045_c7,45,,,,,,,,,0.3221216910513108,1.4381825231937468,,,,,3.3208,10.974,8.6426,0.0,0.1568,0.005055,0.0,0.976,8.0,,,,,,0.68143,PASS,
370,s07_drive_turn,g000046_c0,46,,,,,,,,,0.31279753917440745,1.3745944035574411,,,,,3.3208,10.9834,8.642,0.0,0.1561,0.005055,0.0,0.976,8.0,,,,,,0.68098,PASS,
371,s07_drive_turn,g000046_c1,46,,,,,,,,,0.3192401015259213,1.3697270782046425,,,,,3.321,10.9758,8.6422,0.0,0.1564,0.005055,0.0,0.976,8.0,,,,,,0.681,PASS,
372,s07_drive_turn,g000046_c2,46,,,,,,,,,0.3226615199580883,1.4186464826605176,,,,,3.3211,10.9781,8.6422,0.0,0.1565,0.005055,0.0,0.976,8.0,,,,,,0.68101,PASS,
373,s07_drive_turn,g000046_c3,46,,,,,,,,,0.3232360691614274,1.4057848516815465,,,,,3.3213,10.978,8.6423,0.0,0.1564,0.005055,0.0,0.976,8.0,,,,,,0.68073,PASS,
374,s07_drive_turn,g000046_c4,46,,,,,,,,,0.32747468997237905,1.454399216737696,,,,,3.3215,10.9808,8.6427,0.0,0.1569,0.005055,0.0,0.976,8.0,,,,,,0.68135,PASS,
375,s07_drive_turn,g000046_c5,46,,,,,,,,,0.31082381788937874,1.4621000758790847,,,,,3.3203,10.9808,8.6412,0.0,0.1558,0.005055,0.0,0.976,8.0,,,,,,0.68048,PASS,
376,s07_drive_turn,g000046_c6,46,,,,,,,,,0.3088878192944451,1.4211859973774332,,,,,3.3208,10.9806,8.6419,0.0,0.1559,0.005055,0.0,0.976,8.0,,,,,,0.68083,PASS,
377,s07_drive_turn,g000046_c7,46,,,,,,,,,0.31157168257036005,1.4137592440365943,,,,,3.3208,10.9769,8.6416,0.0,0.1561,0.005055,0.0,0.976,8.0,,,,,,0.68098,PASS,
378,s07_drive_turn,g000047_c0,47,,,,,,,,,0.30934821215034247,1.36327431854159,,,,,3.3208,10.9763,8.642,0.0,0.156,0.005055,0.0,0.976,8.0,,,,,,0.68098,PASS,
379,s07_drive_turn,g000047_c1,47,,,,,,,,,0.3255829579767356,1.4251180605243294,,,,,3.3208,10.9788,8.6424,0.0,0.1564,0.005055,0.0,0.976,8.0,,,,,,0.68053,PASS,
380,s07_drive_turn,g000047_c2,47,,,,,,,,,0.32452487924871526,1.4355317578073066,,,,,3.3214,10.9779,8.6427,0.0,0.1567,0.005055,0.0,0.976,8.0,,,,,,0.68119,PASS,
